<gpx xmlns="http://www.topografix.com/GPX/1/1" xmlns:xsi="http://www.w3.org/2001/XMLSchema-instance" xsi:schemaLocation="http://www.topografix.com/GPX/1/1 http://www.topografix.com/GPX/1/1/gpx.xsd" version="1.1" creator="OverpassTurboBatch"><metadata/><wpt lat="50.8974584" lon="10.8482549"><name>Wandersleben, Grundschule</name><desc>bench=yes
bin=yes
bus=yes
highway=bus_stop
lit=yes
name=Wandersleben, Grundschule
network=Regionale Verkehrsgemeinschaft Gotha GmbH
public_transport=stop_area
shelter=yes
tactile_paving=no
id=node/523117</desc></wpt><wpt lat="50.893" lon="10.8497646"><name>Wandersleben Gewerbegebiet</name><desc>highway=bus_stop
name=Wandersleben Gewerbegebiet
shelter=yes
tactile_paving=no
id=node/524457</desc></wpt><wpt lat="50.9906424" lon="10.3830721"><name>Stockhausen, Mitte</name><desc>bench=yes
bin=yes
bus=yes
check_date=2023-04-04
departures_board=timetable
highway=bus_stop
lit=yes
name=Stockhausen, Mitte
public_transport=platform
shelter=yes
tactile_paving=yes
id=node/30507416</desc></wpt><wpt lat="51.1643419" lon="11.1859624"><name>B 176</name><desc>bench=yes
bus=yes
departures_board=timetable
highway=bus_stop
lit=yes
name=B 176
public_transport=platform
shelter=yes
tactile_paving=no
id=node/33209231</desc></wpt><wpt lat="50.9446587" lon="12.5130534"><name>Ehrenhain, Bahnhof</name><desc>bus=yes
highway=bus_stop
name=Ehrenhain, Bahnhof
network=Mitteldeutscher Verkehrsverbund
network:wikidata=Q1742463
network:wikipedia=de:Mitteldeutscher Verkehrsverbund
operator=Thüsac Personennahverkehrsgesellschaft mbH
public_transport=stop_position
id=node/33303877</desc></wpt><wpt lat="50.9475406" lon="12.4039402"><name>Burkersdorf (bei Altenburg)</name><desc>bus=yes
highway=bus_stop
name=Burkersdorf (bei Altenburg)
public_transport=stop_position
wheelchair=limited
id=node/33466787</desc></wpt><wpt lat="50.9370013" lon="12.3957631"><name>Gleina</name><desc>bus=yes
highway=bus_stop
name=Gleina
public_transport=stop_position
wheelchair=limited
id=node/33466793</desc></wpt><wpt lat="50.9038416" lon="12.3593298"><name>Schmölln, Robert-Koch-Straße</name><desc>bus=yes
highway=bus_stop
name=Schmölln, Robert-Koch-Straße
network=Mitteldeutscher Verkehrsverbund
network:short=MDV
network:wikidata=Q1742463
operator=ThüSac
public_transport=stop_position
wheelchair=limited
id=node/33466831</desc></wpt><wpt lat="50.9021868" lon="12.3541322"><name>Schmölln, Schmiede</name><desc>bus=yes
highway=bus_stop
name=Schmölln, Schmiede
network=Mitteldeutscher Verkehrsverbund
network:short=MDV
network:wikidata=Q1742463
operator=ThüSac
public_transport=stop_position
id=node/33466834</desc></wpt><wpt lat="51.5613356" lon="10.827663"><name>Neustadt, Ärztehaus am Ring</name><desc>bus=yes
highway=bus_stop
name=Neustadt, Ärztehaus am Ring
public_transport=stop_position
id=node/35137043</desc></wpt><wpt lat="50.9857536" lon="10.3260073"><name>Eisenach, Überm Gänsetal</name><desc>bus=yes
highway=bus_stop
name=Eisenach, Überm Gänsetal
public_transport=stop_position
id=node/35137451</desc></wpt><wpt lat="51.3637947" lon="10.8427609"><name>Eichenbergstraße</name><desc>bus=yes
highway=bus_stop
name=Eichenbergstraße
public_transport=stop_position
id=node/35595957</desc></wpt><wpt lat="51.3830357" lon="10.8989846"><name>Schersental</name><desc>bench=no
highway=bus_stop
name=Schersental
public_transport=platform
shelter=no
id=node/36145748</desc></wpt><wpt lat="50.8965384" lon="12.3485083"><name>Schmölln, Bergstraße/Ronneburger Straße</name><desc>bus=yes
highway=bus_stop
name=Schmölln, Bergstraße/Ronneburger Straße
network=Mitteldeutscher Verkehrsverbund
network:short=MDV
network:wikidata=Q1742463
operator=ThüSac
public_transport=stop_position
id=node/36243955</desc></wpt><wpt lat="50.9506553" lon="11.6066177"><name>Jena, Stifterstraße</name><desc>bus=yes
highway=bus_stop
loc_name=Stifterstraße
name=Jena, Stifterstraße
network=Verkehrsverbund Mittelthüringen
network:guid=DE-TH-VMT
network:short=VMT
network:wikidata=Q2516468
network:wikipedia=de:Verkehrsverbund Mittelthüringen
public_transport=stop_position
wheelchair=yes
id=node/49314773</desc></wpt><wpt lat="50.7731576" lon="11.8543532"><name>Schönborn, Mühle</name><desc>bus=yes
highway=bus_stop
name=Schönborn, Mühle
network=Verkehrsverbund Mittelthüringen
network:guid=DE-TH-VMT
network:short=VMT
network:wikidata=Q2516468
operator=KomBus GmbH
public_transport=stop_position
id=node/51206775</desc></wpt><wpt lat="50.6504478" lon="11.0978601"><name>node/75286968</name><desc>highway=bus_stop
shelter=yes
id=node/75286968</desc></wpt><wpt lat="51.0262326" lon="11.1417345"><name>Großmölsen</name><desc>bus=yes
highway=bus_stop
name=Großmölsen
public_transport=stop_position
id=node/76949614</desc></wpt><wpt lat="50.9595259" lon="11.1730425"><name>Sohnstedt</name><desc>bench=yes
bin=yes
highway=bus_stop
lit=no
name=Sohnstedt
network=Verkehrsverbund Mittelthüringen
network:guid=DE-TH-VMT
network:short=VMT
network:wikidata=Q2516468
public_transport=platform
ref=152, 240
shelter=yes
tactile_paving=no
id=node/77237109</desc></wpt><wpt lat="50.9505458" lon="11.104339"><name>Niedernissa</name><desc>bench=yes
bin=yes
bus=yes
departures_board=timetable
highway=bus_stop
name=Niedernissa
network=Verkehrsverbund Mittelthüringen
network:guid=DE-TH-VMT
network:short=VMT
network:wikidata=Q2516468
operator=EVAG
public_transport=platform
shelter=yes
id=node/82775722</desc></wpt><wpt lat="50.9492495" lon="11.1082853"><name>Wohngebiet, Zeckensee</name><desc>bus=yes
highway=bus_stop
name=Wohngebiet, Zeckensee
network=Verkehrsverbund Mittelthüringen
network:guid=DE-TH-VMT
network:short=VMT
network:wikidata=Q2516468
operator=EVAG
public_transport=stop_position
id=node/82775730</desc></wpt><wpt lat="50.9760479" lon="11.0715145"><name>Henne, Siedlung</name><desc>bus=yes
highway=bus_stop
name=Henne, Siedlung
network=Verkehrsverbund Mittelthüringen
network:guid=DE-TH-VMT
network:short=VMT
network:wikidata=Q2516468
operator=EVAG
public_transport=platform
id=node/82775809</desc></wpt><wpt lat="51.0115059" lon="11.6922742"><name>Steudnitz, Teich</name><desc>bin=yes
bus=yes
highway=bus_stop
name=Steudnitz, Teich
network=VMT
operator=JES
public_transport=stop_position
shelter=yes
id=node/84524749</desc></wpt><wpt lat="50.9754221" lon="11.5510801"><name>Krippendorf</name><desc>bus=yes
highway=bus_stop
name=Krippendorf
network=Verkehrsverbund Mittelthüringen
network:guid=DE-TH-VMT
network:short=VMT
network:wikidata=Q2516468
operator=JES
public_transport=stop_position
wheelchair=no
id=node/91399667</desc></wpt><wpt lat="50.9732956" lon="11.5361394"><name>Vierzehnheiligen</name><desc>bus=yes
highway=bus_stop
name=Vierzehnheiligen
network=Verkehrsverbund Mittelthüringen
network:guid=DE-TH-VMT
network:short=VMT
network:wikidata=Q2516468
network:wikipedia=de:Verkehrsverbund Mittelthüringen
public_transport=stop_position
toilets:wheelchair=no
wheelchair=no
id=node/91399684</desc></wpt><wpt lat="50.6576664" lon="11.092808"><name>Königsee, Gymnasium</name><desc>bus=yes
highway=bus_stop
name=Königsee, Gymnasium
public_transport=platform
wheelchair=yes
id=node/98344124</desc></wpt><wpt lat="50.6566157" lon="11.0501613"><name>Sorge</name><desc>bus=yes
highway=bus_stop
name=Sorge
public_transport=stop_position
id=node/100346764</desc></wpt><wpt lat="51.0168585" lon="11.2131449"><name>Ottstedt am Berge</name><desc>bus=yes
highway=bus_stop
name=Ottstedt am Berge
public_transport=stop_position
id=node/110557410</desc></wpt><wpt lat="50.8492514" lon="12.4177027"><name>node/117143103</name><desc>bus=yes
highway=bus_stop
public_transport=stop_position
id=node/117143103</desc></wpt><wpt lat="50.9506155" lon="11.1044461"><name>Niedernissa</name><desc>bench=yes
bin=yes
bus=yes
departures_board=timetable
highway=bus_stop
name=Niedernissa
network=Verkehrsverbund Mittelthüringen
network:guid=DE-TH-VMT
network:short=VMT
network:wikidata=Q2516468
operator=EVAG
public_transport=platform
shelter=yes
id=node/117419305</desc></wpt><wpt lat="50.9568367" lon="11.0624224"><name>Blücherstraße</name><desc>bus=yes
highway=bus_stop
name=Blücherstraße
network=Verkehrsverbund Mittelthüringen
network:short=VMT
public_transport=stop_position
id=node/119713037</desc></wpt><wpt lat="50.5449695" lon="11.0299323"><name>Katzhütte, Oelze</name><desc>bus=yes
highway=bus_stop
name=Katzhütte, Oelze
public_transport=stop_position
ref_name=Oelze, Katzhütte
id=node/156655480</desc></wpt><wpt lat="50.3667982" lon="11.1751629"><name>Untere Marktstraße</name><desc>bench=no
bin=no
bus=yes
highway=bus_stop
lit=no
name=Untere Marktstraße
network=Stadtbus Sonneberg
operator=OVG Sonneberg
public_transport=stop_position;platform
shelter=no
tactile_paving=no
id=node/158592736</desc></wpt><wpt lat="50.6061508" lon="11.0175033"><name>Gillersdorf</name><desc>bus=yes
highway=bus_stop
name=Gillersdorf
public_transport=stop_position
id=node/159038004</desc></wpt><wpt lat="50.6219314" lon="11.0687623"><name>Allersdorf, Abzweig</name><desc>bus=yes
highway=bus_stop
name=Allersdorf, Abzweig
network=VMT
network:wikidata=Q2516468
network:wikipedia=de:Verkehrsverbund Mittelthüringen
operator=KomBus GmbH
public_transport=stop_position
id=node/159729816</desc></wpt><wpt lat="50.9046679" lon="12.0687314"><name>Gera, Autobahn</name><desc>bench=no
bin=no
highway=bus_stop
lit=no
name=Gera, Autobahn
network=Verkehrsverbund Mittelthüringen
network:short=VMT
public_transport=platform
shelter=no
tactile_paving=no
id=node/160595745</desc></wpt><wpt lat="50.9034431" lon="12.361029"><name>Schmölln, Cosswitzbrücke</name><desc>bus=yes
highway=bus_stop
name=Schmölln, Cosswitzbrücke
operator=ThüSac
public_transport=stop_position
wheelchair=yes
id=node/173583609</desc></wpt><wpt lat="50.3437204" lon="11.185002"><name>Sonneberg, Oberlind Bildungswerk</name><desc>bus=yes
highway=bus_stop
name=Sonneberg, Oberlind Bildungswerk
public_transport=stop_position
id=node/185677687</desc></wpt><wpt lat="51.0711829" lon="11.1439665"><name>Eckstedt</name><desc>bench=no
bus=yes
departures_board=timetable
highway=bus_stop
name=Eckstedt
public_transport=platform
shelter=yes
id=node/219303823</desc></wpt><wpt lat="51.0705839" lon="11.1471839"><name>Schule</name><desc>bench=yes
bus=yes
highway=bus_stop
name=Schule
public_transport=platform
shelter=yes
id=node/219303841</desc></wpt><wpt lat="51.071279" lon="11.144554"><name>Eckstedt</name><desc>bench=no
bus=yes
departures_board=timetable
highway=bus_stop
name=Eckstedt
public_transport=platform
shelter=no
id=node/219303845</desc></wpt><wpt lat="51.0782005" lon="11.1748465"><name>Markvippach, Gemeindeverwaltung</name><desc>bench=yes
bus=yes
highway=bus_stop
name=Markvippach, Gemeindeverwaltung
public_transport=platform
shelter=yes
id=node/219303872</desc></wpt><wpt lat="51.0647313" lon="11.1903368"><name>Bachstedt</name><desc>bench=no
bus=yes
highway=bus_stop
name=Bachstedt
public_transport=platform
shelter=no
id=node/219303907</desc></wpt><wpt lat="51.0541375" lon="11.2111043"><name>Ballstedt</name><desc>bus_stop_info=Linie 217: Weimar -- Linie 227: Berlstedt
highway=bus_stop
name=Ballstedt
network=Verkehrsverbund Mittelthüringen
network:guid=DE-TH-VMT
network:short=VMT
network:wikidata=Q15712258
public_transport=platform
wheelchair=yes
id=node/219303936</desc></wpt><wpt lat="51.0540516" lon="11.2109398"><name>Ballstedt</name><desc>bus_stop_info=Linie 217: Weimar
highway=bus_stop
name=Ballstedt
network=Verkehrsverbund Mittelthüringen
network:guid=DE-TH-VMT
network:short=VMT
network:wikidata=Q15712258
public_transport=platform
wheelchair=yes
id=node/219303943</desc></wpt><wpt lat="50.705831" lon="10.8493718"><name>Elgersburg, Bahnhofstraße</name><desc>bus=yes
highway=bus_stop
loc_name=Bahnhof
name=Elgersburg, Bahnhofstraße
public_transport=stop_position
short_name=Bahnhofstraße
wheelchair=limited
id=node/224203947</desc></wpt><wpt lat="51.5283154" lon="10.8246556"><name>Petersdorf, Schule</name><desc>bus=yes
highway=bus_stop
name=Petersdorf, Schule
operator=Verkehrsbetriebe Nordhausen
public_transport=stop_position
id=node/224375857</desc></wpt><wpt lat="50.752363" lon="11.040986"><name>Griesheim</name><desc>bus=yes
highway=bus_stop
name=Griesheim
network=Verkehrsverbund Mittelthüringen
network:short=VMT
public_transport=stop_position
id=node/225985848</desc></wpt><wpt lat="50.379293" lon="11.1712161"><name>Hößrichsmühle</name><desc>bench=yes
bin=no
bus=yes
highway=bus_stop
lit=no
name=Hößrichsmühle
public_transport=stop_position;platform
shelter=yes
tactile_paving=no
id=node/248097199</desc></wpt><wpt lat="50.5228528" lon="11.0067151"><name>Goldisthal, Kulturhaus</name><desc>bus=yes
highway=bus_stop
name=Goldisthal, Kulturhaus
public_transport=stop_position
ref_name=Kulturhaus, Goldisthal
id=node/248098026</desc></wpt><wpt lat="50.9780034" lon="11.2895137"><name>Tröbsdorf, B7</name><desc>bench=no
bin=no
bus=yes
highway=bus_stop
lit=no
name=Tröbsdorf, B7
public_transport=platform
route_ref=233, 234, 240
shelter=no
tactile_paving=no
wheelchair=yes
id=node/248608085</desc></wpt><wpt lat="50.9875924" lon="11.3350398"><name>Schlachthofstraße</name><desc>bench=no
bin=no
bus=yes
highway=bus_stop
lit=no
name=Schlachthofstraße
network=Verkehrsverbund Mittelthüringen
network:guid=DE-TH-VMT
network:short=VMT
network:wikidata=Q2516468
operator=Stadtwirtschaft Weimar;Stadtwirtschaft Weimar GmbH
public_transport=platform
shelter=no
tactile_paving=no
id=node/248747219</desc></wpt><wpt lat="51.009357" lon="11.3322655"><name>Ernst-Busse-Straße</name><desc>bench=yes
bin=yes
bus=yes
check_date:shelter=2023-08-31
highway=bus_stop
lit=yes
name=Ernst-Busse-Straße
network=Verkehrsverbund Mittelthüringen (VMT)
network:guid=DE-TH-VMT
network:short=VMT
operator=Stadtwirtschaft Weimar GmbH
passenger_information_display=no
public_transport=platform
shelter=yes
tactile_paving=no
wheelchair=limited
id=node/249696721</desc></wpt><wpt lat="51.3828258" lon="10.5239928"><name>Rehungen</name><desc>bench=yes
highway=bus_stop
name=Rehungen
shelter=yes
tactile_paving=no
id=node/250158565</desc></wpt><wpt lat="50.7820504" lon="10.129771"><name>Stadtlengsfeld, Dr. Krug</name><desc>bench=yes
bin=yes
highway=bus_stop
lit=yes
name=Stadtlengsfeld, Dr. Krug
shelter=yes
tactile_paving=yes
id=node/250624905</desc></wpt><wpt lat="50.8174585" lon="10.0830531"><name>node/250624939</name><desc>bus=yes
highway=bus_stop
public_transport=platform
id=node/250624939</desc></wpt><wpt lat="50.8166547" lon="10.0853635"><name>node/250624940</name><desc>bus=yes
highway=bus_stop
public_transport=platform
id=node/250624940</desc></wpt><wpt lat="50.7112292" lon="11.6318717"><name>node/251653483</name><desc>highway=bus_stop
id=node/251653483</desc></wpt><wpt lat="50.6188151" lon="10.5320832"><name>Schwarza, Post</name><desc>bus=yes
highway=bus_stop
name=Schwarza, Post
network=MBB
operator=MBB
public_transport=platform
id=node/252185159</desc></wpt><wpt lat="50.7129421" lon="10.5868542"><name>Unterschönau, Bäckerei</name><desc>bus=yes
highway=bus_stop
name=Unterschönau, Bäckerei
network=IVRPV
operator=MBB
public_transport=stop_position
shelter=yes
id=node/253876052</desc></wpt><wpt lat="50.7113139" lon="10.5497748"><name>Rotterode, Wendeplatz</name><desc>bus=yes
highway=bus_stop
name=Rotterode, Wendeplatz
network=IVRPV
operator=MBB
public_transport=stop_position
id=node/253876134</desc></wpt><wpt lat="50.6821211" lon="10.5572206"><name>Herges-Hallenberg, Brücke</name><desc>bus=yes
highway=bus_stop
name=Herges-Hallenberg, Brücke
network=IVRPV
operator=MBB
public_transport=stop_position
id=node/253876773</desc></wpt><wpt lat="50.9131524" lon="11.595931"><name>node/257705769</name><desc>id=node/257705769</desc></wpt><wpt lat="50.6538073" lon="10.1405471"><name>node/259028653</name><desc>created_by=JOSM
highway=bus_stop
shelter=yes
id=node/259028653</desc></wpt><wpt lat="50.6842215" lon="10.0997914"><name>node/259656639</name><desc>highway=bus_stop
id=node/259656639</desc></wpt><wpt lat="50.9270092" lon="11.5858539"><name>Holzmarkt</name><desc>bus=yes
direction=backward
highway=bus_stop
name=Holzmarkt
network=Verkehrsverbund Mittelthüringen
network:guid=DE-TH-VMT
network:short=VMT
network:wikidata=Q2516468
operator=JeNah
public_transport=stop_position
wheelchair=yes
id=node/259782425</desc></wpt><wpt lat="50.8882508" lon="12.4393928"><name>Gößnitz, Schule</name><desc>bus=yes
highway=bus_stop
name=Gößnitz, Schule
network=MDV
operator=ThüSac
public_transport=platform
id=node/260744839</desc></wpt><wpt lat="50.8985829" lon="12.4971056"><name>Zumroda, Wendeschleife</name><desc>bench=yes
bin=yes
bus=yes
departures_board=timetable
highway=bus_stop
name=Zumroda, Wendeschleife
network=MDV
operator=ThüSac
public_transport=platform
shelter=yes
tactile_paving=no
id=node/260752156</desc></wpt><wpt lat="50.9043826" lon="12.4572969"><name>Goldschau</name><desc>bus=yes
highway=bus_stop
name=Goldschau
network=Mitteldeutscher Verkehrsverbund
operator=Thüsac Personennahverkehrsgesellschaft mbH
public_transport=stop_position
id=node/261970135</desc></wpt><wpt lat="50.9802868" lon="11.3802697"><name>Am Abzweig Süßenborn</name><desc>bench=yes
bin=no
bus=yes
highway=bus_stop
loc_name=Am Landhaus
name=Am Abzweig Süßenborn
network=Verkehrsverbund Mittelthüringen
network:guid=DE-TH-VMT
network:short=VMT
network:wikidata=Q2516468
network:wikipedia=de:Verkehrsverbund Mittelthüringen
operator=PVG mbH Weimarer Land
public_transport=platform
shelter=no
tactile_paving=no
id=node/263200131</desc></wpt><wpt lat="50.9804082" lon="11.3802628"><name>Am Abzweig Süßenborn</name><desc>bench=no
bin=no
bus=yes
highway=bus_stop
loc_name=Am Landhaus
name=Am Abzweig Süßenborn
network=Verkehrsverbund Mittelthüringen
network:guid=DE-TH-VMT
network:short=VMT
network:wikidata=Q2516468
network:wikipedia=de:Verkehrsverbund Mittelthüringen
operator=PVG mbH Weimarer Land
public_transport=platform
shelter=no
tactile_paving=no
id=node/263200156</desc></wpt><wpt lat="50.894924" lon="11.5835211"><name>Winzerla</name><desc>bus=yes
direction=forward
highway=bus_stop
name=Winzerla
network=Verkehrsverbund Mittelthüringen
network:guid=DE-TH-VMT
network:short=VMT
network:wikidata=Q2516468
operator=JeNah
public_transport=stop_position
ref=4
wheelchair=yes
id=node/263261156</desc></wpt><wpt lat="50.9775836" lon="10.3551109"><name>Hofferbertaue</name><desc>bus=yes
highway=bus_stop
name=Hofferbertaue
public_transport=platform
shelter=yes
id=node/264054650</desc></wpt><wpt lat="50.8787787" lon="11.5480088"><name>node/264141531</name><desc>id=node/264141531</desc></wpt><wpt lat="50.9940172" lon="10.3546366"><name>Abzweig Boschwerk</name><desc>bus=yes
highway=bus_stop
name=Abzweig Boschwerk
public_transport=platform
shelter=no
id=node/265086972</desc></wpt><wpt lat="50.9063051" lon="11.6338547"><name>node/266496910</name><desc>id=node/266496910</desc></wpt><wpt lat="51.5061758" lon="10.7956739"><name>Wallrothstraße</name><desc>bus=yes
highway=bus_stop
name=Wallrothstraße
public_transport=platform
wheelchair=yes
id=node/267582228</desc></wpt><wpt lat="50.4288541" lon="11.8929332"><name>Gebersreuth</name><desc>bus=yes
highway=bus_stop
name=Gebersreuth
network=VMT
operator=KomBus GmbH
public_transport=stop_position
id=node/267958916</desc></wpt><wpt lat="50.4133478" lon="11.8619135"><name>Juchhöh</name><desc>bus=yes
highway=bus_stop
name=Juchhöh
network=VMT
operator=KomBus GmbH
public_transport=stop_position
id=node/267959390</desc></wpt><wpt lat="50.438178" lon="10.3993046"><name>Berkach</name><desc>bus=yes
highway=bus_stop
name=Berkach
public_transport=stop_position
id=node/268145965</desc></wpt><wpt lat="50.9993545" lon="11.146275"><name>Vieselbach</name><desc>highway=bus_stop
name=Vieselbach
network=Verkehrsverbund Mittelthüringen
network:guid=DE-TH-VMT
network:short=VMT
network:wikidata=Q2516468
operator=EVAG
public_transport=platform
shelter=yes
id=node/268251500</desc></wpt><wpt lat="51.0113188" lon="11.1475525"><name>Wallichen</name><desc>bus=yes
highway=bus_stop
name=Wallichen
network=Verkehrsverbund Mittelthüringen
network:guid=DE-TH-VMT
network:short=VMT
network:wikidata=Q2516468
operator=EVAG
public_transport=platform
shelter=yes
id=node/268251542</desc></wpt><wpt lat="51.0034743" lon="11.1447938"><name>Vieselbach, Gewerbestraße</name><desc>bus=yes
highway=bus_stop
name=Vieselbach, Gewerbestraße
network=Verkehrsverbund Mittelthüringen
network:guid=DE-TH-VMT
network:short=VMT
network:wikidata=Q2516468
operator=EVAG
public_transport=stop_position
shelter=no
id=node/268251636</desc></wpt><wpt lat="50.9129135" lon="11.6211511"><name>node/268392361</name><desc>id=node/268392361</desc></wpt><wpt lat="51.0058162" lon="11.044921"><name>Saline</name><desc>bus=yes
highway=bus_stop
name=Saline
public_transport=stop_position
id=node/269040170</desc></wpt><wpt lat="50.9734593" lon="11.0649605"><name>Eisenberger Straße</name><desc>bench=no
bin=no
bus=yes
description=Linie 51 nur in Richtung Hbf
highway=bus_stop
lit=no
name=Eisenberger Straße
network=Verkehrsverbund Mittelthüringen
network:guid=DE-TH-VMT
network:short=VMT
network:wikidata=Q2516468
operator=EVAG
public_transport=platform
shelter=no
tactile_paving=no
id=node/269248667</desc></wpt><wpt lat="50.9022041" lon="10.4705262"><name>Schwarzhausen</name><desc>bench=yes
bin=yes
bus=yes
highway=bus_stop
name=Schwarzhausen
public_transport=platform
shelter=yes
id=node/269401280</desc></wpt><wpt lat="50.660836" lon="10.9428424"><name>Oehrenstock</name><desc>bench=yes
bus=yes
highway=bus_stop
name=Oehrenstock
operator=IOV Omnibusverkehr GmbH Ilmenau
public_transport=platform
shelter=yes
id=node/269444646</desc></wpt><wpt lat="50.9471144" lon="10.697724"><name>Myconiusplatz</name><desc>bin=yes
bus=yes
highway=bus_stop
name=Myconiusplatz
network=Verkehrsverbund Mittelthüringen
network:guid=DE-TH-VMT
network:short=VMT
network:wikidata=Q2516468
public_transport=stop_position
railway=tram_stop
shelter=yes
tram=yes
wheelchair:description=Kasseler Bord vorhanden
id=node/269590021</desc></wpt><wpt lat="50.9926289" lon="10.9898385"><name>Rochlitzer Straße</name><desc>bench=no
bin=yes
bus=yes
departures_board=timetable
highway=bus_stop
lit=yes
name=Rochlitzer Straße
network=Verkehrsverbund Mittelthüringen
network:guid=DE-TH-VMT
network:short=VMT
network:wikidata=Q2516468
operator=EVAG
public_transport=platform
shelter=no
tactile_paving=no
id=node/269618941</desc></wpt><wpt lat="50.9929254" lon="10.9889113"><name>Rochlitzer Straße</name><desc>bench=yes
bin=yes
bus=yes
check_date:shelter=2021-12-11
highway=bus_stop
lit=yes
name=Rochlitzer Straße
network=Verkehrsverbund Mittelthüringen
network:guid=DE-TH-VMT
network:short=VMT
network:wikidata=Q2516468
operator=EVAG
public_transport=platform
shelter=yes
tactile_paving=no
id=node/269618944</desc></wpt><wpt lat="50.9931329" lon="10.9848877"><name>Marbach, Schlösschen</name><desc>bench=no
bin=no
bus=yes
highway=bus_stop
lit=yes
name=Marbach, Schlösschen
network=Verkehrsverbund Mittelthüringen
network:guid=DE-TH-VMT
network:short=VMT
network:wikidata=Q2516468
operator=EVAG
public_transport=platform
shelter=no
tactile_paving=no
id=node/269618963</desc></wpt><wpt lat="50.5996859" lon="10.6559749"><name>Heinrichs, Rathaus/VHS</name><desc>bus=yes
highway=bus_stop
name=Heinrichs, Rathaus/VHS
public_transport=platform
shelter=no
id=node/270383441</desc></wpt><wpt lat="50.9304218" lon="11.6172739"><name>Schlegelsberg</name><desc>bench=yes
bin=yes
bus=yes
highway=bus_stop
lit=yes
name=Schlegelsberg
network=Verkehrsverbund Mittelthüringen
network:guid=DE-TH-VMT
network:short=VMT
network:wikidata=Q2516468
operator=JeNah
public_transport=platform
shelter=yes
tactile_paving=no
wheelchair=no
id=node/270607393</desc></wpt><wpt lat="51.0089083" lon="11.0003541"><name>Moskauer Platz</name><desc>bench=yes
bin=yes
bus=yes
highway=bus_stop
lit=yes
name=Moskauer Platz
network=Verkehrsverbund Mittelthüringen
network:guid=DE-TH-VMT
network:short=VMT
network:wikidata=Q2516468
public_transport=platform
shelter=yes
tactile_paving=yes
wheelchair=yes
id=node/270614447</desc></wpt><wpt lat="50.986301" lon="10.9325037"><name>Alach, Schule</name><desc>bus=yes
highway=bus_stop
name=Alach, Schule
network=Verkehrsverbund Mittelthüringen
network:guid=DE-TH-VMT
network:short=VMT
network:wikidata=Q2516468
public_transport=platform
id=node/270727022</desc></wpt><wpt lat="50.9899571" lon="10.925104"><name>Obertor</name><desc>bus=yes
highway=bus_stop
name=Obertor
public_transport=stop_position
id=node/270727176</desc></wpt><wpt lat="51.0332029" lon="11.2844287"><name>Ettersburg, Wohnheim</name><desc>bench=no
bin=no
bus=yes
check_date:shelter=2024-04-06
highway=bus_stop
lit=no
name=Ettersburg, Wohnheim
network=Verkehrsverbund Mittelthüringen
network:guid=DE-TH-VMT
network:short=VMT
network:wikidata=Q15712258
operator=Stadtwirtschaft Weimar GmbH
public_transport=platform
public_transport:version=2
shelter=no
tactile_paving=no
id=node/271015970</desc></wpt><wpt lat="51.0149714" lon="10.6840686"><name>node/271323481</name><desc>highway=bus_stop
shelter=yes
id=node/271323481</desc></wpt><wpt lat="50.8082722" lon="12.1624546"><name>Pohlen</name><desc>highway=bus_stop
name=Pohlen
public_transport=platform
id=node/271739619</desc></wpt><wpt lat="50.6756327" lon="10.9648147"><name>Langewiesen, Ehrenburg</name><desc>bench=yes
bin=yes
bus=yes
highway=bus_stop
lit=yes
name=Langewiesen, Ehrenburg
operator=IOV Omnibusverkehr GmbH Ilmenau
public_transport=platform
shelter=yes
tactile_paving=yes
id=node/272486898</desc></wpt><wpt lat="50.6752894" lon="10.9653957"><name>Langewiesen, Ehrenburg</name><desc>bench=yes
bin=yes
bus=yes
highway=bus_stop
lit=yes
name=Langewiesen, Ehrenburg
operator=IOV Omnibusverkehr GmbH Ilmenau
public_transport=platform
shelter=yes
tactile_paving=yes
id=node/272486899</desc></wpt><wpt lat="51.0434143" lon="12.4712262"><name>Stausee</name><desc>bench=no
bin=no
bus=yes
highway=bus_stop
lit=yes
name=Stausee
public_transport=platform
shelter=no
tactile_paving=no
id=node/272693420</desc></wpt><wpt lat="51.4977283" lon="10.799083"><name>Sangerhäuser Straße</name><desc>bench=yes
bin=yes
bus=yes
highway=bus_stop
lit=yes
name=Sangerhäuser Straße
public_transport=platform
shelter=yes
tactile_paving=yes
wheelchair=limited
id=node/273105160</desc></wpt><wpt lat="51.0495468" lon="12.4855236"><name>Pahna, Ort</name><desc>bus=yes
highway=bus_stop
name=Pahna, Ort
public_transport=stop_position
id=node/274242636</desc></wpt><wpt lat="50.6285346" lon="10.7439969"><name>Goldlauter, Brücke</name><desc>bus=yes
highway=bus_stop
name=Goldlauter, Brücke
public_transport=stop_position
id=node/274400769</desc></wpt><wpt lat="50.9201984" lon="12.3865349"><name>Großstöbnitz</name><desc>bus=yes
highway=bus_stop
name=Großstöbnitz
public_transport=stop_position
id=node/274831008</desc></wpt><wpt lat="50.8934895" lon="12.3362834"><name>Ronneburger Straße</name><desc>bus=yes
highway=bus_stop
name=Ronneburger Straße
network=MDV
public_transport=stop_position
id=node/274831009</desc></wpt><wpt lat="50.9120494" lon="12.0643876"><name>Gera, Am Lerchenberg</name><desc>bench=yes
bin=yes
bus=yes
highway=bus_stop
lit=yes
name=Gera, Am Lerchenberg
network=Verkehrsverbund Mittelthüringen
network:guid=DE-TH-VMT
network:short=VMT
network:wikidata=Q2516468
public_transport=platform
shelter=yes
tactile_paving=no
id=node/275405564</desc></wpt><wpt lat="51.0765888" lon="10.8540122"><name>node/275671252</name><desc>highway=bus_stop
id=node/275671252</desc></wpt><wpt lat="50.6812529" lon="11.1570653"><name>Rottenbach, Gewerbegebiet</name><desc>bus=yes
highway=bus_stop
name=Rottenbach, Gewerbegebiet
public_transport=platform
shelter=no
id=node/276199207</desc></wpt><wpt lat="50.8771898" lon="12.0871003"><name>Schillerstraße</name><desc>bench=no
bin=yes
bus=yes
departures_board=timetable
highway=bus_stop
lit=yes
name=Schillerstraße
network=Verkehrsverbund Mittelthüringen
network:guid=DE-TH-VMT
network:short=VMT
network:wikidata=Q2516468
operator=GVB
public_transport=platform
shelter=no
tactile_paving=no
wheelchair=yes
id=node/276534370</desc></wpt><wpt lat="50.8773946" lon="12.087329"><name>Schillerstraße</name><desc>bench=no
bin=yes
bus=yes
departures_board=timetable
highway=bus_stop
lit=yes
name=Schillerstraße
network=Verkehrsverbund Mittelthüringen
network:guid=DE-TH-VMT
network:short=VMT
network:wikidata=Q2516468
operator=GVB
public_transport=platform
shelter=no
tactile_paving=no
id=node/276534384</desc></wpt><wpt lat="50.6022289" lon="10.7072189"><name>Suhl, Döllberg/Klinikum</name><desc>bus=yes
highway=bus_stop
name=Suhl, Döllberg/Klinikum
public_transport=stop_position
shelter=yes
id=node/276801438</desc></wpt><wpt lat="50.9081506" lon="12.0658375"><name>Gera, Autobahn</name><desc>bench=yes
bin=yes
highway=bus_stop
name=Gera, Autobahn
network=Verkehrsverbund Mittelthüringen
network:short=VMT
public_transport=platform
shelter=yes
tactile_paving=yes
id=node/277025976</desc></wpt><wpt lat="50.6649509" lon="11.2908979"><name>Unterwirbach, Am Wirbach</name><desc>bus=yes
highway=bus_stop
name=Unterwirbach, Am Wirbach
public_transport=platform
id=node/277265966</desc></wpt><wpt lat="50.6653151" lon="11.2914035"><name>Unterwirbach, Am Wirbach</name><desc>bus=yes
highway=bus_stop
name=Unterwirbach, Am Wirbach
public_transport=platform
id=node/277265974</desc></wpt><wpt lat="50.6663948" lon="11.2916275"><name>Unterwirbach</name><desc>bench=no
bin=no
bus=yes
departures_board=realtime
highway=bus_stop
lit=yes
name=Unterwirbach
network=Verkehrsverbund Mittelthüringen
network:guid=DE-TH-VMT
network:short=VMT
network:wikidata=Q2516468
operator=KomBus GmbH
public_transport=platform
shelter=no
tactile_paving=yes
id=node/277359922</desc></wpt><wpt lat="50.6671918" lon="11.2915849"><name>Unterwirbach</name><desc>bench=yes
bus=yes
highway=bus_stop
name=Unterwirbach
network=Verkehrsverbund Mittelthüringen
network:guid=DE-TH-VMT
network:short=VMT
network:wikidata=Q2516468
operator=KomBus GmbH
public_transport=platform
shelter=yes
id=node/277359929</desc></wpt><wpt lat="51.0096122" lon="11.1043928"><name>Zum Kleinen Dorfplan</name><desc>bench=no
bin=no
bus=yes
highway=bus_stop
name=Zum Kleinen Dorfplan
network=Verkehrsverbund Mittelthüringen
network:guid=DE-TH-VMT
network:short=VMT
network:wikidata=Q2516468
operator=EVAG
public_transport=platform
shelter=no
id=node/277479689</desc></wpt><wpt lat="51.0096429" lon="11.1042238"><name>Zum Kleinen Dorfplan</name><desc>bus=yes
highway=bus_stop
name=Zum Kleinen Dorfplan
network=Verkehrsverbund Mittelthüringen
network:guid=DE-TH-VMT
network:short=VMT
network:wikidata=Q2516468
operator=EVAG
public_transport=platform
shelter=yes
id=node/277479690</desc></wpt><wpt lat="51.2486581" lon="10.6553646"><name>Schlotheim, Bahnhof</name><desc>bench=yes
bus=yes
highway=bus_stop
name=Schlotheim, Bahnhof
public_transport=platform
shelter=yes
id=node/277640361</desc></wpt><wpt lat="51.0171844" lon="12.3609895"><name>Rositz, Zechauer Straße</name><desc>bus=yes
highway=bus_stop
name=Rositz, Zechauer Straße
network=MDV
network:wikidata=Q1742463
operator=ThüSac
public_transport=stop_position
id=node/277701545</desc></wpt><wpt lat="50.6188938" lon="10.698053"><name>Suhl, Henneberger Haus</name><desc>bench=yes
bin=yes
bus=yes
highway=bus_stop
name=Suhl, Henneberger Haus
public_transport=platform
shelter=yes
wheelchair=yes
id=node/278156143</desc></wpt><wpt lat="50.6200526" lon="10.6983949"><name>Suhl, Henneberger Haus</name><desc>bus=yes
highway=bus_stop
name=Suhl, Henneberger Haus
public_transport=platform
wheelchair=yes
id=node/278156144</desc></wpt><wpt lat="50.628805" lon="10.7051202"><name>Suhl, Große Beerbergstraße</name><desc>bench=yes
bin=yes
bus=yes
highway=bus_stop
lit=yes
name=Suhl, Große Beerbergstraße
public_transport=platform
shelter=yes
tactile_paving=no
wheelchair=yes
id=node/278156844</desc></wpt><wpt lat="50.6291209" lon="10.7025915"><name>Suhl, Große Beerbergstraße/Rennsteigstraße</name><desc>bus=yes
highway=bus_stop
name=Suhl, Große Beerbergstraße/Rennsteigstraße
public_transport=platform
shelter=yes
id=node/278157103</desc></wpt><wpt lat="50.6328724" lon="10.7085076"><name>Suhl, Große Beerbergstraße/Ringbergstraße</name><desc>bus=yes
highway=bus_stop
name=Suhl, Große Beerbergstraße/Ringbergstraße
public_transport=platform
wheelchair=yes
id=node/278157778</desc></wpt><wpt lat="50.6316409" lon="10.7086429"><name>Suhl, Große Beerbergstraße/Ringbergstraße</name><desc>bus=yes
highway=bus_stop
name=Suhl, Große Beerbergstraße/Ringbergstraße
public_transport=platform
shelter=no
wheelchair=yes
id=node/278157781</desc></wpt><wpt lat="50.6460595" lon="10.6751584"><name>Zella-Mehlis, Bahnhof</name><desc>bus=yes
highway=bus_stop
name=Zella-Mehlis, Bahnhof
public_transport=stop_position
ref=1
id=node/278159365</desc></wpt><wpt lat="50.6448219" lon="10.6875771"><name>Zella-Mehlis, Gewerbegebiet</name><desc>bench=yes
bin=yes
bus=yes
highway=bus_stop
lit=yes
name=Zella-Mehlis, Gewerbegebiet
public_transport=platform
shelter=yes
tactile_paving=no
id=node/278159586</desc></wpt><wpt lat="50.6446262" lon="10.6886458"><name>Zella-Mehlis, Gewerbegebiet</name><desc>bench=yes
bin=yes
bus=yes
highway=bus_stop
lit=yes
name=Zella-Mehlis, Gewerbegebiet
public_transport=platform
shelter=yes
tactile_paving=no
id=node/278159587</desc></wpt><wpt lat="50.654604" lon="10.6706617"><name>Zella-Mehlis, Kirchstraße</name><desc>bench=yes
bin=yes
bus=yes
highway=bus_stop
lit=yes
name=Zella-Mehlis, Kirchstraße
public_transport=platform
shelter=yes
tactile_paving=yes
wheelchair=no
id=node/278162351</desc></wpt><wpt lat="50.6552625" lon="10.6682542"><name>Zella-Mehlis, Lutherschule</name><desc>bench=no
bin=yes
bus=yes
highway=bus_stop
is_in=Zella-Mehlis
lit=yes
name=Zella-Mehlis, Lutherschule
public_transport=platform
shelter=no
tactile_paving=yes
id=node/278162353</desc></wpt><wpt lat="50.6023512" lon="10.7070634"><name>Suhl, Döllberg/Klinikum</name><desc>bus=yes
highway=bus_stop
name=Suhl, Döllberg/Klinikum
public_transport=stop_position
id=node/278165394</desc></wpt><wpt lat="50.9969182" lon="11.0116168"><name>Marie-Elise-Kayser-Straße</name><desc>bus=yes
highway=bus_stop
name=Marie-Elise-Kayser-Straße
public_transport=stop_position
wheelchair=yes
id=node/278767871</desc></wpt><wpt lat="50.9832083" lon="11.3415748"><name>Großmutterleite</name><desc>bench=no
bin=no
bus=yes
highway=bus_stop
lit=no
name=Großmutterleite
network=Stadtbus Weimar
operator=Stadtwirtschaft Weimar GmbH
public_transport=platform
shelter=no
tactile_paving=no
id=node/278851186</desc></wpt><wpt lat="50.9797865" lon="11.3437232"><name>Webichtallee</name><desc>bench=no
bus=yes
departures_board=timetable
highway=bus_stop
name=Webichtallee
network=Verkehrsverbund Mittelthüringen
network:guid=DE-TH-VMT
network:short=VMT
network:wikidata=Q2516468
operator=Stadtwirtschaft Weimar GmbH
public_transport=platform
shelter=no
tactile_paving=no
toilets:wheelchair=no
wheelchair=limited
id=node/278851192</desc></wpt><wpt lat="50.8877045" lon="11.4396205"><name>Niedersynderstedt</name><desc>bus=yes
highway=bus_stop
name=Niedersynderstedt
network=Verkehrsverbund Mittelthüringen
network:guid=DE-TH-VMT
network:short=VMT
network:wikidata=Q2516468
operator=PVG mbH Weimarer Land
public_transport=platform
shelter=yes
id=node/279386682</desc></wpt><wpt lat="50.833654" lon="10.9411374"><name>Arnstadt, Schönbrunnstraße</name><desc>bench=yes
bin=yes
bus=yes
highway=bus_stop
lit=yes
name=Arnstadt, Schönbrunnstraße
public_transport=platform
shelter=yes
tactile_paving=no
id=node/279653412</desc></wpt><wpt lat="50.83378" lon="10.9406137"><name>Arnstadt, Schönbrunnstraße</name><desc>bench=yes
bin=yes
bus=yes
highway=bus_stop
lit=yes
name=Arnstadt, Schönbrunnstraße
public_transport=platform
shelter=yes
tactile_paving=no
id=node/279653414</desc></wpt><wpt lat="51.1026347" lon="12.3313639"><name>Berndorf, Gemeindeverwaltung</name><desc>bus=yes
highway=bus_stop
name=Berndorf, Gemeindeverwaltung
network=MDV
operator=Thüsac
public_transport=stop_position
id=node/279773687</desc></wpt><wpt lat="50.8885124" lon="12.0949773"><name>Gerhart-Hauptmann-Straße</name><desc>bus=yes
departures_board=timetable
highway=bus_stop
name=Gerhart-Hauptmann-Straße
network=Verkehrsverbund Mittelthüringen
network:guid=DE-TH-VMT
network:short=VMT
network:wikidata=Q2516468
operator=GVB
public_transport=platform
shelter=no
id=node/280882941</desc></wpt><wpt lat="50.8885936" lon="12.0915585"><name>Slivener Straße</name><desc>bench=yes
bin=yes
bus=yes
departures_board=timetable
highway=bus_stop
lit=yes
name=Slivener Straße
network=Verkehrsverbund Mittelthüringen
network:guid=DE-TH-VMT
network:short=VMT
network:wikidata=Q2516468
operator=GVB
public_transport=platform
shelter=yes
tactile_paving=no
id=node/280882984</desc></wpt><wpt lat="50.8885655" lon="12.0918674"><name>Slivener Straße</name><desc>bench=no
bin=yes
bus=yes
departures_board=timetable
highway=bus_stop
lit=no
name=Slivener Straße
network=Verkehrsverbund Mittelthüringen
network:guid=DE-TH-VMT
network:short=VMT
network:wikidata=Q2516468
operator=GVB
public_transport=platform
shelter=no
tactile_paving=no
id=node/280882985</desc></wpt><wpt lat="50.8868595" lon="12.0963243"><name>Reuß-Park</name><desc>bench=yes
bus=yes
departures_board=timetable
highway=bus_stop
name=Reuß-Park
network=Verkehrsverbund Mittelthüringen
network:guid=DE-TH-VMT
network:short=VMT
network:wikidata=Q2516468
operator=GVB
public_transport=platform
ref=REPA
shelter=yes
id=node/280882990</desc></wpt><wpt lat="50.8872564" lon="12.0998757"><name>Am Steinertsberg</name><desc>bus=yes
highway=bus_stop
name=Am Steinertsberg
network=Verkehrsverbund Mittelthüringen
network:guid=DE-TH-VMT
network:short=VMT
network:wikidata=Q2516468
public_transport=platform
id=node/280882991</desc></wpt><wpt lat="50.9078648" lon="12.0837313"><name>Roschütz</name><desc>highway=bus_stop
name=Roschütz
network=Verkehrsverbund Mittelthüringen
network:short=VMT
public_transport=platform
id=node/280883137</desc></wpt><wpt lat="51.5406087" lon="10.8181048"><name>Rüdigsdorf</name><desc>bus=yes
highway=bus_stop
name=Rüdigsdorf
operator=Verkehrsbetriebe Nordhausen
public_transport=platform
shelter=yes
id=node/280996260</desc></wpt><wpt lat="50.9115076" lon="11.5977274"><name>node/281312431</name><desc>id=node/281312431</desc></wpt><wpt lat="50.924881" lon="10.0146636"><name>Dankmarshausen Ortsmitte</name><desc>highway=bus_stop
name=Dankmarshausen Ortsmitte
operator=KVG
id=node/281410955</desc></wpt><wpt lat="50.8887579" lon="12.0951236"><name>Gerhart-Hauptmann-Straße</name><desc>bus=yes
highway=bus_stop
name=Gerhart-Hauptmann-Straße
network=Verkehrsverbund Mittelthüringen
network:guid=DE-TH-VMT
network:short=VMT
network:wikidata=Q2516468
public_transport=platform
id=node/281896923</desc></wpt><wpt lat="50.9323226" lon="12.0287599"><name>Bad Köstritz, Bahnhof</name><desc>bench=yes
bus=yes
highway=bus_stop
name=Bad Köstritz, Bahnhof
public_transport=platform
shelter=yes
id=node/281919849</desc></wpt><wpt lat="50.9456758" lon="11.9893378"><name>Caaschwitz, Wartehalle B7</name><desc>highway=bus_stop
name=Caaschwitz, Wartehalle B7
public_transport=platform
shelter=yes
id=node/281926893</desc></wpt><wpt lat="50.9614921" lon="11.9765231"><name>Hartmannsdorf</name><desc>bench=yes
bin=yes
highway=bus_stop
lit=yes
name=Hartmannsdorf
network=Verkehrsverbund Mittelthüringen
network:short=VMT
public_transport=platform
shelter=yes
tactile_paving=yes
id=node/281926894</desc></wpt><wpt lat="50.9667311" lon="11.9017185"><name>Eisenberg, Großer Brühl</name><desc>bus=yes
highway=bus_stop
name=Eisenberg, Großer Brühl
network=Verkehrsverbund Mittelthüringen
network:guid=DE-TH-VMT
network:short=VMT
network:wikidata=Q2516468
public_transport=platform
id=node/281926903</desc></wpt><wpt lat="50.6549435" lon="11.1187351"><name>node/283066171</name><desc>bus=yes
highway=bus_stop
public_transport=platform
wheelchair=no
id=node/283066171</desc></wpt><wpt lat="50.915474" lon="10.7023807"><name>Uelleben Ernst-Thälmann-Straße</name><desc>bus=yes
highway=bus_stop
name=Uelleben Ernst-Thälmann-Straße
network=Verkehrsverbund Mittelthüringen
network:guid=DE-TH-VMT
network:short=VMT
network:wikidata=Q2516468
note=Auf dem Haltestellenschild steht KEIN "Gotha" vor Uellleben, auch wenn es in den Fahrplänen steht.
operator=RVG
public_transport=platform
id=node/283620742</desc></wpt><wpt lat="50.9119368" lon="10.7034733"><name>Uelleben Marktstraße</name><desc>bus=yes
highway=bus_stop
name=Uelleben Marktstraße
network=Verkehrsverbund Mittelthüringen
network:guid=DE-TH-VMT
network:short=VMT
network:wikidata=Q2516468
public_transport=platform
id=node/283620748</desc></wpt><wpt lat="50.9355851" lon="10.6983014"><name>Uelleber Straße</name><desc>bus=yes
highway=bus_stop
name=Uelleber Straße
network=Verkehrsverbund Mittelthüringen
network:guid=DE-TH-VMT
network:short=VMT
network:wikidata=Q2516468
public_transport=platform
ref=1
id=node/283622734</desc></wpt><wpt lat="50.9347106" lon="10.6981313"><name>Uelleber Straße</name><desc>bus=yes
departures_board=timetable
highway=bus_stop
name=Uelleber Straße
network=Verkehrsverbund Mittelthüringen
network:guid=DE-TH-VMT
network:short=VMT
network:wikidata=Q2516468
public_transport=platform
ref=2
shelter=no
id=node/283624845</desc></wpt><wpt lat="50.6572095" lon="11.050807"><name>Sorge</name><desc>bench=yes
bin=yes
bus=yes
highway=bus_stop
lit=yes
name=Sorge
public_transport=platform
shelter=yes
tactile_paving=no
id=node/283640252</desc></wpt><wpt lat="51.1262368" lon="11.2699215"><name>Kleinbrembach</name><desc>bench=yes
bus=yes
highway=bus_stop
name=Kleinbrembach
public_transport=platform
shelter=yes
id=node/283705486</desc></wpt><wpt lat="50.7211311" lon="10.1497301"><name>node/285349196</name><desc>bus=yes
highway=bus_stop
public_transport=platform
id=node/285349196</desc></wpt><wpt lat="50.9814161" lon="11.0411822"><name>Leipziger Platz</name><desc>from=P+R-Platz Messe
highway=bus_stop
name=Leipziger Platz
network=Verkehrsverbund Mittelthüringen
network:guid=DE-TH-VMT
network:short=VMT
network:wikidata=Q2516468
operator=EVAG
public_transport=stop_position
railway=tram_stop
to=Ringelberg
tram=yes
wheelchair=yes
id=node/286197328</desc></wpt><wpt lat="50.8076717" lon="10.2405212"><name>Bad Salzungen, Am Stadion</name><desc>bench=yes
bin=yes
bus=yes
highway=bus_stop
lit=yes
name=Bad Salzungen, Am Stadion
public_transport=platform
shelter=yes
tactile_paving=no
id=node/287023230</desc></wpt><wpt lat="50.4225247" lon="10.7204634"><name>Hildburghausen, Rote Leite</name><desc>bench=no
bin=no
bus=yes
highway=bus_stop
lit=yes
name=Hildburghausen, Rote Leite
network=WerraBus
network:wikidata=Q15854112
operator=Landkreis Hildburghausen
public_transport=platform
shelter=no
tactile_paving=no
id=node/287627904</desc></wpt><wpt lat="50.6092318" lon="10.4960326"><name>Kühndorf, Unterdorf</name><desc>bus=yes
highway=bus_stop
name=Kühndorf, Unterdorf
network=MBB
operator=MBB
public_transport=platform
id=node/287899696</desc></wpt><wpt lat="50.637993" lon="10.5876179"><name>Benshausen, Hauptstraße</name><desc>bench=no
bin=yes
bus=yes
highway=bus_stop
is_in=Benshausen
lit=yes
name=Benshausen, Hauptstraße
network=MBB
operator=MBB
public_transport=platform
shelter=no
tactile_paving=no
id=node/287900181</desc></wpt><wpt lat="50.6284279" lon="10.5720387"><name>Ebertshausen</name><desc>bench=yes
bin=yes
bus=yes
departures_board=yes
highway=bus_stop
is_in=Ebertshausen
name=Ebertshausen
operator=MBB
public_transport=platform
shelter=yes
id=node/287900187</desc></wpt><wpt lat="51.3542934" lon="11.1066199"><name>Bad Frankenhausen, Busbahnhof</name><desc>bench=yes
bin=yes
bus=yes
highway=bus_stop
lit=yes
name=Bad Frankenhausen, Busbahnhof
public_transport=platform
ref=2
shelter=yes
tactile_paving=no
id=node/288099843</desc></wpt><wpt lat="50.9194653" lon="12.0531754"><name>Langenberg, Langenberger Straße</name><desc>bench=yes
bus=yes
highway=bus_stop
lit=yes
name=Langenberg, Langenberger Straße
network=Verkehrsverbund Mittelthüringen
network:short=VMT
public_transport=platform
shelter=no
tactile_paving=no
id=node/288344708</desc></wpt><wpt lat="50.9210134" lon="12.0559572"><name>Langenberg, Schoßbachstraße</name><desc>bus=yes
highway=bus_stop
name=Langenberg, Schoßbachstraße
network=Verkehrsverbund Mittelthüringen
network:short=VMT
public_transport=platform
shelter=no
id=node/288344712</desc></wpt><wpt lat="50.8848839" lon="12.0695496"><name>Untermhaus, Friedrich-Naumann-Platz</name><desc>bench=no
bin=yes
bus=yes
highway=bus_stop
lit=yes
name=Untermhaus, Friedrich-Naumann-Platz
network=Verkehrsverbund Mittelthüringen
network:guid=DE-TH-VMT
network:short=VMT
network:wikidata=Q2516468
public_transport=platform
shelter=no
tactile_paving=no
id=node/288344726</desc></wpt><wpt lat="50.3926096" lon="11.03744"><name>node/288591703</name><desc>fixme=Details fehlen noch
highway=bus_stop
id=node/288591703</desc></wpt><wpt lat="50.9765993" lon="10.3191154"><name>Eisenach, Sophienstraße</name><desc>bench=yes
bin=yes
bus=yes
highway=bus_stop
lit=yes
name=Eisenach, Sophienstraße
public_transport=platform
shelter=yes
source=survey
tactile_paving=yes
id=node/289179847</desc></wpt><wpt lat="50.812131" lon="10.2217402"><name>Bad Salzungen, Husenfriedhof</name><desc>bench=yes
bin=yes
bus=yes
covered=yes
highway=bus_stop
lit=yes
name=Bad Salzungen, Husenfriedhof
public_transport=platform
shelter=yes
tactile_paving=yes
wheelchair=yes
id=node/290948207</desc></wpt><wpt lat="50.8120053" lon="10.2207186"><name>Bad Salzungen, Husenfriedhof</name><desc>bench=yes
bin=yes
bus=yes
check_date:shelter=2024-12-10
highway=bus_stop
lit=yes
name=Bad Salzungen, Husenfriedhof
public_transport=platform
shelter=yes
tactile_paving=yes
wheelchair=yes
id=node/290948209</desc></wpt><wpt lat="50.811134" lon="10.2259289"><name>Bad Salzungen, Rhönstraße</name><desc>bench=yes
bin=yes
bus=yes
departures_board=timetable
highway=bus_stop
lit=yes
name=Bad Salzungen, Rhönstraße
public_transport=platform
shelter=no
tactile_paving=no
wheelchair=no
id=node/290950486</desc></wpt><wpt lat="50.8100136" lon="10.2220081"><name>Bad Salzungen, Willi-Steitz-Straße</name><desc>bench=yes
bin=yes
bus=yes
check_date:shelter=2025-07-25
highway=bus_stop
lit=yes
name=Bad Salzungen, Willi-Steitz-Straße
public_transport=platform
shelter=no
tactile_paving=no
wheelchair=no
id=node/290950487</desc></wpt><wpt lat="50.8101211" lon="10.2213598"><name>Bad Salzungen, Platz an den Beeten</name><desc>bench=no
bin=no
bus=yes
check_date:shelter=2025-07-25
highway=bus_stop
lit=yes
name=Bad Salzungen, Platz an den Beeten
public_transport=platform
shelter=no
tactile_paving=no
id=node/290950488</desc></wpt><wpt lat="50.8006579" lon="10.2214477"><name>Bad Salzungen, TEAG</name><desc>bench=yes
bin=yes
bus=yes
highway=bus_stop
lit=yes
name=Bad Salzungen, TEAG
public_transport=platform
shelter=yes
tactile_paving=no
id=node/290950507</desc></wpt><wpt lat="50.8000062" lon="10.2215421"><name>Bad Salzungen, TEAG</name><desc>bench=no
bin=yes
bus=yes
highway=bus_stop
lit=yes
name=Bad Salzungen, TEAG
public_transport=platform
shelter=no
tactile_paving=no
id=node/290950508</desc></wpt><wpt lat="51.5653477" lon="10.8170685"><name>Neustadt, Osterode</name><desc>bus=yes
highway=bus_stop
name=Neustadt, Osterode
operator=VBN
public_transport=stop_position
id=node/290991728</desc></wpt><wpt lat="50.966264" lon="11.1923105"><name>Bechstedtstraß, Utzberger Weg</name><desc>bus=yes
highway=bus_stop
name=Bechstedtstraß, Utzberger Weg
public_transport=platform
id=node/291443356</desc></wpt><wpt lat="50.799142" lon="10.304618"><name>Barchfeld, Wendepunkt</name><desc>bench=yes
bin=yes
bus=yes
highway=bus_stop
lit=yes
name=Barchfeld, Wendepunkt
public_transport=platform
shelter=yes
tactile_paving=yes
wheelchair=yes
id=node/292402094</desc></wpt><wpt lat="50.7198764" lon="10.4267674"><name>Schmalkalden, Auer Straße</name><desc>bus=yes
highway=bus_stop
name=Schmalkalden, Auer Straße
public_transport=platform
id=node/292556407</desc></wpt><wpt lat="51.2298768" lon="10.4550129"><name>Bayernstraße</name><desc>bench=no
bin=yes
bus=yes
highway=bus_stop
kerb=raised
kerb:approach_aid=yes
lit=no
name=Bayernstraße
passenger_information_display=no
public_transport=platform
ref_name=Mühlhausen Bayernstraße
shelter=no
tactile_paving=yes
wheelchair=yes
id=node/292736252</desc></wpt><wpt lat="50.71814" lon="10.3686737"><name>Niederschmalkalden, Zwick</name><desc>bench=yes
bin=yes
bus=yes
highway=bus_stop
lit=yes
name=Niederschmalkalden, Zwick
public_transport=platform
shelter=yes
tactile_paving=no
id=node/292803281</desc></wpt><wpt lat="50.7083097" lon="10.4202311"><name>Volkers</name><desc>bench=yes
bus=yes
highway=bus_stop
name=Volkers
network=BBT
operator=Meininger Busbetriebs GmbH
public_transport=platform
shelter=yes
id=node/292882477</desc></wpt><wpt lat="50.9182905" lon="11.0512184"><name>Egstedt, Am Wiesengrund</name><desc>bus=yes
highway=bus_stop
name=Egstedt, Am Wiesengrund
public_transport=platform
id=node/292969563</desc></wpt><wpt lat="51.499211" lon="10.8119559"><name>A. Nexö Straße</name><desc>bench=yes
bin=yes
bus=yes
highway=bus_stop
lit=yes
name=A. Nexö Straße
public_transport=platform
shelter=no
tactile_paving=no
wheelchair=limited
id=node/293132347</desc></wpt><wpt lat="51.5021646" lon="10.8023261"><name>August-Bebel-Platz (Süd)</name><desc>bench=yes
bin=yes
bus=yes
departures_board=timetable
highway=bus_stop
lit=no
name=August-Bebel-Platz (Süd)
operator=Verkehrsbetriebe Nordhausen GmbH
public_transport=platform
shelter=no
tactile_paving=yes
wheelchair=limited
id=node/293132708</desc></wpt><wpt lat="51.1340975" lon="11.4513663"><name>Teutleben</name><desc>bench=no
bus=yes
highway=bus_stop
name=Teutleben
public_transport=platform
shelter=no
id=node/295483602</desc></wpt><wpt lat="50.8946355" lon="11.5836588"><name>Winzerla</name><desc>bus=yes
direction=forward
highway=bus_stop
name=Winzerla
network=Verkehrsverbund Mittelthüringen
network:guid=DE-TH-VMT
network:short=VMT
network:wikidata=Q2516468
operator=JeNah
public_transport=stop_position
ref=5
wheelchair=yes
id=node/295930435</desc></wpt><wpt lat="50.8879369" lon="11.0598559"><name>Werningsleben</name><desc>bus=yes
highway=bus_stop
name=Werningsleben
public_transport=platform
shelter=yes
id=node/295981807</desc></wpt><wpt lat="50.8882508" lon="11.0625845"><name>Werningsleben, Kreuzung</name><desc>bus=yes
highway=bus_stop
name=Werningsleben, Kreuzung
public_transport=platform
id=node/295981810</desc></wpt><wpt lat="50.8878484" lon="11.0595835"><name>Werningsleben</name><desc>bus=yes
highway=bus_stop
name=Werningsleben
public_transport=platform
shelter=yes
id=node/295981812</desc></wpt><wpt lat="50.9182312" lon="12.0110798"><name>Dürrenberg</name><desc>highway=bus_stop
name=Dürrenberg
public_transport=platform
id=node/296415445</desc></wpt><wpt lat="50.9279275" lon="10.7931167"><name>Seebergen Bahnhof</name><desc>highway=bus_stop
name=Seebergen Bahnhof
id=node/297979551</desc></wpt><wpt lat="50.6885999" lon="10.9140947"><name>Ilmenau, Friedhof</name><desc>bench=yes
bin=yes
bus=yes
highway=bus_stop
lit=yes
name=Ilmenau, Friedhof
operator=IOV Omnibusverkehr GmbH Ilmenau
public_transport=platform
shelter=yes
tactile_paving=yes
wheelchair=yes
id=node/298190625</desc></wpt><wpt lat="50.6891172" lon="10.9078593"><name>Ilmenau, Erfurter Hof</name><desc>bench=yes
bin=yes
bus=yes
check_date:shelter=2025-07-06
highway=bus_stop
lit=yes
name=Ilmenau, Erfurter Hof
operator=IOV Omnibusverkehr GmbH Ilmenau
public_transport=platform
shelter=yes
tactile_paving=no
wheelchair=yes
wheelchair:description=Kasseler Bord vorhanden
id=node/298191211</desc></wpt><wpt lat="50.6953539" lon="10.9002951"><name>Ilmenau Roda, Erfurter Straße</name><desc>bench=yes
bin=yes
bus=yes
highway=bus_stop
lit=no
name=Ilmenau Roda, Erfurter Straße
operator=IOV Omnibusverkehr GmbH Ilmenau
public_transport=platform
shelter=yes
tactile_paving=yes
wheelchair=yes
wheelchair:description=Kasseler Bord vorhanden
id=node/298191708</desc></wpt><wpt lat="50.6964296" lon="10.8988316"><name>Ilmenau Roda, Erfurter Straße</name><desc>bench=yes
bin=yes
bus=yes
highway=bus_stop
lit=no
name=Ilmenau Roda, Erfurter Straße
operator=IOV Omnibusverkehr GmbH Ilmenau
public_transport=platform
shelter=yes
tactile_paving=yes
wheelchair=yes
wheelchair:description=Kasseler Bord vorhanden
id=node/298191709</desc></wpt><wpt lat="50.6807776" lon="10.9302216"><name>Ilmenau, Fischerhütte</name><desc>bench=no
bin=no
bus=yes
highway=bus_stop
lit=yes
name=Ilmenau, Fischerhütte
operator=IOV Omnibusverkehr GmbH Ilmenau
public_transport=platform
shelter=no
short_name=Lackfabrik
tactile_paving=no
wheelchair=yes
wheelchair:description=Kasseler Bord vorhanden
id=node/298197017</desc></wpt><wpt lat="50.8062763" lon="12.1900608"><name>Linda, Kirche</name><desc>highway=bus_stop
name=Linda, Kirche
public_transport=platform
id=node/298950175</desc></wpt><wpt lat="50.8062782" lon="12.1902599"><name>Linda, Kirche</name><desc>highway=bus_stop
name=Linda, Kirche
public_transport=platform
id=node/298950176</desc></wpt><wpt lat="50.8082008" lon="12.1625884"><name>Pohlen</name><desc>highway=bus_stop
name=Pohlen
public_transport=platform
id=node/298950635</desc></wpt><wpt lat="50.821075" lon="12.1690599"><name>Rußdorf</name><desc>highway=bus_stop
name=Rußdorf
public_transport=platform
id=node/299094057</desc></wpt><wpt lat="50.8630066" lon="12.1820583"><name>Ronneburg, Markt</name><desc>bench=yes
bin=yes
bus=yes
highway=bus_stop
name=Ronneburg, Markt
public_transport=platform
shelter=no
tactile_paving=no
id=node/299108274</desc></wpt><wpt lat="50.8528138" lon="12.1893137"><name>Ronneburg, Fasanerieweg</name><desc>bus=yes
highway=bus_stop
name=Ronneburg, Fasanerieweg
public_transport=platform
shelter=no
tactile_paving=no
id=node/299114002</desc></wpt><wpt lat="50.8770884" lon="12.1528833"><name>Abzweig Naulitz</name><desc>highway=bus_stop
name=Abzweig Naulitz
network=Verkehrsverbund Mittelthüringen
network:short=VMT
public_transport=platform
id=node/299114468</desc></wpt><wpt lat="50.6905818" lon="10.939932"><name>Ilmenau, Bücheloher Straße</name><desc>bench=yes
bin=yes
bus=yes
highway=bus_stop
lit=no
name=Ilmenau, Bücheloher Straße
operator=IOV Omnibusverkehr GmbH Ilmenau
public_transport=platform
ref:ibnr=648016
shelter=yes
tactile_paving=yes
id=node/299128256</desc></wpt><wpt lat="50.6808181" lon="10.9296485"><name>Ilmenau, Fischerhütte</name><desc>bench=yes
bin=yes
bus=yes
highway=bus_stop
lit=yes
name=Ilmenau, Fischerhütte
operator=IOV Omnibusverkehr GmbH Ilmenau
public_transport=platform
shelter=yes
short_name=Lackfabrik
tactile_paving=no
wheelchair=yes
wheelchair:description=Kasseler Bord vorhanden
id=node/299129905</desc></wpt><wpt lat="50.6789462" lon="10.9383006"><name>Ilmenau, Grenzhammer</name><desc>bench=no
bin=no
bus=yes
highway=bus_stop
lit=yes
name=Ilmenau, Grenzhammer
operator=IOV Omnibusverkehr GmbH Ilmenau
public_transport=platform
shelter=no
short_name=Grenzhammer
tactile_paving=no
wheelchair=no
id=node/299130106</desc></wpt><wpt lat="50.587761" lon="10.7157466"><name>Suhl, Hubertusstraße</name><desc>bus=yes
highway=bus_stop
name=Suhl, Hubertusstraße
operator=SNG mbH
public_transport=platform
id=node/299149322</desc></wpt><wpt lat="50.5875917" lon="10.7151721"><name>Suhl, Hubertusstraße</name><desc>bus=yes
highway=bus_stop
name=Suhl, Hubertusstraße
operator=SNG mbH
public_transport=platform
id=node/299149323</desc></wpt><wpt lat="50.5913406" lon="10.7189949"><name>Suhl, Friedberg, Umspannwerk</name><desc>bench=yes
bin=yes
bus=yes
highway=bus_stop
lit=yes
name=Suhl, Friedberg, Umspannwerk
public_transport=platform
shelter=yes
tactile_paving=no
id=node/299149554</desc></wpt><wpt lat="50.5913435" lon="10.7193528"><name>Suhl, Friedberg, Umspannwerk</name><desc>bench=yes
bin=yes
bus=yes
highway=bus_stop
lit=yes
name=Suhl, Friedberg, Umspannwerk
public_transport=platform
shelter=yes
tactile_paving=no
id=node/299149555</desc></wpt><wpt lat="51.4711075" lon="10.267534"><name>Teistungen Bergstraße</name><desc>bench=yes
bin=yes
bus=yes
departures_board=timetable
highway=bus_stop
lit=yes
name=Teistungen Bergstraße
network=Eichsfeldwerke
operator=EW Bus GmbH
public_transport=platform
shelter=yes
tactile_paving=yes
id=node/299295885</desc></wpt><wpt lat="50.5997721" lon="10.7175328"><name>Suhl, Schleusinger Straße</name><desc>bus=yes
highway=bus_stop
name=Suhl, Schleusinger Straße
public_transport=platform
shelter=no
id=node/299355148</desc></wpt><wpt lat="50.6001043" lon="10.7151966"><name>Suhl, Schleusinger Straße</name><desc>bench=no
bin=no
bus=yes
highway=bus_stop
name=Suhl, Schleusinger Straße
public_transport=platform
shelter=no
id=node/299355152</desc></wpt><wpt lat="50.600717" lon="10.7061528"><name>Suhl, Schleusinger Straße/ Döllberg</name><desc>bench=yes
bin=yes
bus=yes
highway=bus_stop
lit=yes
name=Suhl, Schleusinger Straße/ Döllberg
public_transport=platform
shelter=yes
tactile_paving=no
id=node/299358557</desc></wpt><wpt lat="50.6009255" lon="10.7061893"><name>Suhl, Schleusinger Straße/ Döllberg</name><desc>bench=yes
bin=yes
bus=yes
highway=bus_stop
name=Suhl, Schleusinger Straße/ Döllberg
public_transport=platform
shelter=yes
tactile_paving=no
id=node/299358562</desc></wpt><wpt lat="50.6010485" lon="10.699334"><name>Suhl, Hinterer Loh</name><desc>bench=no
bin=no
bus=yes
highway=bus_stop
lit=yes
name=Suhl, Hinterer Loh
public_transport=platform
shelter=no
tactile_paving=no
id=node/299358565</desc></wpt><wpt lat="50.6026419" lon="10.6917871"><name>Suhl, Windeweg</name><desc>bench=no
bin=yes
bus=yes
check_date:shelter=2024-05-24
highway=bus_stop
lit=yes
name=Suhl, Windeweg
public_transport=platform
shelter=no
tactile_paving=no
wheelchair=yes
id=node/299402121</desc></wpt><wpt lat="50.6022376" lon="10.6917837"><name>Suhl, Windeweg</name><desc>bench=yes
bin=yes
bus=yes
highway=bus_stop
lit=yes
name=Suhl, Windeweg
public_transport=platform
shelter=yes
tactile_paving=no
wheelchair=yes
id=node/299402122</desc></wpt><wpt lat="50.6129901" lon="10.6955548"><name>Suhl, Neues Rathaus</name><desc>bin=yes
bus=yes
highway=bus_stop
name=Suhl, Neues Rathaus
network=MBB
operator=MBB
public_transport=platform
ref=400
shelter=no
wheelchair=yes
id=node/299544266</desc></wpt><wpt lat="50.6129193" lon="10.695856"><name>Suhl, Neues Rathaus</name><desc>bench=yes
bin=yes
bus=yes
highway=bus_stop
name=Suhl, Neues Rathaus
public_transport=platform
shelter=yes
wheelchair=yes
id=node/299544267</desc></wpt><wpt lat="50.6177345" lon="10.6989793"><name>Suhl, Oberland</name><desc>bench=yes
bin=yes
bus=yes
highway=bus_stop
name=Suhl, Oberland
public_transport=platform
shelter=yes
wheelchair=yes
id=node/299547593</desc></wpt><wpt lat="50.6178735" lon="10.6988041"><name>Suhl, Oberland</name><desc>bench=yes
bin=yes
bus=yes
highway=bus_stop
name=Suhl, Oberland
public_transport=platform
shelter=yes
wheelchair=yes
id=node/299547595</desc></wpt><wpt lat="50.6215564" lon="10.7017934"><name>Suhl, Ziegenbergweg</name><desc>bus=yes
highway=bus_stop
name=Suhl, Ziegenbergweg
public_transport=platform
shelter=yes
wheelchair=yes
id=node/299548602</desc></wpt><wpt lat="50.6219801" lon="10.7013477"><name>Suhl, Ziegenbergweg</name><desc>bench=yes
bin=yes
bus=yes
highway=bus_stop
name=Suhl, Ziegenbergweg
public_transport=platform
shelter=yes
tactile_paving=yes
wheelchair=yes
id=node/299548603</desc></wpt><wpt lat="50.6297274" lon="10.7069806"><name>Suhl, Große Beerbergstraße</name><desc>bus=yes
highway=bus_stop
name=Suhl, Große Beerbergstraße
public_transport=platform
shelter=yes
wheelchair=yes
id=node/299554402</desc></wpt><wpt lat="50.6352336" lon="10.7015709"><name>Suhl, Fröhlicher Mann</name><desc>bus=yes
highway=bus_stop
name=Suhl, Fröhlicher Mann
public_transport=platform
wheelchair=yes
id=node/299554404</desc></wpt><wpt lat="50.6351902" lon="10.7013325"><name>Suhl, Fröhlicher Mann</name><desc>bus=yes
highway=bus_stop
name=Suhl, Fröhlicher Mann
public_transport=platform
wheelchair=yes
id=node/299558074</desc></wpt><wpt lat="50.6380307" lon="10.7000033"><name>Suhl, Am Königswasser</name><desc>bus=yes
highway=bus_stop
name=Suhl, Am Königswasser
public_transport=platform
id=node/299558791</desc></wpt><wpt lat="50.6368816" lon="10.7004567"><name>Suhl, Am Königswasser</name><desc>bench=yes
bus=yes
highway=bus_stop
name=Suhl, Am Königswasser
public_transport=platform
shelter=yes
wheelchair=yes
id=node/299558794</desc></wpt><wpt lat="50.6332432" lon="10.6979166"><name>Suhl, Struth</name><desc>bench=yes
bin=yes
bus=yes
highway=bus_stop
name=Suhl, Struth
public_transport=platform
shelter=yes
id=node/299559547</desc></wpt><wpt lat="50.6332138" lon="10.6974965"><name>Suhl, Struth</name><desc>bench=yes
bin=yes
bus=yes
highway=bus_stop
is_in=Suhl
lit=no
name=Suhl, Struth
public_transport=platform
shelter=yes
tactile_paving=yes
id=node/299797699</desc></wpt><wpt lat="50.6730921" lon="9.9278535"><name>node/300117854</name><desc>highway=bus_stop
public_transport=stop_position
shelter=yes
id=node/300117854</desc></wpt><wpt lat="50.5849152" lon="10.7121482"><name>Suhl, Erich-Krempel-Straße</name><desc>bench=no
bin=no
bus=yes
highway=bus_stop
lit=no
name=Suhl, Erich-Krempel-Straße
operator=SNG mbH
public_transport=platform
shelter=no
tactile_paving=no
id=node/300133585</desc></wpt><wpt lat="50.6823393" lon="10.8874588"><name>Ilmenau, Hammergrund</name><desc>bench=yes
bin=yes
bus=yes
highway=bus_stop
lit=yes
name=Ilmenau, Hammergrund
operator=IOV Omnibusverkehr GmbH Ilmenau
public_transport=platform
shelter=yes
short_name=Hammergrund
tactile_paving=no
wheelchair=yes
wheelchair:description=Kein Kasseler Bord
id=node/300373614</desc></wpt><wpt lat="50.9182244" lon="11.9712217"><name>Reichardtsdorf</name><desc>highway=bus_stop
name=Reichardtsdorf
public_transport=platform
id=node/300589905</desc></wpt><wpt lat="50.7241123" lon="10.4733482"><name>Schmalkalden, Allendestraße</name><desc>bench=yes
bin=yes
bus=yes
highway=bus_stop
name=Schmalkalden, Allendestraße
public_transport=platform
shelter=yes
id=node/301114828</desc></wpt><wpt lat="50.9192259" lon="12.0531256"><name>Langenberg, Langenberger Straße</name><desc>bench=yes
bus=yes
highway=bus_stop
lit=yes
name=Langenberg, Langenberger Straße
network=Verkehrsverbund Mittelthüringen
network:guid=DE-TH-VMT
network:short=VMT
network:wikidata=Q2516468
public_transport=platform
shelter=yes
tactile_paving=no
id=node/301264722</desc></wpt><wpt lat="50.9291153" lon="12.0366135"><name>Bad Köstritz, Chemiewerk</name><desc>bench=no
bin=no
bus=yes
highway=bus_stop
name=Bad Köstritz, Chemiewerk
public_transport=platform
shelter=no
tactile_paving=no
id=node/301264724</desc></wpt><wpt lat="50.8366206" lon="10.0926044"><name>Bahnhof</name><desc>bench=yes
bin=yes
bus=yes
covered=yes
highway=bus_stop
lit=yes
name=Bahnhof
public_transport=platform
shelter=yes
tactile_paving=no
id=node/301596808</desc></wpt><wpt lat="50.824203" lon="10.1240163"><name>Besucherbergwerk</name><desc>bench=yes
bin=yes
covered=yes
highway=bus_stop
lit=yes
name=Besucherbergwerk
old_name=Merkers Klubhaus
public_transport=platform
shelter=yes
tactile_paving=no
id=node/301596927</desc></wpt><wpt lat="50.8198705" lon="10.1821661"><name>Kaiseroda Baumarkt</name><desc>bench=yes
bin=yes
bus=yes
highway=bus_stop
lit=yes
name=Kaiseroda Baumarkt
public_transport=platform
shelter=yes
tactile_paving=no
id=node/301597024</desc></wpt><wpt lat="50.925269" lon="11.973147"><name>Abzweig Reichardtsdorf</name><desc>bench=no
highway=bus_stop
name=Abzweig Reichardtsdorf
public_transport=platform
shelter=no
id=node/302009340</desc></wpt><wpt lat="50.9256363" lon="11.9917002"><name>Bad Köstritz, Sommerleithe</name><desc>highway=bus_stop
name=Bad Köstritz, Sommerleithe
public_transport=platform
id=node/302009341</desc></wpt><wpt lat="50.9659744" lon="11.0561706"><name>Häßlerstraße</name><desc>bench=yes
bin=yes
bus=yes
highway=bus_stop
lit=no
name=Häßlerstraße
network=Verkehrsverbund Mittelthüringen
network:guid=DE-TH-VMT
network:short=VMT
network:wikidata=Q2516468
note=routes 9 N9
operator=EVAG
public_transport=platform
shelter=yes
tactile_paving=yes
wheelchair=yes
id=node/302047866</desc></wpt><wpt lat="50.9659682" lon="11.056049"><name>Häßlerstraße</name><desc>bench=no
bin=yes
bus=yes
highway=bus_stop
lit=no
name=Häßlerstraße
network=Verkehrsverbund Mittelthüringen
network:guid=DE-TH-VMT
network:short=VMT
network:wikidata=Q2516468
note=routes 9 N9
operator=EVAG
public_transport=platform
shelter=no
tactile_paving=yes
wheelchair=yes
id=node/302048388</desc></wpt><wpt lat="51.3581291" lon="11.088627"><name>Bad Frankenhausen, Tischplatt</name><desc>bench=yes
bus=yes
highway=bus_stop
name=Bad Frankenhausen, Tischplatt
public_transport=platform
shelter=yes
id=node/302209920</desc></wpt><wpt lat="51.3581155" lon="11.0880488"><name>Bad Frankenhausen, Tischplatt</name><desc>bus=yes
highway=bus_stop
name=Bad Frankenhausen, Tischplatt
public_transport=platform
id=node/302209921</desc></wpt><wpt lat="50.8770429" lon="12.1531362"><name>Abzweig Naulitz</name><desc>highway=bus_stop
name=Abzweig Naulitz
network=Verkehrsverbund Mittelthüringen
network:short=VMT
public_transport=platform
id=node/302426739</desc></wpt><wpt lat="50.8531937" lon="12.1893229"><name>Ronneburg, Fasanerieweg</name><desc>bus=yes
highway=bus_stop
name=Ronneburg, Fasanerieweg
public_transport=platform
shelter=no
tactile_paving=no
id=node/302427431</desc></wpt><wpt lat="50.8607527" lon="12.1853319"><name>Ronneburg, Brunnenstraße</name><desc>bus=yes
highway=bus_stop
name=Ronneburg, Brunnenstraße
public_transport=platform
shelter=yes
tactile_paving=no
id=node/302427432</desc></wpt><wpt lat="50.8609055" lon="12.1851213"><name>Ronneburg, Brunnenstraße</name><desc>bus=yes
highway=bus_stop
name=Ronneburg, Brunnenstraße
public_transport=platform
shelter=no
tactile_paving=no
id=node/302427434</desc></wpt><wpt lat="50.833657" lon="12.200047"><name>Reust, Gasthof</name><desc>bus=yes
highway=bus_stop
name=Reust, Gasthof
public_transport=platform
id=node/302428690</desc></wpt><wpt lat="50.8336334" lon="12.2001982"><name>Reust, Gasthof</name><desc>bus=yes
highway=bus_stop
name=Reust, Gasthof
public_transport=platform
id=node/302428691</desc></wpt><wpt lat="50.8035851" lon="12.2368994"><name>Vogelgesang</name><desc>bus=yes
highway=bus_stop
name=Vogelgesang
public_transport=platform
shelter=no
id=node/302429771</desc></wpt><wpt lat="50.8192482" lon="12.1496046"><name>Hilbersdorf</name><desc>highway=bus_stop
name=Hilbersdorf
public_transport=platform
id=node/302434450</desc></wpt><wpt lat="50.8192532" lon="12.1494651"><name>Hilbersdorf</name><desc>highway=bus_stop
name=Hilbersdorf
public_transport=platform
id=node/302434451</desc></wpt><wpt lat="50.8108542" lon="12.1457731"><name>Abzweig Hilbersdorf</name><desc>highway=bus_stop
name=Abzweig Hilbersdorf
public_transport=platform
shelter=no
id=node/302434849</desc></wpt><wpt lat="50.7951833" lon="12.1012688"><name>Wünschendorf, Ronneburger Straße</name><desc>bench=no
highway=bus_stop
name=Wünschendorf, Ronneburger Straße
public_transport=platform
shelter=no
id=node/302435873</desc></wpt><wpt lat="50.7950889" lon="12.0981757"><name>Wünschendorf, Brunnenstraße</name><desc>highway=bus_stop
name=Wünschendorf, Brunnenstraße
public_transport=platform
id=node/302435875</desc></wpt><wpt lat="50.78981" lon="12.0461097"><name>Köckritz, Am Rotacker</name><desc>highway=bus_stop
name=Köckritz, Am Rotacker
public_transport=platform
id=node/302438739</desc></wpt><wpt lat="50.7897599" lon="12.0461391"><name>Köckritz, Am Rotacker</name><desc>highway=bus_stop
name=Köckritz, Am Rotacker
public_transport=platform
id=node/302438740</desc></wpt><wpt lat="50.7895846" lon="12.0438628"><name>Köckritz</name><desc>highway=bus_stop
name=Köckritz
public_transport=platform
shelter=no
id=node/302438741</desc></wpt><wpt lat="50.789524" lon="12.0437682"><name>Köckritz</name><desc>highway=bus_stop
name=Köckritz
public_transport=platform
shelter=yes
id=node/302438742</desc></wpt><wpt lat="50.7843817" lon="12.0156847"><name>Burkersdorf, B 175</name><desc>highway=bus_stop
name=Burkersdorf, B 175
public_transport=platform
id=node/302439248</desc></wpt><wpt lat="50.7843628" lon="12.0145521"><name>Burkersdorf, B 175</name><desc>bench=yes
bin=yes
highway=bus_stop
name=Burkersdorf, B 175
public_transport=platform
shelter=yes
id=node/302439250</desc></wpt><wpt lat="50.935897" lon="11.6001979"><name>Jena, Dammstraße</name><desc>bench=yes
bin=yes
bus=yes
highway=bus_stop
lit=yes
loc_name=Dammstraße
name=Jena, Dammstraße
network=Verkehrsverbund Mittelthüringen
network:guid=DE-TH-VMT
network:short=VMT
network:wikidata=Q2516468
network:wikipedia=de:Verkehrsverbund Mittelthüringen
operator=JES
public_transport=platform
shelter=yes
tactile_paving=yes
id=node/302765477</desc></wpt><wpt lat="51.2266027" lon="10.3006451"><name>Struth, Kalter Berg</name><desc>highway=bus_stop
name=Struth, Kalter Berg
id=node/303443696</desc></wpt><wpt lat="51.2273551" lon="10.2999543"><name>Struth, Abzweig Effelder</name><desc>highway=bus_stop
name=Struth, Abzweig Effelder
public_transport=platform
id=node/303443699</desc></wpt><wpt lat="51.227404" lon="10.299296"><name>Struth, Abzweig Effelder</name><desc>highway=bus_stop
name=Struth, Abzweig Effelder
public_transport=platform
id=node/303443701</desc></wpt><wpt lat="51.2228024" lon="10.3038978"><name>Struth, Mittelstraße</name><desc>highway=bus_stop
name=Struth, Mittelstraße
public_transport=platform
id=node/303443789</desc></wpt><wpt lat="51.1835593" lon="11.2103519"><name>Kiebitzhöhe</name><desc>bench=no
bus=yes
highway=bus_stop
name=Kiebitzhöhe
public_transport=platform
shelter=no
id=node/303607441</desc></wpt><wpt lat="51.2200521" lon="10.3077215"><name>Struth, Pflockwiese</name><desc>highway=bus_stop
name=Struth, Pflockwiese
public_transport=platform
id=node/303669408</desc></wpt><wpt lat="51.2200148" lon="10.3075116"><name>Struth, Pflockwiese</name><desc>highway=bus_stop
name=Struth, Pflockwiese
public_transport=platform
id=node/303669409</desc></wpt><wpt lat="51.2224332" lon="10.3073066"><name>Struth, Schule</name><desc>highway=bus_stop
name=Struth, Schule
id=node/303669418</desc></wpt><wpt lat="51.2209968" lon="10.3060281"><name>Struth, Lengenfelder Straße</name><desc>highway=bus_stop
name=Struth, Lengenfelder Straße
id=node/303669496</desc></wpt><wpt lat="51.2210072" lon="10.3063052"><name>Struth, Lengenfelder Straße</name><desc>highway=bus_stop
name=Struth, Lengenfelder Straße
id=node/303669498</desc></wpt><wpt lat="50.3837914" lon="10.6998371"><name>node/304566093</name><desc>bus=yes
highway=bus_stop
network=WerraBus
network:wikidata=Q15854112
operator=Stadt Hildburghausen
public_transport=platform
wheelchair=limited
id=node/304566093</desc></wpt><wpt lat="50.6557226" lon="10.7648417"><name>Schneekopf</name><desc>bus=yes
highway=bus_stop
name=Schneekopf
public_transport=platform
shelter=no
id=node/304873662</desc></wpt><wpt lat="50.655644" lon="10.7648278"><name>Schneekopf</name><desc>bus=yes
highway=bus_stop
name=Schneekopf
public_transport=platform
shelter=no
id=node/304873663</desc></wpt><wpt lat="50.9744513" lon="11.0584239"><name>Gewerbegebiet Ost</name><desc>bus=yes
highway=bus_stop
name=Gewerbegebiet Ost
network=Verkehrsverbund Mittelthüringen
network:guid=DE-TH-VMT
network:short=VMT
network:wikidata=Q2516468
operator=EVAG
public_transport=platform
id=node/305041756</desc></wpt><wpt lat="50.9012787" lon="10.4510973"><name>node/305951263</name><desc>bench=yes
bin=yes
highway=bus_stop
shelter=yes
id=node/305951263</desc></wpt><wpt lat="50.9013138" lon="10.450469"><name>node/305951297</name><desc>bench=yes
bin=yes
created_by=Potlatch 0.10e
highway=bus_stop
shelter=yes
id=node/305951297</desc></wpt><wpt lat="50.9686632" lon="11.0555266"><name>Jenaer Straße</name><desc>bus=yes
highway=bus_stop
name=Jenaer Straße
network=Verkehrsverbund Mittelthüringen
network:guid=DE-TH-VMT
network:short=VMT
network:wikidata=Q2516468
note=routes 9 N9
operator=EVAG
public_transport=platform
shelter=no
id=node/307167647</desc></wpt><wpt lat="50.9714937" lon="11.0566429"><name>Einkaufszentrum</name><desc>bench=yes
bin=yes
bus=yes
highway=bus_stop
lit=no
name=Einkaufszentrum
network=Verkehrsverbund Mittelthüringen
network:guid=DE-TH-VMT
network:short=VMT
network:wikidata=Q2516468
operator=EVAG
public_transport=platform
shelter=yes
tactile_paving=no
id=node/307198115</desc></wpt><wpt lat="50.968894" lon="11.0557232"><name>Jenaer Straße</name><desc>bus=yes
highway=bus_stop
name=Jenaer Straße
network=Verkehrsverbund Mittelthüringen
network:guid=DE-TH-VMT
network:short=VMT
network:wikidata=Q2516468
note=routes 9 N9 65
operator=EVAG
public_transport=platform
shelter=yes
id=node/307211377</desc></wpt><wpt lat="51.0629319" lon="11.7037476"><name>Tümpling</name><desc>bus=yes
highway=bus_stop
name=Tümpling
public_transport=platform
shelter=yes
id=node/307436674</desc></wpt><wpt lat="51.5391029" lon="10.6557981"><name>Steinsee</name><desc>bench=yes
bin=no
bus=yes
highway=bus_stop
lit=no
name=Steinsee
public_transport=platform
shelter=yes
tactile_paving=no
id=node/307874068</desc></wpt><wpt lat="50.8792406" lon="12.3177009"><name>Selka Siedlung</name><desc>bus=yes
highway=bus_stop
name=Selka Siedlung
public_transport=stop_position
id=node/308086810</desc></wpt><wpt lat="50.6556564" lon="11.1201112"><name>node/309124374</name><desc>bus=yes
highway=bus_stop
public_transport=platform
wheelchair=limited
id=node/309124374</desc></wpt><wpt lat="50.6557195" lon="11.1202275"><name>node/309124377</name><desc>bus=yes
highway=bus_stop
public_transport=platform
wheelchair=limited
id=node/309124377</desc></wpt><wpt lat="50.6841356" lon="9.9264015"><name>Geismar, Schule</name><desc>bench=no
bin=no
bus=yes
highway=bus_stop
lit=yes
name=Geismar, Schule
public_transport=platform
shelter=no
tactile_paving=no
id=node/309232000</desc></wpt><wpt lat="50.8788878" lon="11.1601777"><name>Hohenfelden</name><desc>bus=yes
highway=bus_stop
name=Hohenfelden
network=Verkehrsverbund Mittelthüringen
network:guid=DE-TH-VMT
network:short=VMT
network:wikidata=Q2516468
public_transport=platform
shelter=yes
tactile_paving=no
id=node/309499397</desc></wpt><wpt lat="50.7904825" lon="12.1925205"><name>Abzweig Gauern</name><desc>bus=yes
highway=bus_stop
name=Abzweig Gauern
public_transport=platform
id=node/309533152</desc></wpt><wpt lat="50.7905214" lon="12.1924087"><name>Abzweig Gauern</name><desc>bus=yes
highway=bus_stop
name=Abzweig Gauern
public_transport=platform
id=node/309533155</desc></wpt><wpt lat="50.8036657" lon="12.2370034"><name>Vogelgesang</name><desc>bus=yes
departures_board=timetable
highway=bus_stop
name=Vogelgesang
public_transport=platform
shelter=yes
id=node/309540520</desc></wpt><wpt lat="50.7193675" lon="12.2445273"><name>Teichwolframsdorf, Kulturhaus</name><desc>bus=yes
highway=bus_stop
name=Teichwolframsdorf, Kulturhaus
public_transport=platform
id=node/309549862</desc></wpt><wpt lat="50.7160928" lon="12.2372416"><name>Teichwolframsdorf, Sportlerheim</name><desc>bus=yes
highway=bus_stop
name=Teichwolframsdorf, Sportlerheim
public_transport=platform
id=node/309549863</desc></wpt><wpt lat="50.7159347" lon="12.2371596"><name>Teichwolframsdorf, Sportlerheim</name><desc>bus=yes
highway=bus_stop
name=Teichwolframsdorf, Sportlerheim
public_transport=platform
id=node/309549865</desc></wpt><wpt lat="50.7066666" lon="12.2038128"><name>Kleinreinsdorf, Gasthof</name><desc>highway=bus_stop
name=Kleinreinsdorf, Gasthof
public_transport=platform
shelter=no
id=node/309549866</desc></wpt><wpt lat="50.7068146" lon="12.2037536"><name>Kleinreinsdorf, Gasthof</name><desc>bench=yes
highway=bus_stop
name=Kleinreinsdorf, Gasthof
public_transport=platform
shelter=yes
id=node/309549868</desc></wpt><wpt lat="51.2547467" lon="10.390382"><name>Lengefeld</name><desc>highway=bus_stop
name=Lengefeld
id=node/309977521</desc></wpt><wpt lat="51.2549214" lon="10.390503"><name>Lengefeld</name><desc>bench=no
bin=no
bus=yes
highway=bus_stop
name=Lengefeld
public_transport=platform
shelter=no
tactile_paving=no
wheelchair:description=Kein Kasseler Bord
id=node/309977523</desc></wpt><wpt lat="50.9336083" lon="11.3717995"><name>Köttendorf</name><desc>bench=yes
bin=yes
highway=bus_stop
lit=yes
name=Köttendorf
network=Verkehrsverbund Mittelthüringen
network:guid=DE-TH-VMT
network:short=VMT
network:wikidata=Q2516468
network:wikipedia=de:Verkehrsverbund Mittelthüringen
operator=PVG mbH Weimarer Land
public_transport=platform
shelter=yes
tactile_paving=no
wheelchair=limited
id=node/311137811</desc></wpt><wpt lat="50.9646821" lon="11.0540596"><name>Thielenstraße</name><desc>bus=yes
departures_board=timetable
highway=bus_stop
lit=yes
name=Thielenstraße
network=Verkehrsverbund Mittelthüringen
network:guid=DE-TH-VMT
network:short=VMT
network:wikidata=Q2516468
operator=EVAG
public_transport=platform
shelter=no
id=node/311786688</desc></wpt><wpt lat="50.8843336" lon="12.3466819"><name>Schmölln, Förderzentrum</name><desc>bus=yes
highway=bus_stop
name=Schmölln, Förderzentrum
network=Mitteldeutscher Verkehrsverbund
network:short=MDV
network:wikidata=Q1742463
operator=ThüSac
public_transport=stop_position
wheelchair=yes
id=node/312321578</desc></wpt><wpt lat="50.8240879" lon="10.1242262"><name>Besucherbergwerk</name><desc>bench=yes
bin=yes
covered=yes
highway=bus_stop
lit=yes
name=Besucherbergwerk
old_name=Merkers Klubhaus
public_transport=platform
shelter=yes
tactile_paving=no
id=node/312606575</desc></wpt><wpt lat="50.9004266" lon="10.8816323"><name>Apfelstädt, Wandersleber Straße</name><desc>bus=yes
highway=bus_stop
name=Apfelstädt, Wandersleber Straße
public_transport=stop_position
id=node/313178489</desc></wpt><wpt lat="50.8798751" lon="12.0907434"><name>Bauvereinstraße</name><desc>bench=yes
bin=yes
bus=yes
covered=yes
departures_board=timetable
highway=bus_stop
lit=yes
name=Bauvereinstraße
network=Verkehrsverbund Mittelthüringen
network:guid=DE-TH-VMT
network:short=VMT
network:wikidata=Q2516468
operator=GVB
public_transport=platform
shelter=yes
tactile_paving=no
wheelchair=yes
id=node/314746620</desc></wpt><wpt lat="50.9725259" lon="11.3319948"><name>Berkaer Straße</name><desc>bench=yes
bin=yes
bus=yes
highway=bus_stop
lit=yes
name=Berkaer Straße
public_transport=platform
shelter=yes
tactile_paving=no
wheelchair:description=Kein Kasseler Bord
id=node/316100147</desc></wpt><wpt lat="51.2603969" lon="10.7619165"><name>Abtsbessingen, Ort</name><desc>bus=yes
highway=bus_stop
name=Abtsbessingen, Ort
network=RS
network:wikidata=Q1358980
operator=Regionalbus - Gesellschaft Unstrut-Hainich- und Kyffhäuserkreis mbH
public_transport=stop_position
id=node/316153247</desc></wpt><wpt lat="51.0436962" lon="12.4963248"><name>Pahna, Erholungspark</name><desc>bus=yes
highway=bus_stop
name=Pahna, Erholungspark
network=MDV
network:wikidata=Q1742463
operator=Thüsac
public_transport=stop_position
id=node/316496994</desc></wpt><wpt lat="50.9124812" lon="11.6094307"><name>node/316758210</name><desc>id=node/316758210</desc></wpt><wpt lat="51.0782427" lon="11.175618"><name>Markvippach, Gemeindeverwaltung</name><desc>bench=yes
bus=yes
highway=bus_stop
name=Markvippach, Gemeindeverwaltung
public_transport=platform
shelter=yes
id=node/317445325</desc></wpt><wpt lat="51.0792515" lon="11.1767782"><name>Oberdorf</name><desc>bench=no
bus=yes
highway=bus_stop
name=Oberdorf
public_transport=platform
shelter=no
id=node/317445528</desc></wpt><wpt lat="50.8803592" lon="12.106358"><name>Leumnitz</name><desc>bench=no
bin=yes
bus=yes
departures_board=timetable
highway=bus_stop
lit=yes
name=Leumnitz
network=Verkehrsverbund Mittelthüringen
network:guid=DE-TH-VMT
network:short=VMT
network:wikidata=Q2516468
operator=GVB
public_transport=platform
shelter=yes
tactile_paving=no
id=node/318789790</desc></wpt><wpt lat="51.0186667" lon="10.2622739"><name>Krauthausen Abzweig</name><desc>bus=yes
highway=bus_stop
name=Krauthausen Abzweig
public_transport=platform
id=node/319614554</desc></wpt><wpt lat="50.9875625" lon="10.3128491"><name>Eisenach, Untere Thälmannstraße</name><desc>bench=yes
bin=yes
bus=yes
highway=bus_stop
lit=yes
name=Eisenach, Untere Thälmannstraße
public_transport=platform
shelter=yes
tactile_paving=no
wheelchair=yes
wheelchair:description=Kein Kasseler Bord
id=node/319698259</desc></wpt><wpt lat="50.5697776" lon="10.3000205"><name>Seeba</name><desc>bus=yes
departures_board=timetable
highway=bus_stop
name=Seeba
public_transport=platform
shelter=yes
id=node/319865525</desc></wpt><wpt lat="51.3605892" lon="11.0920511"><name>Bad Frankenhausen, Rottlebener Straße</name><desc>bus=yes
highway=bus_stop
name=Bad Frankenhausen, Rottlebener Straße
public_transport=platform
id=node/319947652</desc></wpt><wpt lat="51.3606276" lon="11.092589"><name>Bad Frankenhausen, Rottlebener Straße</name><desc>bus=yes
highway=bus_stop
name=Bad Frankenhausen, Rottlebener Straße
public_transport=platform
id=node/319947657</desc></wpt><wpt lat="51.3574002" lon="11.0996114"><name>Klosterstraße</name><desc>highway=bus_stop
name=Klosterstraße
id=node/319947661</desc></wpt><wpt lat="50.9599559" lon="11.5724502"><name>Closewitz</name><desc>bench=yes
bus=yes
highway=bus_stop
name=Closewitz
network=Verkehrsverbund Mittelthüringen
network:guid=DE-TH-VMT
network:short=VMT
network:wikidata=Q2516468
network:wikipedia=de:Verkehrsverbund Mittelthüringen
public_transport=platform
shelter=yes
toilets:wheelchair=no
wheelchair=no
id=node/320143039</desc></wpt><wpt lat="51.0374412" lon="11.509721"><name>Apolda, Paul-Schneider-Straße</name><desc>bench=yes
bus=yes
highway=bus_stop
name=Apolda, Paul-Schneider-Straße
network=Verkehrsverbund Mittelthüringen
network:guid=DE-TH-VMT
network:short=VMT
network:wikidata=Q2516468
network:wikipedia=de:Verkehrsverbund Mittelthüringen
operator=PVG mbH Weimarer Land
public_transport=platform
shelter=yes
id=node/320190180</desc></wpt><wpt lat="50.8869431" lon="11.1236462"><name>Riechheimer Berg</name><desc>bench=yes
bin=yes
highway=bus_stop
name=Riechheimer Berg
operator=EVAG
public_transport=platform
shelter=yes
tactile_paving=no
wheelchair=no
id=node/320380746</desc></wpt><wpt lat="50.9976657" lon="10.3928457"><name>Großenlupnitz, Gewerbegebiet</name><desc>bench=no
bin=no
bus=yes
highway=bus_stop
lit=no
name=Großenlupnitz, Gewerbegebiet
public_transport=platform
shelter=no
tactile_paving=no
id=node/320776177</desc></wpt><wpt lat="50.9975776" lon="10.3928551"><name>Großenlupnitz, Gewerbegebiet</name><desc>bench=no
bin=no
bus=yes
highway=bus_stop
lit=no
name=Großenlupnitz, Gewerbegebiet
public_transport=platform
shelter=no
tactile_paving=no
id=node/320776179</desc></wpt><wpt lat="51.3676511" lon="10.7319004"><name>Immengrode</name><desc>bus=yes
highway=bus_stop
name=Immengrode
public_transport=stop_position
id=node/320938713</desc></wpt><wpt lat="51.2444901" lon="10.6482412"><name>Schlotheim, Sorge</name><desc>bench=no
bin=yes
bus=yes
highway=bus_stop
name=Schlotheim, Sorge
public_transport=platform
shelter=no
tactile_paving=no
wheelchair:description=Kein Kasseler Bord
id=node/321627373</desc></wpt><wpt lat="51.2446152" lon="10.6485992"><name>Schlotheim, Sorge</name><desc>bench=no
bin=yes
bus=yes
highway=bus_stop
name=Schlotheim, Sorge
public_transport=platform
shelter=no
tactile_paving=no
wheelchair:description=Kein Kasseler Bord
id=node/321627374</desc></wpt><wpt lat="51.2300818" lon="10.6806014"><name>Marolterode</name><desc>highway=bus_stop
name=Marolterode
shelter=yes
id=node/321795742</desc></wpt><wpt lat="50.7644902" lon="12.1646472"><name>Abzweig Albersdorf</name><desc>bench=yes
highway=bus_stop
name=Abzweig Albersdorf
public_transport=platform
shelter=yes
id=node/322515387</desc></wpt><wpt lat="50.9652621" lon="11.0512695"><name>Daberstedt</name><desc>bench=yes
bin=yes
bus=yes
highway=bus_stop
lit=yes
name=Daberstedt
network=Verkehrsverbund Mittelthüringen
network:guid=DE-TH-VMT
network:short=VMT
network:wikidata=Q2516468
note=Routes 9 N9
operator=EVAG
public_transport=platform
shelter=yes
tactile_paving=no
wheelchair=limited
id=node/322598980</desc></wpt><wpt lat="50.9779289" lon="10.2883116"><name>Eisenach, Siebenborn</name><desc>bench=no
bin=yes
bus=yes
check_date:shelter=2025-07-23
highway=bus_stop
lit=no
name=Eisenach, Siebenborn
public_transport=platform
shelter=no
tactile_paving=no
wheelchair:description=Kein Kasseler Bord
id=node/323222832</desc></wpt><wpt lat="50.9777697" lon="10.2890166"><name>Eisenach, Siebenborn</name><desc>bench=yes
bin=yes
bus=yes
check_date:shelter=2025-07-23
highway=bus_stop
lit=no
name=Eisenach, Siebenborn
public_transport=platform
shelter=yes
tactile_paving=no
wheelchair:description=Kein Kasseler Bord
id=node/323222836</desc></wpt><wpt lat="50.9786988" lon="10.2826962"><name>Eisenach, Siebenborn Wendestelle</name><desc>bench=yes
bin=yes
bus=yes
check_date:shelter=2025-06-08
highway=bus_stop
lit=yes
name=Eisenach, Siebenborn Wendestelle
public_transport=platform
shelter=yes
tactile_paving=no
wheelchair:description=Kein Kasseler Bord
id=node/323222838</desc></wpt><wpt lat="51.0544701" lon="11.4944309"><name>Zottelstedt</name><desc>bus=yes
highway=bus_stop
name=Zottelstedt
network=Verkehrsverbund Mittelthüringen
network:guid=DE-TH-VMT
network:short=VMT
network:wikidata=Q2516468
operator=PVG mbH Weimarer Land
public_transport=platform
id=node/323839094</desc></wpt><wpt lat="50.6986145" lon="10.8908252"><name>Ilmenau Roda, Ort</name><desc>bench=yes
bin=yes
bus=yes
highway=bus_stop
lit=yes
name=Ilmenau Roda, Ort
operator=IOV Omnibusverkehr GmbH Ilmenau
public_transport=platform
ref:ibnr=8070930
shelter=yes
tactile_paving=yes
uic_name=Ilmenau-Roda Ort
uic_ref=8070930
id=node/324623974</desc></wpt><wpt lat="50.6981597" lon="10.8925067"><name>Ilmenau Roda, Ort</name><desc>bench=yes
bin=yes
bus=yes
highway=bus_stop
lit=yes
name=Ilmenau Roda, Ort
operator=IOV Omnibusverkehr GmbH Ilmenau
public_transport=platform
ref:ibnr=8070930
shelter=yes
tactile_paving=no
uic_name=Ilmenau-Roda Ort
uic_ref=8070930
id=node/324624257</desc></wpt><wpt lat="51.2117755" lon="11.2963766"><name>Großmonra</name><desc>bench=no
bus=yes
highway=bus_stop
name=Großmonra
public_transport=platform
shelter=no
id=node/325767294</desc></wpt><wpt lat="50.9638754" lon="11.0332843"><name>Erfurt, Landtag / Stadion Nord</name><desc>bench=yes
bin=no
bus=yes
highway=bus_stop
lit=yes
name=Erfurt, Landtag / Stadion Nord
network=Verkehrsverbund Mittelthüringen
network:guid=DE-TH-VMT
network:short=VMT
network:wikidata=Q2516468
operator=EVAG
public_transport=platform
shelter=no
short_name=Landtag / Stadion Nord
tactile_paving=no
wheelchair=yes
id=node/328872424</desc></wpt><wpt lat="50.9654956" lon="11.0330079"><name>Erfurt, Landtag / Stadion Nord</name><desc>bench=no
bin=no
bus=yes
highway=bus_stop
lit=yes
name=Erfurt, Landtag / Stadion Nord
network=Verkehrsverbund Mittelthüringen
network:guid=DE-TH-VMT
network:short=VMT
network:wikidata=Q2516468
operator=EVAG
public_transport=platform
shelter=no
short_name=Landtag / Stadion Nord
tactile_paving=no
id=node/328873966</desc></wpt><wpt lat="50.9564514" lon="11.0265541"><name>Erfurt, Am Waldkasino</name><desc>bus=yes
highway=bus_stop
name=Erfurt, Am Waldkasino
network=Verkehrsverbund Mittelthüringen
network:guid=DE-TH-VMT
network:short=VMT
network:wikidata=Q2516468
operator=EVAG
public_transport=platform
shelter=no
short_name=Am Waldkasino
id=node/328883913</desc></wpt><wpt lat="50.9501066" lon="11.0191988"><name>Rhodaer Chaussee</name><desc>bench=yes
bus=yes
highway=bus_stop
name=Rhodaer Chaussee
network=Verkehrsverbund Mittelthüringen
network:guid=DE-TH-VMT
network:short=VMT
network:wikidata=Q2516468
operator=EVAG
public_transport=platform
shelter=no
id=node/328889908</desc></wpt><wpt lat="50.950151" lon="11.0191436"><name>Rhodaer Chaussee</name><desc>bench=yes
bus=yes
highway=bus_stop
name=Rhodaer Chaussee
network=Verkehrsverbund Mittelthüringen
network:guid=DE-TH-VMT
network:short=VMT
network:wikidata=Q2516468
operator=EVAG
public_transport=platform
shelter=no
id=node/328892018</desc></wpt><wpt lat="50.9367081" lon="11.0126503"><name>Waldhaus</name><desc>bench=yes
bus=yes
highway=bus_stop
name=Waldhaus
network=Verkehrsverbund Mittelthüringen
network:guid=DE-TH-VMT
network:short=VMT
network:wikidata=Q2516468
operator=EVAG
public_transport=platform
shelter=no
id=node/328897261</desc></wpt><wpt lat="50.9365512" lon="11.0125616"><name>Waldhaus</name><desc>bench=no
bus=yes
highway=bus_stop
name=Waldhaus
network=Verkehrsverbund Mittelthüringen
network:guid=DE-TH-VMT
network:short=VMT
network:wikidata=Q2516468
operator=EVAG
public_transport=platform
shelter=no
id=node/328898492</desc></wpt><wpt lat="50.9313828" lon="11.0129739"><name>Rhoda</name><desc>bus=yes
highway=bus_stop
name=Rhoda
network=Verkehrsverbund Mittelthüringen
network:guid=DE-TH-VMT
network:short=VMT
network:wikidata=Q2516468
operator=EVAG
public_transport=platform
id=node/328913105</desc></wpt><wpt lat="50.9312663" lon="11.0128296"><name>Rhoda</name><desc>bus=yes
highway=bus_stop
name=Rhoda
network=Verkehrsverbund Mittelthüringen
network:guid=DE-TH-VMT
network:short=VMT
network:wikidata=Q2516468
operator=EVAG
public_transport=platform
shelter=yes
id=node/328913114</desc></wpt><wpt lat="50.9278832" lon="10.9972764"><name>Rosenküche</name><desc>bus=yes
highway=bus_stop
name=Rosenküche
network=Verkehrsverbund Mittelthüringen
network:guid=DE-TH-VMT
network:short=VMT
network:wikidata=Q2516468
operator=EVAG
public_transport=platform
shelter=no
id=node/328917179</desc></wpt><wpt lat="50.9248994" lon="10.9917488"><name>Möbisburg, Schule</name><desc>bench=no
bin=yes
bus=yes
highway=bus_stop
lit=yes
name=Möbisburg, Schule
network=Verkehrsverbund Mittelthüringen
network:guid=DE-TH-VMT
network:short=VMT
network:wikidata=Q2516468
operator=EVAG
public_transport=platform
shelter=no
tactile_paving=no
id=node/328921152</desc></wpt><wpt lat="50.9249036" lon="10.9918883"><name>Möbisburg, Schule</name><desc>bench=no
bin=yes
bus=yes
highway=bus_stop
lit=yes
name=Möbisburg, Schule
network=Verkehrsverbund Mittelthüringen
network:guid=DE-TH-VMT
network:short=VMT
network:wikidata=Q2516468
operator=EVAG
public_transport=platform
shelter=no
tactile_paving=no
id=node/328922517</desc></wpt><wpt lat="50.9237829" lon="10.9921226"><name>Forelle</name><desc>bus=yes
from=Hauptbahnhof
highway=bus_stop
name=Forelle
network=Verkehrsverbund Mittelthüringen
network:guid=DE-TH-VMT
network:short=VMT
network:wikidata=Q2516468
operator=EVAG
public_transport=platform
shelter=no
to=Möbisburg
id=node/328925989</desc></wpt><wpt lat="50.9238058" lon="10.9922635"><name>Forelle</name><desc>bus=yes
from=Möbisburg
highway=bus_stop
name=Forelle
network=Verkehrsverbund Mittelthüringen
network:guid=DE-TH-VMT
network:short=VMT
network:wikidata=Q2516468
operator=EVAG
public_transport=platform
shelter=yes
to=Hauptbahnhof
id=node/328926612</desc></wpt><wpt lat="50.9206679" lon="10.9899526"><name>Möbisburg, Denkmal</name><desc>bus=yes
highway=bus_stop
name=Möbisburg, Denkmal
network=Verkehrsverbund Mittelthüringen
network:guid=DE-TH-VMT
network:short=VMT
network:wikidata=Q2516468
note=60 75 51
operator=EVAG
public_transport=platform
shelter=yes
id=node/328928211</desc></wpt><wpt lat="50.9199076" lon="10.9890054"><name>Möbisburg</name><desc>bus=yes
highway=bus_stop
name=Möbisburg
network=Verkehrsverbund Mittelthüringen
network:guid=DE-TH-VMT
network:short=VMT
network:wikidata=Q2516468
operator=EVAG
public_transport=platform
shelter=yes
id=node/328964984</desc></wpt><wpt lat="50.9244967" lon="10.9875039"><name>Freibad Möbisburg</name><desc>bus=yes
from=Möbisburg
highway=bus_stop
name=Freibad Möbisburg
network=Verkehrsverbund Mittelthüringen
network:guid=DE-TH-VMT
network:short=VMT
network:wikidata=Q2516468
public_transport=platform
shelter=no
to=Hauptbahnhof
id=node/328966380</desc></wpt><wpt lat="50.9355251" lon="10.9869726"><name>Werner-Kühne-Straße</name><desc>bus=yes
highway=bus_stop
name=Werner-Kühne-Straße
network=Verkehrsverbund Mittelthüringen
network:guid=DE-TH-VMT
network:short=VMT
network:wikidata=Q2516468
note=nur in Richtung Hbf
operator=EVAG
public_transport=platform
shelter=no
id=node/329966140</desc></wpt><wpt lat="50.9377241" lon="10.9868591"><name>Bischleben</name><desc>bench=yes
bin=yes
bus=yes
highway=bus_stop
lit=no
name=Bischleben
network=Verkehrsverbund Mittelthüringen
network:guid=DE-TH-VMT
network:short=VMT
network:wikidata=Q2516468
operator=EVAG
public_transport=platform
shelter=yes
tactile_paving=yes
wheelchair=yes
wheelchair:description=Kasseler Sonderbord
id=node/329966717</desc></wpt><wpt lat="50.9514646" lon="11.0001711"><name>Am Elsterberg</name><desc>bus=yes
from=Hauptbahnhof;Hochheim
highway=bus_stop
name=Am Elsterberg
network=Verkehrsverbund Mittelthüringen
network:guid=DE-TH-VMT
network:short=VMT
network:wikidata=Q2516468
public_transport=platform
shelter=no
to=Egstedt;Schloss Molsdorf
id=node/329968947</desc></wpt><wpt lat="50.9590749" lon="11.0008087"><name>Auf den Lösern</name><desc>bench=yes
bus=yes
check_date:shelter=2025-07-13
from=Molsdorf
highway=bus_stop
name=Auf den Lösern
network=Verkehrsverbund Mittelthüringen
network:guid=DE-TH-VMT
network:short=VMT
network:wikidata=Q2516468
operator=EVAG
public_transport=platform
shelter=yes
tactile_paving=no
to=Urbicher Kreuz
id=node/329971793</desc></wpt><wpt lat="50.9591442" lon="11.0007148"><name>Auf den Lösern</name><desc>bus=yes
from=Urbicher Kreuz
highway=bus_stop
name=Auf den Lösern
network=Verkehrsverbund Mittelthüringen
network:guid=DE-TH-VMT
network:short=VMT
network:wikidata=Q2516468
operator=EVAG
public_transport=platform
shelter=no
to=Molsdorf
id=node/329971886</desc></wpt><wpt lat="50.9625406" lon="11.0079302"><name>Wartburgstraße</name><desc>bench=yes
bin=yes
bus=yes
check_date:shelter=2024-12-19
from=Molsdorf
highway=bus_stop
kerb=raised
kerb:approach_aid=yes
lit=yes
name=Wartburgstraße
network=Verkehrsverbund Mittelthüringen
network:guid=DE-TH-VMT
network:short=VMT
network:wikidata=Q2516468
operator=EVAG
passenger_information_display=no
public_transport=platform
shelter=yes
tactile_paving=yes
to=Urbicher Kreuz
wheelchair=yes
id=node/329971947</desc></wpt><wpt lat="50.962605" lon="11.0077031"><name>Wartburgstraße</name><desc>bench=no
bin=yes
bus=yes
check_date:shelter=2024-12-19
from=Urbicher Kreuz
highway=bus_stop
kerb=raised
kerb:approach_aid=yes
lit=yes
name=Wartburgstraße
network=Verkehrsverbund Mittelthüringen
network:guid=DE-TH-VMT
network:short=VMT
network:wikidata=Q2516468
operator=EVAG
passenger_information_display=no
public_transport=platform
shelter=no
tactile_paving=yes
to=Molsdorf
wheelchair=yes
id=node/329971955</desc></wpt><wpt lat="50.9689049" lon="11.0151856"><name>Straße des Friedens</name><desc>bench=yes
bin=yes
bus=yes
highway=bus_stop
lit=yes
name=Straße des Friedens
network=Verkehrsverbund Mittelthüringen
network:guid=DE-TH-VMT
network:short=VMT
network:wikidata=Q2516468
operator=EVAG
public_transport=platform
shelter=yes
tactile_paving=yes
wheelchair=limited
id=node/329972092</desc></wpt><wpt lat="50.9689285" lon="11.0148031"><name>Straße des Friedens</name><desc>bench=yes
bin=yes
bus=yes
check_date:shelter=2023-09-03
highway=bus_stop
lit=yes
name=Straße des Friedens
network=Verkehrsverbund Mittelthüringen
network:guid=DE-TH-VMT
network:short=VMT
network:wikidata=Q2516468
operator=EVAG
public_transport=platform
shelter=yes
tactile_paving=yes
id=node/329972097</desc></wpt><wpt lat="50.971165" lon="11.0228877"><name>Alte Oper</name><desc>bench=yes
bin=yes
bus=yes
check_date:shelter=2023-08-02
departures_board=timetable
highway=bus_stop
lit=yes
name=Alte Oper
network=Verkehrsverbund Mittelthüringen
network:guid=DE-TH-VMT
network:short=VMT
network:wikidata=Q2516468
operator=EVAG
public_transport=platform
shelter=yes
tactile_paving=yes
to=Urbicher Kreuz
wheelchair=yes
id=node/329972316</desc></wpt><wpt lat="50.9712802" lon="11.0229349"><name>Alte Oper</name><desc>bench=no
bin=yes
bus=yes
departures_board=timetable
from=Urbicher Kreuz
highway=bus_stop
lit=yes
name=Alte Oper
network=Verkehrsverbund Mittelthüringen
network:guid=DE-TH-VMT
network:short=VMT
network:wikidata=Q2516468
operator=EVAG
public_transport=platform
shelter=no
tactile_paving=yes
to=Molsdorf
wheelchair=yes
id=node/329972346</desc></wpt><wpt lat="50.9714149" lon="11.0278499"><name>Löberstraße</name><desc>bench=no
bin=yes
bus=yes
highway=bus_stop
lit=yes
name=Löberstraße
network=Verkehrsverbund Mittelthüringen
network:guid=DE-TH-VMT
network:short=VMT
network:wikidata=Q2516468
operator=EVAG
public_transport=platform
shelter=no
tactile_paving=no
id=node/329972445</desc></wpt><wpt lat="50.9719075" lon="11.0287323"><name>Löberstraße</name><desc>bench=no
bus=yes
highway=bus_stop
name=Löberstraße
network=Verkehrsverbund Mittelthüringen
network:guid=DE-TH-VMT
network:short=VMT
network:wikidata=Q2516468
operator=EVAG
public_transport=platform
shelter=yes
wheelchair=yes
id=node/329972536</desc></wpt><wpt lat="50.9737122" lon="11.0343944"><name>Erfurt, Thomaseck</name><desc>bench=yes
bin=yes
bus=yes
highway=bus_stop
lit=yes
name=Erfurt, Thomaseck
network=Verkehrsverbund Mittelthüringen
network:guid=DE-TH-VMT
network:short=VMT
network:wikidata=Q2516468
operator=EVAG
public_transport=platform
shelter=no
short_name=Thomaseck
tactile_paving=yes
wheelchair=yes
id=node/329974538</desc></wpt><wpt lat="50.9735279" lon="11.0344968"><name>Erfurt, Thomaseck</name><desc>bench=no
bin=yes
bus=yes
highway=bus_stop
lit=no
name=Erfurt, Thomaseck
network=Verkehrsverbund Mittelthüringen
network:guid=DE-TH-VMT
network:short=VMT
network:wikidata=Q2516468
operator=EVAG
public_transport=platform
shelter=no
short_name=Thomaseck
tactile_paving=yes
to=Hauptbahnhof
wheelchair=yes
id=node/329974539</desc></wpt><wpt lat="50.970959" lon="11.0309605"><name>Erfurt, Rosengasse</name><desc>bench=no
bin=no
bus=yes
from=Möbisburg
highway=bus_stop
lit=no
name=Erfurt, Rosengasse
network=Verkehrsverbund Mittelthüringen
network:guid=DE-TH-VMT
network:short=VMT
network:wikidata=Q2516468
operator=EVAG
public_transport=platform
shelter=no
short_name=Rosengasse
tactile_paving=no
to=Hauptbahnhof
wheelchair=yes
id=node/329986623</desc></wpt><wpt lat="50.9703037" lon="11.0309725"><name>Erfurt, Rosengasse</name><desc>bench=no
bin=no
bus=yes
from=Hauptbahnhof
highway=bus_stop
lit=yes
name=Erfurt, Rosengasse
network=Verkehrsverbund Mittelthüringen
network:guid=DE-TH-VMT
network:short=VMT
network:wikidata=Q2516468
operator=EVAG
public_transport=platform
shelter=no
short_name=Rosengasse
tactile_paving=yes
to=Möbisburg
wheelchair=yes
id=node/329986715</desc></wpt><wpt lat="50.9292512" lon="11.5183985"><name>Carl-Spitzweg-Straße</name><desc>bus=yes
highway=bus_stop
name=Carl-Spitzweg-Straße
network=Verkehrsverbund Mittelthüringen
operator=Jenaer Nahverkehrsgesellschaft mbH
public_transport=platform
shelter=no
id=node/330949334</desc></wpt><wpt lat="50.9384131" lon="11.5967229"><name>Kulturschlachthof</name><desc>bus=yes
highway=bus_stop
name=Kulturschlachthof
public_transport=stop_position
id=node/331061437</desc></wpt><wpt lat="50.8940913" lon="12.0811546"><name>Straße des Bergmanns</name><desc>bench=yes
bus=yes
highway=bus_stop
name=Straße des Bergmanns
network=Verkehrsverbund Mittelthüringen
network:guid=DE-TH-VMT
network:short=VMT
network:wikidata=Q2516468
public_transport=platform
shelter=yes
id=node/332137028</desc></wpt><wpt lat="50.8745365" lon="12.0860943"><name>Stadtgraben</name><desc>bench=yes
bin=yes
bus=yes
departures_board=timetable
highway=bus_stop
lit=yes
name=Stadtgraben
network=Verkehrsverbund Mittelthüringen
network:guid=DE-TH-VMT
network:short=VMT
network:wikidata=Q2516468
operator=GVB
public_transport=platform
shelter=yes
tactile_paving=yes
id=node/332137029</desc></wpt><wpt lat="50.9425827" lon="10.7137075"><name>Mozartstraße</name><desc>bench=no
bin=no
bus=yes
highway=bus_stop
lit=yes
name=Mozartstraße
network=Verkehrsverbund Mittelthüringen
network:guid=DE-TH-VMT
network:short=VMT
network:wikidata=Q2516468
network:wikipedia=de:Verkehrsverbund Mittelthüringen
operator=Nahverkehrsgesellschaft Landkreis Gotha
public_transport=platform
shelter=no
surface=paving_stones
tactile_paving=no
wheelchair:description=Kasseler Bord vorhanden
id=node/334455724</desc></wpt><wpt lat="50.9734794" lon="11.0528539"><name>Rudolstädter Straße</name><desc>bus=yes
highway=bus_stop
name=Rudolstädter Straße
network=Verkehrsverbund Mittelthüringen
network:guid=DE-TH-VMT
network:short=VMT
network:wikidata=Q2516468
operator=EVAG
public_transport=platform
id=node/335515559</desc></wpt>