<gpx xmlns="http://www.topografix.com/GPX/1/1" xmlns:xsi="http://www.w3.org/2001/XMLSchema-instance" xsi:schemaLocation="http://www.topografix.com/GPX/1/1 http://www.topografix.com/GPX/1/1/gpx.xsd" version="1.1" creator="OverpassTurboBatch"><metadata/><wpt lat="53.769226" lon="12.5851092"><name>Teterow, Bergringstadion</name><desc>bus=yes
highway=bus_stop
name=Teterow, Bergringstadion
network=Verkehrsverbund Warnow
network:short=VVW
network:wikidata=Q2516492
operator=Rebus
public_transport=stop_position
ref=de:13072:1306
id=node/24279214</desc></wpt><wpt lat="54.0714995" lon="12.2035867"><name>Roggentin, Dorfplatz</name><desc>alt_name=Dorfplatz
bus=yes
highway=bus_stop
name=Roggentin, Dorfplatz
public_transport=stop_position
ref=de:13072:3040
id=node/30782998</desc></wpt><wpt lat="53.8588641" lon="12.2319297"><name>Kuhs, II</name><desc>bus=yes
highway=bus_stop
name=Kuhs, II
public_transport=stop_position
ref=de:13072:493
id=node/31298601</desc></wpt><wpt lat="54.6670819" lon="13.2964054"><name>Bakenberg Strand</name><desc>bus=yes
departures_board=timetable
highway=bus_stop
name=Bakenberg Strand
network=Verkehrsgesellschaft Vorpommern-Rügen
network:guid=DE-MV-VVR
network:short=VVR
network:wikidata=Q23787863
operator=Verkehrsgesellschaft Vorpommern-Rügen
public_transport=platform
id=node/50904494</desc></wpt><wpt lat="54.5855596" lon="13.2990109"><name>Woldenitz</name><desc>bench=no
bus=yes
departures_board=timetable
highway=bus_stop
name=Woldenitz
operator=Verkehrsgesellschaft Vorpommern-Rügen mbH (VVR)
public_transport=platform
shelter=no
id=node/50907126</desc></wpt><wpt lat="54.6700215" lon="13.4098139"><name>Parkplatz Putgarten</name><desc>bench=yes
bin=yes
bus=yes
departures_board=timetable
highway=bus_stop
lit=yes
name=Parkplatz Putgarten
network=Arkonabahn
operator=Kap-Arkona-Bahn
public_transport=stop_position
shelter=yes
surface=paving_stones
tactile_paving=no
wheelchair=no
id=node/50907576</desc></wpt><wpt lat="54.0376111" lon="11.5958259"><name>Pepelow</name><desc>bus=yes
highway=bus_stop
name=Pepelow
public_transport=stop_position
ref=de:13072:653
id=node/59190944</desc></wpt><wpt lat="54.0167066" lon="12.9813407"><name>Wolthof</name><desc>bus=yes
highway=bus_stop
name=Wolthof
public_transport=stop_position
id=node/59782112</desc></wpt><wpt lat="54.0240202" lon="12.2331358"><name>Dummerstorf, Abzweig</name><desc>bus=yes
highway=bus_stop
name=Dummerstorf, Abzweig
network=Verkehrsverbund Warnow
network:short=VVW
network:wikidata=Q2516492
operator=Rebus
public_transport=stop_position
ref=de:13072:191
id=node/83088059</desc></wpt><wpt lat="53.697725" lon="12.7117486"><name>Gessin</name><desc>bench=no
bus=yes
departures_board=timetable
highway=bus_stop
name=Gessin
network=MVVG
operator=MVVG
public_transport=platform
shelter=no
id=node/104074180</desc></wpt><wpt lat="53.7702" lon="12.5752003"><name>Teterow, ZOB</name><desc>bus=yes
highway=bus_stop
name=Teterow, ZOB
public_transport=stop_position
ref=de:13072:1063
id=node/247086531</desc></wpt><wpt lat="53.9520654" lon="14.1709306"><name>Heringsdorf, Delbrückstraße</name><desc>bus=yes
highway=bus_stop
name=Heringsdorf, Delbrückstraße
public_transport=stop_position
shelter=no
tactile_paving=yes
id=node/247792986</desc></wpt><wpt lat="53.9507472" lon="14.1721141"><name>Heringsdorf, Liehrstraße</name><desc>bus=yes
highway=bus_stop
lit=no
name=Heringsdorf, Liehrstraße
operator=Usedomer Bäderbahn GmbH
public_transport=stop_position
tactile_paving=yes
id=node/247792992</desc></wpt><wpt lat="53.950505" lon="14.1726867"><name>Heringsdorf, Liehrstraße</name><desc>bus=yes
highway=bus_stop
lit=no
name=Heringsdorf, Liehrstraße
operator=Usedomer Bäderbahn GmbH
public_transport=stop_position
tactile_paving=yes
id=node/247792993</desc></wpt><wpt lat="53.9065152" lon="13.0333598"><name>Markt H.-Zille-Schule</name><desc>bench=yes
bin=yes
bus=yes
departures_board=timetable
highway=bus_stop
lit=no
name=Markt H.-Zille-Schule
network=MVVG
operator=MVVG
public_transport=platform
shelter=no
tactile_paving=no
id=node/248045818</desc></wpt><wpt lat="53.7831449" lon="11.8423356"><name>node/249584784</name><desc>bus=yes
highway=bus_stop
public_transport=stop_position
shelter=yes
id=node/249584784</desc></wpt><wpt lat="54.0761468" lon="12.2576491"><name>Broderstorf, Abzweig</name><desc>bus=yes
highway=bus_stop
name=Broderstorf, Abzweig
public_transport=stop_position
ref=de:13072:106
shelter=yes
tactile_paving=no
id=node/249673541</desc></wpt><wpt lat="54.1217285" lon="12.0588074"><name>Ehm-Welk-Straße</name><desc>bus=yes
highway=bus_stop
lit=yes
name=Ehm-Welk-Straße
public_transport=platform
shelter=no
id=node/250670135</desc></wpt><wpt lat="53.9280531" lon="11.7098797"><name>Teplitz Abzweig</name><desc>bench=yes
bus=yes
highway=bus_stop
name=Teplitz Abzweig
operator=NAHBUS Nordwestmecklenburg GmbH
public_transport=stop_position
shelter=yes
id=node/251349418</desc></wpt><wpt lat="53.9299294" lon="11.7104163"><name>Teplitz Dorf</name><desc>bench=no
bus=yes
highway=bus_stop
name=Teplitz Dorf
operator=NAHBUS Nordwestmecklenburg GmbH
public_transport=stop_position
shelter=no
id=node/251383199</desc></wpt><wpt lat="53.3328089" lon="13.0925066"><name>W. - Stolte - Straße</name><desc>bus=yes
highway=bus_stop
name=W. - Stolte - Straße
operator=Mecklenburg-Vorpommersche-Verkehrsgesellschaft
operator:short=MVVG
public_transport=stop_position
id=node/252120212</desc></wpt><wpt lat="53.7626795" lon="13.9995638"><name>Grambin Ausbau</name><desc>bus=yes
highway=bus_stop
name=Grambin Ausbau
public_transport=stop_position
id=node/252262066</desc></wpt><wpt lat="53.8045973" lon="11.5991681"><name>Jesendorf</name><desc>highway=bus_stop
name=Jesendorf
public_transport=platform
route_ref=202;420
shelter=yes
id=node/253398923</desc></wpt><wpt lat="53.9776094" lon="12.3003843"><name>Kossow</name><desc>bus=yes
highway=bus_stop
name=Kossow
network=VVW
operator=Rebus
public_transport=stop_position
id=node/255867847</desc></wpt><wpt lat="53.352872" lon="14.298224"><name>Hohenholz</name><desc>bus=yes
highway=bus_stop
name=Hohenholz
public_transport=stop_position
id=node/256418640</desc></wpt><wpt lat="53.3213629" lon="11.0756502"><name>Chausseehaus</name><desc>bus=yes
highway=bus_stop
name=Chausseehaus
public_transport=stop_position
id=node/260569336</desc></wpt><wpt lat="53.3494293" lon="13.0934294"><name>Waldsiedlung</name><desc>bus=yes
highway=bus_stop
name=Waldsiedlung
network=MVVG
operator=Mecklenburg-Vorpommersche-Verkehrsgesellschaft
operator:short=MVVG
public_transport=stop_position
shelter=yes
id=node/266384096</desc></wpt><wpt lat="53.6516441" lon="12.2657837"><name>Krakow am See</name><desc>bus=yes
highway=bus_stop
name=Krakow am See
operator=Rebus, VLP
public_transport=stop_position
ref=de:13072:468
shelter=yes
uic_ref=935837
wheelchair=limited
id=node/267038530</desc></wpt><wpt lat="54.5270683" lon="13.0872929"><name>Neuendorf Pluderbarg</name><desc>bench=yes
bin=yes
bus=yes
departures_board=timetable
highway=bus_stop
kerb=raised
kerb:approach_aid=no
lit=no
name=Neuendorf Pluderbarg
operator=Verkehrsgesellschaft Vorpommern-Rügen mbH (VVR)
passenger_information_display=no
public_transport=platform
shelter=yes
tactile_paving=no
id=node/269574710</desc></wpt><wpt lat="54.5678286" lon="13.1064078"><name>Vitte Wallweg</name><desc>bench=no
bin=no
bus=yes
departures_board=timetable
highway=bus_stop
kerb=raised
kerb:approach_aid=no
lit=no
name=Vitte Wallweg
network=Verkehrsgesellschaft Vorpommern-Rügen
network:guid=DE-MV-VVR
network:short=VVR
network:wikidata=Q23787863
operator=Verkehrsgesellschaft Vorpommern-Rügen
passenger_information_display=no
public_transport=platform
shelter=no
tactile_paving=no
id=node/269577799</desc></wpt><wpt lat="53.9641745" lon="14.1305492"><name>Bansin, Bahnhof</name><desc>bus=yes
highway=bus_stop
name=Bansin, Bahnhof
public_transport=stop_position
id=node/269978082</desc></wpt><wpt lat="53.9736965" lon="14.1391091"><name>Heringsdorf, Fischerweg</name><desc>bench=yes
bin=yes
bus=yes
highway=bus_stop
lit=yes
name=Heringsdorf, Fischerweg
public_transport=platform
shelter=no
tactile_paving=no
id=node/270042707</desc></wpt><wpt lat="53.9576672" lon="14.1556176"><name>Heringsdorf, Labahnstraße</name><desc>bus=yes
highway=bus_stop
name=Heringsdorf, Labahnstraße
public_transport=stop_position
shelter=no
tactile_paving=no
id=node/270192674</desc></wpt><wpt lat="53.9688365" lon="14.1391873"><name>Bansin, Seepark</name><desc>bus=yes
highway=bus_stop
name=Bansin, Seepark
public_transport=stop_position
shelter=yes
tactile_paving=no
id=node/270222542</desc></wpt><wpt lat="53.9617618" lon="14.1582915"><name>Heringsdorf, Friedhof</name><desc>bench=yes
bin=yes
bus=yes
highway=bus_stop
name=Heringsdorf, Friedhof
public_transport=stop_position
shelter=no
tactile_paving=yes
id=node/270267231</desc></wpt><wpt lat="53.938351" lon="14.1959587"><name>Ahlbeck, Strandstraße</name><desc>bus=yes
highway=bus_stop
name=Ahlbeck, Strandstraße
public_transport=stop_position
id=node/270288159</desc></wpt><wpt lat="53.6326886" lon="11.4029058"><name>Platz der Freiheit</name><desc>bus=yes
highway=bus_stop
name=Platz der Freiheit
public_transport=stop_position
railway=tram_stop
ref=PDF3
tram=yes
wheelchair=yes
id=node/270573949</desc></wpt><wpt lat="54.0668661" lon="13.9032679"><name>Zinnowitz, Neuendorfer Weg</name><desc>bench=no
bin=no
bus=yes
highway=bus_stop
lit=yes
name=Zinnowitz, Neuendorfer Weg
public_transport=platform
shelter=no
source=survey, photo
tactile_paving=yes
id=node/272455571</desc></wpt><wpt lat="54.0671651" lon="13.9583902"><name>Zempin, B 111</name><desc>bench=yes
bin=yes
highway=bus_stop
lit=yes
name=Zempin, B 111
public_transport=platform
shelter=yes
tactile_paving=no
id=node/275372171</desc></wpt><wpt lat="54.0627086" lon="12.0633447"><name>Rostock, Akazienweg</name><desc>bus=yes
highway=bus_stop
name=Rostock, Akazienweg
public_transport=stop_position
ref=de:13003:1778
wheelchair=no
id=node/276032794</desc></wpt><wpt lat="54.2377499" lon="12.437345"><name>Ribnitz, Aldi/Famila</name><desc>bus=yes
highway=bus_stop
name=Ribnitz, Aldi/Famila
network=Verkehrsgesellschaft Vorpommern-Rügen
network:guid=DE-MV-VVR
network:short=VVR
network:wikidata=Q23787863
operator=Verkehrsgesellschaft Vorpommern-Rügen
public_transport=platform
id=node/276203777</desc></wpt><wpt lat="53.6285901" lon="11.4109081"><name>Marienplatz</name><desc>bus=yes
highway=bus_stop
name=Marienplatz
note=Mittelbahnsteig
public_transport=stop_position
railway=tram_stop
ref=MPL1
shelter=yes
tram=yes
wheelchair=yes
id=node/276968395</desc></wpt><wpt lat="53.6289184" lon="11.4101888"><name>Marienplatz</name><desc>bus=yes
highway=bus_stop
name=Marienplatz
note=Lübecker Straße
public_transport=stop_position
survey:date=2019-11-06
wheelchair=yes
id=node/276968799</desc></wpt><wpt lat="53.6338738" lon="11.4091583"><name>Hauptbahnhof</name><desc>bus=yes
highway=bus_stop
name=Hauptbahnhof
note=stadtwärts
public_transport=stop_position
railway=tram_stop
shelter=yes
tram=yes
wheelchair=yes
id=node/277203477</desc></wpt><wpt lat="53.621306" lon="11.4089158"><name>Platz der Jugend</name><desc>bus=yes
highway=bus_stop
name=Platz der Jugend
note=landwärts
public_transport=stop_position
railway=tram_stop
tram=yes
wheelchair=yes
id=node/277955125</desc></wpt><wpt lat="53.6249804" lon="11.4093455"><name>Schlossblick / IHK</name><desc>bus=yes
highway=bus_stop
name=Schlossblick / IHK
note=landwärts
public_transport=stop_position
wheelchair=yes
id=node/277958123</desc></wpt><wpt lat="53.8797797" lon="11.2145235"><name>node/278298257</name><desc>bus=yes
highway=bus_stop
public_transport=stop_position
id=node/278298257</desc></wpt><wpt lat="53.9925486" lon="11.380371"><name>Timmendorf Strand</name><desc>bench=yes
bin=yes
bus=yes
highway=bus_stop
lit=yes
name=Timmendorf Strand
public_transport=platform
shelter=yes
tactile_paving=no
id=node/278347981</desc></wpt><wpt lat="54.0186819" lon="11.4802951"><name>Gollwitz</name><desc>bench=no
bin=no
bus=yes
highway=bus_stop
lit=no
name=Gollwitz
public_transport=platform
ref:ibnr=322057
shelter=no
tactile_paving=no
id=node/278566776</desc></wpt><wpt lat="54.0005542" lon="11.4401693"><name>Kirchdorf Bäckerei</name><desc>bench=no
bin=no
bus=yes
highway=bus_stop
lit=no
name=Kirchdorf Bäckerei
public_transport=platform
shelter=no
tactile_paving=no
id=node/278566878</desc></wpt><wpt lat="53.9956225" lon="11.4374835"><name>Kirchdorf Schloßwall</name><desc>bench=yes
bin=yes
bus=yes
highway=bus_stop
lit=no
name=Kirchdorf Schloßwall
public_transport=platform
shelter=yes
tactile_paving=no
id=node/278566880</desc></wpt><wpt lat="53.9958054" lon="11.4380946"><name>Kirchdorf Schloßwall</name><desc>bench=no
bin=no
bus=yes
highway=bus_stop
lit=no
name=Kirchdorf Schloßwall
public_transport=platform
shelter=no
tactile_paving=no
id=node/278566881</desc></wpt><wpt lat="54.2085619" lon="12.2125823"><name>Wallensteins Lager</name><desc>bus=yes
highway=bus_stop
name=Wallensteins Lager
network=Verkehrsverbund Warnow
network:short=VVW
network:wikidata=Q2516492
operator=RSAG
public_transport=stop_position
ref=de:13003:1093
id=node/281038850</desc></wpt><wpt lat="54.4645275" lon="13.5652912"><name>Mukran Strand</name><desc>bench=no
bin=no
bus=yes
departures_board=timetable
highway=bus_stop
lit=no
name=Mukran Strand
operator=Verkehrsgesellschaft Vorpommern-Rügen mbH (VVR)
public_transport=platform
shelter=no
tactile_paving=no
toilets:wheelchair=no
wheelchair=no
id=node/281417904</desc></wpt><wpt lat="54.0525334" lon="13.1931362"><name>Zarnewanz</name><desc>highway=bus_stop
name=Zarnewanz
public_transport=platform
id=node/282247783</desc></wpt><wpt lat="54.052614" lon="13.1931276"><name>Zarnewanz</name><desc>highway=bus_stop
name=Zarnewanz
public_transport=platform
id=node/282247809</desc></wpt><wpt lat="53.9548657" lon="11.1639887"><name>Hofzumfelde</name><desc>bus=yes
highway=bus_stop
name=Hofzumfelde
public_transport=stop_position
id=node/282268439</desc></wpt><wpt lat="54.0658471" lon="12.2155262"><name>Kösterbeck</name><desc>bus=yes
highway=bus_stop
name=Kösterbeck
network=Verkehrsverbund Warnow
operator=Rebus
public_transport=stop_position
ref=de:13072:462
id=node/282352921</desc></wpt><wpt lat="54.2381896" lon="12.4374175"><name>Ribnitz, Aldi/Famila</name><desc>bus=yes
highway=bus_stop
name=Ribnitz, Aldi/Famila
network=Verkehrsgesellschaft Vorpommern-Rügen
network:guid=DE-MV-VVR
network:short=VVR
network:wikidata=Q23787863
operator=Verkehrsgesellschaft Vorpommern-Rügen
public_transport=platform
shelter=yes
id=node/282724757</desc></wpt><wpt lat="53.3050316" lon="11.0054669"><name>Garlitz Bohldamm</name><desc>highway=bus_stop
name=Garlitz Bohldamm
public_transport=platform
route_ref=568
shelter=no
id=node/282934791</desc></wpt><wpt lat="53.3172846" lon="11.0111832"><name>Garlitz Gaststätte</name><desc>highway=bus_stop
name=Garlitz Gaststätte
public_transport=platform
route_ref=521;568
shelter=yes
id=node/282934794</desc></wpt><wpt lat="53.9268867" lon="11.9717848"><name>node/283182633</name><desc>bus=yes
highway=bus_stop
public_transport=stop_position
id=node/283182633</desc></wpt><wpt lat="54.5700081" lon="13.4698691"><name>Glowe Gasthaus zur Schaabe</name><desc>bench=yes
bin=no
bus=yes
covered=yes
departures_board=timetable
highway=bus_stop
lit=yes
name=Glowe Gasthaus zur Schaabe
network=Verkehrsgesellschaft Vorpommern-Rügen
network:guid=DE-MV-VVR
network:short=VVR
network:wikidata=Q23787863
operator=Verkehrsgesellschaft Vorpommern-Rügen
public_transport=platform
shelter=yes
tactile_paving=yes
toilets:wheelchair=no
wheelchair=limited
id=node/283661991</desc></wpt><wpt lat="54.5698566" lon="13.4700896"><name>Glowe Gasthaus zur Schaabe</name><desc>bench=yes
bin=yes
bus=yes
departures_board=timetable
highway=bus_stop
lit=yes
name=Glowe Gasthaus zur Schaabe
network=Verkehrsgesellschaft Vorpommern-Rügen
network:guid=DE-MV-VVR
network:short=VVR
network:wikidata=Q23787863
operator=Verkehrsgesellschaft Vorpommern-Rügen
public_transport=platform
shelter=yes
tactile_paving=no
toilets:wheelchair=no
wheelchair=limited
id=node/283662000</desc></wpt><wpt lat="54.5656354" lon="13.5142198"><name>Ruschvitz</name><desc>bench=no
bin=no
bus=yes
departures_board=yes
highway=bus_stop
lit=no
name=Ruschvitz
network=Verkehrsgesellschaft Vorpommern-Rügen
network:guid=DE-MV-VVR
network:short=VVR
network:wikidata=Q23787863
operator=Verkehrsgesellschaft Vorpommern-Rügen
public_transport=platform
shelter=no
tactile_paving=no
toilets:wheelchair=no
wheelchair=limited
id=node/283689787</desc></wpt><wpt lat="54.5658487" lon="13.5143474"><name>Ruschvitz</name><desc>bench=yes
bin=no
bus=yes
departures_board=yes
highway=bus_stop
lit=no
name=Ruschvitz
network=Verkehrsgesellschaft Vorpommern-Rügen
network:guid=DE-MV-VVR
network:short=VVR
network:wikidata=Q23787863
operator=Verkehrsgesellschaft Vorpommern-Rügen
public_transport=platform
shelter=yes
tactile_paving=no
toilets:wheelchair=no
wheelchair=limited
id=node/283689788</desc></wpt><wpt lat="54.5664753" lon="13.5146634"><name>Ruschvitz</name><desc>bench=no
bin=no
bus=yes
departures_board=yes
highway=bus_stop
lit=no
name=Ruschvitz
network=Verkehrsgesellschaft Vorpommern-Rügen
network:guid=DE-MV-VVR
network:short=VVR
network:wikidata=Q23787863
operator=Verkehrsgesellschaft Vorpommern-Rügen
public_transport=platform
shelter=yes
tactile_paving=no
id=node/283689789</desc></wpt><wpt lat="54.5664099" lon="13.5146732"><name>Ruschvitz</name><desc>bench=no
bin=no
bus=yes
departures_board=yes
highway=bus_stop
lit=no
name=Ruschvitz
network=Verkehrsgesellschaft Vorpommern-Rügen
network:guid=DE-MV-VVR
network:short=VVR
network:wikidata=Q23787863
operator=Verkehrsgesellschaft Vorpommern-Rügen
public_transport=platform
shelter=no
tactile_paving=no
id=node/283689790</desc></wpt><wpt lat="54.5582298" lon="13.5207396"><name>Spyker</name><desc>bench=no
bin=no
bus=yes
departures_board=yes
highway=bus_stop
lit=no
name=Spyker
operator=Verkehrsgesellschaft Vorpommern-Rügen mbH (VVR)
public_transport=platform
shelter=no
tactile_paving=no
toilets:wheelchair=no
wheelchair=no
id=node/283690164</desc></wpt><wpt lat="54.5582252" lon="13.5209534"><name>Spyker</name><desc>bench=yes
bin=no
bus=yes
departures_board=yes
highway=bus_stop
lit=no
name=Spyker
operator=Verkehrsgesellschaft Vorpommern-Rügen mbH (VVR)
public_transport=platform
shelter=yes
tactile_paving=no
toilets:wheelchair=no
wheelchair=no
id=node/283690166</desc></wpt><wpt lat="54.5544346" lon="13.5244528"><name>Bobbin</name><desc>bench=yes
bin=yes
bus=yes
departures_board=yes
highway=bus_stop
lit=yes
name=Bobbin
operator=Verkehrsgesellschaft Vorpommern-Rügen mbH (VVR)
public_transport=platform
shelter=yes
tactile_paving=no
toilets:wheelchair=no
wheelchair=no
id=node/283691061</desc></wpt><wpt lat="54.5534775" lon="13.5247858"><name>Bobbin</name><desc>bench=yes
bin=no
bus=yes
departures_board=yes
highway=bus_stop
lit=yes
name=Bobbin
operator=Verkehrsgesellschaft Vorpommern-Rügen mbH (VVR)
public_transport=platform
shelter=no
tactile_paving=no
wheelchair=no
id=node/283691062</desc></wpt><wpt lat="54.5483596" lon="13.5290434"><name>Polchow, Abzweig</name><desc>bench=yes
bin=no
bus=yes
departures_board=yes
highway=bus_stop
lit=no
name=Polchow, Abzweig
network=Verkehrsgesellschaft Vorpommern-Rügen
network:guid=DE-MV-VVR
network:short=VVR
network:wikidata=Q23787863
operator=Verkehrsgesellschaft Vorpommern-Rügen
public_transport=platform
route_ref=13
shelter=yes
tactile_paving=no
toilets:wheelchair=no
wheelchair=limited
id=node/283837641</desc></wpt><wpt lat="54.5475996" lon="13.5307167"><name>Polchow, Abzweig</name><desc>bench=no
bin=no
bus=yes
departures_board=yes
highway=bus_stop
lit=no
name=Polchow, Abzweig
network=Verkehrsgesellschaft Vorpommern-Rügen
network:guid=DE-MV-VVR
network:short=VVR
network:wikidata=Q23787863
operator=Verkehrsgesellschaft Vorpommern-Rügen
public_transport=platform
shelter=yes
tactile_paving=no
toilets:wheelchair=no
wheelchair=limited
id=node/283837644</desc></wpt><wpt lat="53.6635712" lon="11.4984061"><name>Leezen Schule</name><desc>bus=yes
highway=bus_stop
name=Leezen Schule
public_transport=stop_position
wheelchair=no
id=node/284973242</desc></wpt><wpt lat="53.9894585" lon="12.103193"><name>Huckstorf Haus 3</name><desc>bus=yes
highway=bus_stop
name=Huckstorf Haus 3
public_transport=stop_position
ref=de:13072:3024
id=node/285370410</desc></wpt><wpt lat="54.5510372" lon="13.5474944"><name>Polkvitz</name><desc>bench=no
bin=no
bus=yes
departures_board=yes
highway=bus_stop
name=Polkvitz
operator=Verkehrsgesellschaft Vorpommern-Rügen mbH (VVR)
public_transport=platform
shelter=no
tactile_paving=no
toilets:wheelchair=no
wheelchair=limited
id=node/285601684</desc></wpt><wpt lat="54.5509634" lon="13.547637"><name>Polkvitz</name><desc>bench=no
bin=no
bus=yes
departures_board=yes
highway=bus_stop
name=Polkvitz
operator=Verkehrsgesellschaft Vorpommern-Rügen mbH (VVR)
public_transport=platform
shelter=no
tactile_paving=no
toilets:wheelchair=no
wheelchair=limited
id=node/285601686</desc></wpt><wpt lat="54.0655554" lon="12.0700313"><name>Rostock, Satower Straße</name><desc>bus=yes
highway=bus_stop
name=Rostock, Satower Straße
network=Verkehrsverbund Warnow
network:short=VVW
network:wikidata=Q2516492
network:wikipedia=de:Verkehrsverbund Warnow
operator=Rebus
public_transport=stop_position
ref=de:13003:1778
wheelchair=no
id=node/286029469</desc></wpt><wpt lat="54.5247993" lon="13.5543807"><name>Sagard, Mitte</name><desc>bus=yes
departures_board=yes
highway=bus_stop
name=Sagard, Mitte
network=Verkehrsgesellschaft Vorpommern-Rügen
network:guid=DE-MV-VVR
network:short=VVR
network:wikidata=Q23787863
operator=Verkehrsgesellschaft Vorpommern-Rügen
public_transport=platform
shelter=no
tactile_paving=no
id=node/286029757</desc></wpt><wpt lat="54.5246086" lon="13.5537702"><name>Sagard, Mitte</name><desc>bus=yes
departures_board=yes
highway=bus_stop
name=Sagard, Mitte
network=Verkehrsgesellschaft Vorpommern-Rügen
network:guid=DE-MV-VVR
network:short=VVR
network:wikidata=Q23787863
operator=Verkehrsgesellschaft Vorpommern-Rügen
public_transport=platform
shelter=yes
id=node/286029758</desc></wpt><wpt lat="53.6319782" lon="11.4067418"><name>Stadthaus</name><desc>bus=yes
highway=bus_stop
name=Stadthaus
public_transport=stop_position
railway=tram_stop
tram=yes
wheelchair=yes
id=node/286846507</desc></wpt><wpt lat="53.6293774" lon="11.4037379"><name>Wittenburger Straße</name><desc>bus=yes
highway=bus_stop
name=Wittenburger Straße
public_transport=stop_position
railway=tram_stop
tram=yes
wheelchair=yes
id=node/286846508</desc></wpt><wpt lat="54.0849433" lon="12.125973"><name>node/286871889</name><desc>highway=bus_stop
lit=yes
public_transport=platform
tactile_paving=yes
wheelchair=limited
id=node/286871889</desc></wpt><wpt lat="54.1467651" lon="11.7271085"><name>Kühlungsborn, Bhf West</name><desc>bench=yes
bin=yes
bus=yes
departures_board=yes
highway=bus_stop
lit=no
name=Kühlungsborn, Bhf West
public_transport=platform
ref=de:13072:487
shelter=no
tactile_paving=yes
wheelchair=yes
id=node/286876536</desc></wpt><wpt lat="54.1247218" lon="11.6994517"><name>Bastorf</name><desc>bus=yes
highway=bus_stop
name=Bastorf
public_transport=platform
ref=de:13072:65
id=node/286876537</desc></wpt><wpt lat="54.3300477" lon="13.0681404"><name>Heinrich-Heine-Ring</name><desc>bench=yes
bin=yes
bus=yes
highway=bus_stop
lit=yes
name=Heinrich-Heine-Ring
network=Verkehrsgesellschaft Vorpommern-Rügen
network:guid=DE-MV-VVR
network:short=VVR
network:wikidata=Q23787863
operator=Verkehrsgesellschaft Vorpommern-Rügen
public_transport=platform
shelter=no
tactile_paving=no
wheelchair=yes
id=node/286985499</desc></wpt><wpt lat="54.3241373" lon="13.0565234"><name>Stralsund Ventspilsplatz</name><desc>bench=yes
bin=separate
bus=yes
departures_board=realtime
highway=bus_stop
lit=yes
name=Stralsund Ventspilsplatz
network=Verkehrsgesellschaft Vorpommern-Rügen
network:guid=DE-MV-VVR
network:short=VVR
network:wikidata=Q23787863
operator=Verkehrsgesellschaft Vorpommern-Rügen
public_transport=platform
route_ref=3;4;6;60
shelter=yes
tactile_paving=no
wheelchair=yes
id=node/286985500</desc></wpt><wpt lat="54.3261672" lon="13.0570709"><name>Stralsund Hans-Fallada-Straße</name><desc>bench=yes
bin=yes
bus=yes
departures_board=timetable
highway=bus_stop
lit=yes
name=Stralsund Hans-Fallada-Straße
network=Verkehrsgesellschaft Vorpommern-Rügen
network:guid=DE-MV-VVR
network:short=VVR
network:wikidata=Q23787863
operator=Verkehrsgesellschaft Vorpommern-Rügen
public_transport=platform
route_ref=3;4;6;60
shelter=yes
tactile_paving=no
wheelchair=yes
id=node/286985501</desc></wpt><wpt lat="54.3260149" lon="13.0652589"><name>Lion-Feuchtwanger-Straße</name><desc>bench=yes
bin=yes
bus=yes
highway=bus_stop
lit=yes
name=Lion-Feuchtwanger-Straße
network=Verkehrsgesellschaft Vorpommern-Rügen
network:guid=DE-MV-VVR
network:short=VVR
network:wikidata=Q23787863
operator=VVR
public_transport=platform
shelter=yes
tactile_paving=no
wheelchair=limited
id=node/286985503</desc></wpt><wpt lat="54.3246795" lon="13.0773609"><name>Kleine Parower Straße</name><desc>bench=yes
bin=yes
bus=yes
highway=bus_stop
lit=yes
name=Kleine Parower Straße
network=Verkehrsgesellschaft Vorpommern-Rügen
network:guid=DE-MV-VVR
network:short=VVR
network:wikidata=Q23787863
operator=Verkehrsgesellschaft Vorpommern-Rügen
public_transport=platform
route_ref=1;3;60;304;305
shelter=yes
tactile_paving=no
wheelchair=yes
id=node/286985504</desc></wpt><wpt lat="54.3281745" lon="13.0636759"><name>Heinrich-von-Stephan-Straße</name><desc>bench=yes
bin=yes
bus=yes
highway=bus_stop
lit=yes
name=Heinrich-von-Stephan-Straße
network=Verkehrsgesellschaft Vorpommern-Rügen
network:guid=DE-MV-VVR
network:short=VVR
network:wikidata=Q23787863
operator=Verkehrsgesellschaft Vorpommern-Rügen
public_transport=platform
route_ref=3;4;6;60
shelter=yes
tactile_paving=no
wheelchair=yes
id=node/286985505</desc></wpt><wpt lat="54.3263063" lon="13.0812275"><name>Ernst-Moritz-Arndt-Straße</name><desc>bench=yes
bin=yes
bus=yes
highway=bus_stop
lit=yes
name=Ernst-Moritz-Arndt-Straße
network=Verkehrsgesellschaft Vorpommern-Rügen
network:guid=DE-MV-VVR
network:short=VVR
network:wikidata=Q23787863
operator=Verkehrsgesellschaft Vorpommern-Rügen
public_transport=platform
route_ref=4
shelter=yes
tactile_paving=yes
wheelchair=yes
id=node/286985506</desc></wpt><wpt lat="54.3134837" lon="13.0796347"><name>Wolfgang-Heinze-Straße</name><desc>bench=yes
bin=yes
bus=yes
highway=bus_stop
lit=yes
name=Wolfgang-Heinze-Straße
network=Verkehrsgesellschaft Vorpommern-Rügen
network:guid=DE-MV-VVR
network:short=VVR
network:wikidata=Q23787863
operator=Verkehrsgesellschaft Vorpommern-Rügen
public_transport=platform
route_ref=1;3;6;60;304;305
shelter=yes
tactile_paving=no
id=node/287044648</desc></wpt><wpt lat="53.2186688" lon="13.038294"><name>Priepert</name><desc>bench=yes
bus=yes
departures_board=timetable
highway=bus_stop
name=Priepert
network=MVVG
operator=MVVG
public_transport=platform
shelter=no
id=node/288177374</desc></wpt><wpt lat="54.5209373" lon="13.2018161"><name>Neuholstein</name><desc>bus=yes
departures_board=timetable
highway=bus_stop
name=Neuholstein
operator=Verkehrsgesellschaft Vorpommern-Rügen mbH (VVR)
public_transport=platform
shelter=yes
tactile_paving=yes
id=node/288804323</desc></wpt><wpt lat="54.4999606" lon="13.363452"><name>Bubkevitz</name><desc>bench=no
bin=no
bus=yes
departures_board=timetable
highway=bus_stop
lit=yes
name=Bubkevitz
operator=Verkehrsgesellschaft Vorpommern-Rügen mbH (VVR)
public_transport=platform
shelter=no
tactile_paving=no
id=node/288810462</desc></wpt><wpt lat="54.5145928" lon="13.2686455"><name>Ganschvitz Hof</name><desc>bench=no
bin=no
bus=yes
departures_board=timetable
highway=bus_stop
lit=no
name=Ganschvitz Hof
operator=Verkehrsgesellschaft Vorpommern-Rügen mbH (VVR)
public_transport=platform
shelter=yes
tactile_paving=no
id=node/288816867</desc></wpt><wpt lat="54.2064994" lon="12.4585106"><name>Kuhlrade, Wald</name><desc>bus=yes
highway=bus_stop
name=Kuhlrade, Wald
network=Verkehrsgesellschaft Vorpommern-Rügen
network:guid=DE-MV-VVR
network:short=VVR
network:wikidata=Q23787863
operator=Verkehrsgesellschaft Vorpommern-Rügen
public_transport=platform
id=node/289133874</desc></wpt><wpt lat="54.3098028" lon="12.9251327"><name>Niepars, Zentrum</name><desc>bus=yes
departures_board=timetable
highway=bus_stop
name=Niepars, Zentrum
operator=VVR Verkehrsgesellschaft Vorpommern-Rügen mbH
public_transport=platform
shelter=yes
id=node/289672475</desc></wpt><wpt lat="54.5368665" lon="13.3266379"><name>Reetz</name><desc>bus=yes
departures_board=timetable
highway=bus_stop
name=Reetz
public_transport=platform
id=node/289736248</desc></wpt><wpt lat="54.5203253" lon="13.3130253"><name>Neuendorf, Hof</name><desc>bus=yes
departures_board=timetable
highway=bus_stop
name=Neuendorf, Hof
network=Verkehrsgesellschaft Vorpommern-Rügen
network:guid=DE-MV-VVR
network:short=VVR
network:wikidata=Q23787863
operator=Verkehrsgesellschaft Vorpommern-Rügen
public_transport=platform
id=node/289736266</desc></wpt><wpt lat="54.290586" lon="12.3352588"><name>Dierhagen, Strand</name><desc>bench=no
bin=no
bus=yes
highway=bus_stop
lit=no
name=Dierhagen, Strand
network=Flixbus
network:wikidata=Q15712258
network:wikipedia=en:Flixbus
operator=Flixbus
public_transport=platform
shelter=no
tactile_paving=no
id=node/290213735</desc></wpt><wpt lat="54.2492182" lon="12.2438968"><name>Graal Müritz, Ostseering</name><desc>bench=yes
bin=yes
bus=yes
highway=bus_stop
lit=yes
name=Graal Müritz, Ostseering
public_transport=platform
ref=de:13072:250
shelter=yes
tactile_paving=yes
id=node/290592355</desc></wpt><wpt lat="54.2820372" lon="12.3149336"><name>Neuhaus</name><desc>bench=yes
bin=yes
bus=yes
highway=bus_stop
lit=yes
name=Neuhaus
passenger_information_display=timetable
public_transport=platform
shelter=yes
tactile_paving=yes
wheelchair=yes
id=node/291328747</desc></wpt><wpt lat="54.0506173" lon="12.2640429"><name>Godow</name><desc>bus=yes
highway=bus_stop
name=Godow
public_transport=stop_position
ref=de:13072:234
id=node/291428391</desc></wpt><wpt lat="54.0573285" lon="12.2833347"><name>Godow, Abzweig</name><desc>bus=yes
highway=bus_stop
name=Godow, Abzweig
public_transport=stop_position
ref=de:13072:235
id=node/291429747</desc></wpt><wpt lat="53.8441107" lon="12.4013309"><name>Lüningsdorf</name><desc>bus=yes
highway=bus_stop
name=Lüningsdorf
network=Verkehrsverbund Warnow
network:short=VVW
network:wikidata=Q2516492
operator=Rebus
public_transport=stop_position
ref=de:13072:534
id=node/291589515</desc></wpt><wpt lat="53.8561215" lon="12.3915049"><name>Drölitz</name><desc>bus=yes
highway=bus_stop
name=Drölitz
network=Verkehrsverbund Warnow
network:short=VVW
network:wikidata=Q2516492
operator=Rebus
public_transport=stop_position
ref=de:13072:186
id=node/291589550</desc></wpt><wpt lat="54.1921231" lon="12.4847816"><name>Rookhorst, Försterei II</name><desc>bus=yes
highway=bus_stop
name=Rookhorst, Försterei II
network=Verkehrsgesellschaft Vorpommern-Rügen
network:guid=DE-MV-VVR
network:short=VVR
network:wikidata=Q23787863
operator=Verkehrsgesellschaft Vorpommern-Rügen
public_transport=platform
id=node/291627155</desc></wpt><wpt lat="53.837853" lon="12.5874461"><name>Levitzow, Gaststätte</name><desc>bus=yes
highway=bus_stop
name=Levitzow, Gaststätte
network=Verkehrsverbund Warnow
network:short=VVW
network:wikidata=Q2516492
operator=Rebus
public_transport=stop_position
ref=de:13072:1250
id=node/292025635</desc></wpt><wpt lat="53.6110575" lon="12.4269868"><name>Hohen Wangelin</name><desc>bench=yes
bus=yes
departures_board=timetable
highway=bus_stop
name=Hohen Wangelin
network=MVVG
operator=MVVG
public_transport=platform
shelter=yes
id=node/292129206</desc></wpt><wpt lat="54.0655806" lon="12.2077742"><name>Kösterbeck, Im Grund</name><desc>bus=yes
highway=bus_stop
name=Kösterbeck, Im Grund
public_transport=stop_position
id=node/292394138</desc></wpt><wpt lat="54.260148" lon="12.2669058"><name>Graal Müritz, Ost</name><desc>bus=yes
highway=bus_stop
name=Graal Müritz, Ost
public_transport=stop_position
ref=de:13072:249
id=node/293652789</desc></wpt><wpt lat="54.4034727" lon="12.4698445"><name>Born, Drei Eichen</name><desc>bench=yes
bin=no
bus=yes
highway=bus_stop
lit=no
name=Born, Drei Eichen
public_transport=platform
shelter=no
tactile_paving=no
id=node/293847980</desc></wpt><wpt lat="54.0293822" lon="12.4690408"><name>Tessin, Kirche</name><desc>bus=yes
highway=bus_stop
name=Tessin, Kirche
public_transport=platform
ref=de:13072:1055
shelter=yes
id=node/294149085</desc></wpt><wpt lat="54.0321013" lon="12.4479387"><name>Klein Tessin</name><desc>bench=yes
bin=yes
bus=yes
highway=bus_stop
name=Klein Tessin
public_transport=platform
ref=de:13072:442
shelter=yes
id=node/294241332</desc></wpt><wpt lat="54.0322937" lon="12.4471057"><name>Klein Tessin</name><desc>bench=yes
bin=yes
bus=yes
highway=bus_stop
name=Klein Tessin
public_transport=platform
ref=de:13072:442
shelter=yes
id=node/294241334</desc></wpt><wpt lat="54.0295028" lon="12.4693068"><name>Tessin, Kirche</name><desc>bus=yes
highway=bus_stop
name=Tessin, Kirche
public_transport=platform
ref=de:13072:1055
id=node/294241432</desc></wpt><wpt lat="54.0236047" lon="12.4498403"><name>Tessin, Friedhof</name><desc>bench=yes
bin=yes
bus=yes
highway=bus_stop
name=Tessin, Friedhof
public_transport=platform
ref=de:13072:1053
shelter=yes
id=node/294241433</desc></wpt><wpt lat="54.0182933" lon="12.425376"><name>Weitendorf</name><desc>bus=yes
highway=bus_stop
name=Weitendorf
public_transport=platform
ref=de:13072:1100
id=node/294241451</desc></wpt><wpt lat="54.0387291" lon="12.421976"><name>Helmstorf, Abzweig</name><desc>bench=no
bin=no
bus=yes
highway=bus_stop
lit=no
name=Helmstorf, Abzweig
public_transport=platform
ref=de:13072:363
shelter=no
tactile_paving=no
id=node/294279571</desc></wpt><wpt lat="54.0384909" lon="12.4225588"><name>Helmstorf, Abzweig</name><desc>bench=no
bin=no
bus=yes
highway=bus_stop
lit=no
name=Helmstorf, Abzweig
note=Linie 114
public_transport=platform
ref=de:13072:363
shelter=no
tactile_paving=no
id=node/294279575</desc></wpt><wpt lat="54.0451595" lon="12.4036626"><name>Horst, Bahnhof</name><desc>bench=yes
bin=yes
bus=yes
highway=bus_stop
lit=yes
name=Horst, Bahnhof
public_transport=platform
ref=de:13072:1476
shelter=yes
tactile_paving=no
id=node/294279597</desc></wpt><wpt lat="54.0621709" lon="12.3951401"><name>Teutendorf Abzweig</name><desc>bench=yes
bin=yes
bus=yes
highway=bus_stop
lit=no
name=Teutendorf Abzweig
note=Linie 114a
public_transport=platform
ref=de:13072:3050
shelter=yes
tactile_paving=no
id=node/294279601</desc></wpt><wpt lat="54.0561633" lon="12.3979823"><name>Klein Wehnendorf, Abzweig</name><desc>bench=yes
bin=yes
bus=yes
highway=bus_stop
lit=no
name=Klein Wehnendorf, Abzweig
note=Linie 114a
public_transport=platform
ref=de:13072:3026
shelter=yes
tactile_paving=no
id=node/294279604</desc></wpt><wpt lat="54.0724167" lon="12.3899906"><name>Alt Sanitz</name><desc>bench=yes
bin=yes
bus=yes
highway=bus_stop
lit=yes
name=Alt Sanitz
public_transport=platform
ref=de:13072:964
shelter=yes
tactile_paving=no
wheelchair=no
id=node/294279606</desc></wpt><wpt lat="54.077442" lon="12.3820695"><name>Sanitz, Rathaus</name><desc>bench=no
bin=yes
bus=yes
highway=bus_stop
name=Sanitz, Rathaus
public_transport=platform
ref=de:13072:3043
shelter=yes
wheelchair=no
id=node/294279609</desc></wpt><wpt lat="54.0735046" lon="12.3744918"><name>Sanitz, Realschule</name><desc>bench=yes
bin=yes
bus=yes
highway=bus_stop
lit=yes
name=Sanitz, Realschule
public_transport=platform
ref=de:13072:2310
shelter=yes
tactile_paving=no
id=node/294279612</desc></wpt><wpt lat="54.0453021" lon="12.3646479"><name>Niekrenz, Richtung Vietow</name><desc>bench=yes
bin=yes
bus=yes
highway=bus_stop
lit=no
name=Niekrenz, Richtung Vietow
public_transport=platform
ref=de:13072:2308
shelter=yes
tactile_paving=no
id=node/294279617</desc></wpt><wpt lat="54.0415185" lon="12.3860406"><name>Vietow</name><desc>bench=yes
bus=yes
highway=bus_stop
name=Vietow
public_transport=platform
ref=de:13072:1077
shelter=yes
id=node/294279621</desc></wpt><wpt lat="54.0775321" lon="12.3410339"><name>Groß Lüsewitz, Abzweig</name><desc>bench=yes
bin=yes
bus=yes
highway=bus_stop
lit=no
name=Groß Lüsewitz, Abzweig
public_transport=platform
ref=de:13072:1487
shelter=yes
tactile_paving=no
wheelchair=limited
id=node/294279629</desc></wpt><wpt lat="54.0776639" lon="12.3404634"><name>Groß Lüsewitz, Abzweig</name><desc>bench=yes
bin=no
bus=yes
highway=bus_stop
lit=no
name=Groß Lüsewitz, Abzweig
public_transport=platform
ref=de:13072:1487
shelter=yes
tactile_paving=no
wheelchair=no
id=node/294279632</desc></wpt><wpt lat="54.0130933" lon="12.3955849"><name>Prangendorf</name><desc>bus=yes
highway=bus_stop
name=Prangendorf
public_transport=platform
ref=de:13072:666
shelter=no
tactile_paving=no
id=node/294677304</desc></wpt><wpt lat="54.0132147" lon="12.3949479"><name>Prangendorf</name><desc>bus=yes
highway=bus_stop
name=Prangendorf
public_transport=stop_position
ref=de:13072:666
shelter=yes
id=node/294677316</desc></wpt><wpt lat="54.0211352" lon="12.3687973"><name>Hohen Gubkow</name><desc>bus=yes
highway=bus_stop
name=Hohen Gubkow
public_transport=platform
ref=de:13072:367
id=node/294677319</desc></wpt><wpt lat="54.0296701" lon="12.3028148"><name>Göldenitz, Abzweig</name><desc>bench=yes
bus=yes
highway=bus_stop
name=Göldenitz, Abzweig
public_transport=platform
ref=de:13072:243
shelter=yes
id=node/294677341</desc></wpt><wpt lat="54.0377148" lon="12.2913713"><name>Petschow</name><desc>bus=yes
highway=bus_stop
name=Petschow
public_transport=platform
ref=de:13072:656
id=node/294677357</desc></wpt><wpt lat="54.0029436" lon="12.3906071"><name>Deperstorf, Abzweig</name><desc>bus=yes
highway=bus_stop
name=Deperstorf, Abzweig
public_transport=platform
ref=de:13072:167
id=node/294878694</desc></wpt><wpt lat="53.996576" lon="12.3784667"><name>Eickhof, Abzweig</name><desc>bus=yes
highway=bus_stop
name=Eickhof, Abzweig
public_transport=platform
ref=de:13072:200
id=node/294878699</desc></wpt><wpt lat="53.9897663" lon="12.3571249"><name>Cammin</name><desc>bus=yes
highway=bus_stop
name=Cammin
public_transport=platform
ref=de:13072:150
id=node/294878703</desc></wpt><wpt lat="53.97729" lon="12.3017602"><name>Kossow</name><desc>bus=yes
highway=bus_stop
name=Kossow
network=Verkehrsverbund Warnow
network:short=VVW
network:wikidata=Q2516492
operator=Rebus
public_transport=stop_position
ref=de:13072:459
id=node/294878705</desc></wpt><wpt lat="54.0783917" lon="12.2986576"><name>Schule an der Carbäk</name><desc>bus=yes
highway=bus_stop
name=Schule an der Carbäk
public_transport=platform
ref=de:13072:990
id=node/294878734</desc></wpt><wpt lat="54.0783658" lon="12.2977267"><name>Schule an der Carbäk</name><desc>bench=yes
bin=no
bus=yes
highway=bus_stop
name=Schule an der Carbäk
public_transport=platform
ref=de:13072:990
shelter=yes
tactile_paving=no
id=node/294878736</desc></wpt><wpt lat="54.0786391" lon="12.2854843"><name>Hohenfelde bei Rostock</name><desc>bench=yes
bin=yes
bus=yes
highway=bus_stop
lit=no
name=Hohenfelde bei Rostock
public_transport=platform
ref=de:13072:377
shelter=yes
tactile_paving=no
id=node/294886775</desc></wpt><wpt lat="54.0788175" lon="12.2834698"><name>Hohenfelde bei Rostock</name><desc>bench=no
bin=no
bus=yes
highway=bus_stop
lit=no
name=Hohenfelde bei Rostock
public_transport=platform
ref=de:13072:377
shelter=no
tactile_paving=no
id=node/294886778</desc></wpt><wpt lat="54.0790445" lon="12.2630052"><name>Broderstorf, Bahnhof</name><desc>bus=yes
highway=bus_stop
name=Broderstorf, Bahnhof
public_transport=stop_position
ref=de:13072:108
id=node/294886782</desc></wpt><wpt lat="54.0792308" lon="12.2635331"><name>Broderstorf, Bahnhof</name><desc>bus=yes
highway=bus_stop
name=Broderstorf, Bahnhof
public_transport=stop_position
ref=de:13072:108
id=node/294886784</desc></wpt><wpt lat="54.0798062" lon="12.2400354"><name>Neu Pastow</name><desc>bus=yes
highway=bus_stop
name=Neu Pastow
public_transport=stop_position
ref=de:13072:588
id=node/294886788</desc></wpt><wpt lat="54.0808517" lon="12.2004386"><name>Neu Roggentin, B110</name><desc>bench=yes
bin=yes
bus=yes
highway=bus_stop
name=Neu Roggentin, B110
network=Verkehrsverbund Warnow
network:short=VVW
network:wikidata=Q2516492
operator=rebus Regionalbus Rostock GmbH
public_transport=platform
ref=de:13072:3031
shelter=yes
id=node/294942403</desc></wpt><wpt lat="54.0870546" lon="12.2223528"><name>Pastow, Schmiedestraße</name><desc>bus=yes
highway=bus_stop
name=Pastow, Schmiedestraße
public_transport=platform
ref=de:13072:649
id=node/294942404</desc></wpt><wpt lat="54.0434811" lon="12.1936113"><name>Hohen Schwarfs</name><desc>bench=yes
bin=yes
bus=yes
highway=bus_stop
lit=no
name=Hohen Schwarfs
public_transport=platform
ref=de:13072:372
shelter=yes
tactile_paving=no
id=node/294942408</desc></wpt><wpt lat="54.0795106" lon="12.1596498"><name>Rostock, Neubrandenburger Straße</name><desc>bus=yes
highway=bus_stop
lit=yes
name=Rostock, Neubrandenburger Straße
public_transport=platform
ref=de:13003:841
id=node/294942436</desc></wpt><wpt lat="53.6838688" lon="12.360682"><name>Kuchelmiß</name><desc>bus=yes
highway=bus_stop
name=Kuchelmiß
network=Verkehrsverbund Warnow
network:short=VVW
network:wikidata=Q2516492
operator=Rebus
public_transport=stop_position
ref=de:13072:485
shelter=yes
id=node/295438748</desc></wpt><wpt lat="54.3133778" lon="13.0858214"><name>Kütertor</name><desc>bench=yes
bin=yes
bus=yes
highway=bus_stop
lit=yes
name=Kütertor
network=Verkehrsgesellschaft Vorpommern-Rügen
network:guid=DE-MV-VVR
network:short=VVR
network:wikidata=Q23787863
network:wikipedia=de:Verkehrsgesellschaft Vorpommern-Rügen
operator=Verkehrsgesellschaft Vorpommern-Rügen
public_transport=platform
route_ref=1;4;60
shelter=yes
tactile_paving=yes
wheelchair=yes
id=node/295886674</desc></wpt><wpt lat="54.3100852" lon="13.0841949"><name>Knieperwall</name><desc>bench=yes
bin=yes
bus=yes
highway=bus_stop
lit=yes
name=Knieperwall
network=Verkehrsgesellschaft Vorpommern-Rügen
network:guid=DE-MV-VVR
network:short=VVR
network:wikidata=Q23787863
network:wikipedia=de:Verkehrsgesellschaft Vorpommern-Rügen
operator=Verkehrsgesellschaft Vorpommern-Rügen
public_transport=platform
route_ref=1;4;60
shelter=yes
tactile_paving=yes
wheelchair=yes
id=node/295887612</desc></wpt><wpt lat="54.0610736" lon="12.0238648"><name>Wilsen</name><desc>bus=yes
highway=bus_stop
name=Wilsen
public_transport=platform
ref=de:13072:1121
id=node/296329096</desc></wpt><wpt lat="54.3986652" lon="12.9738209"><name>Hohendorf, Wendeplatz</name><desc>bench=yes
bin=yes
bus=yes
highway=bus_stop
lit=yes
name=Hohendorf, Wendeplatz
public_transport=platform
shelter=yes
tactile_paving=no
id=node/296590906</desc></wpt><wpt lat="54.0566373" lon="11.9706398"><name>Hastorf, Dorf</name><desc>bus=yes
highway=bus_stop
name=Hastorf, Dorf
public_transport=stop_position
ref=de:13072:358
id=node/297196654</desc></wpt><wpt lat="54.0401928" lon="11.9852091"><name>Bliesekow</name><desc>bus=yes
disused=yes
highway=bus_stop
name=Bliesekow
public_transport=platform
ref=de:13072:88
id=node/297419560</desc></wpt><wpt lat="53.7756875" lon="12.5628189"><name>Teterow, Gymnasium</name><desc>bus=yes
highway=bus_stop
name=Teterow, Gymnasium
public_transport=stop_position
ref=de:13072:1062
shelter=yes
id=node/297759652</desc></wpt><wpt lat="54.0945915" lon="11.9669846"><name>Bartenshagen, Stützpunkt</name><desc>bus=yes
highway=bus_stop
name=Bartenshagen, Stützpunkt
network=Verkehrsverbund Warnow
network:short=VVW
network:wikidata=Q2516492
operator=Rebus
public_transport=stop_position
ref=de:13072:64
id=node/297860026</desc></wpt><wpt lat="53.2876379" lon="14.1976357"><name>Sommersdorf Ausbau</name><desc>bus=yes
highway=bus_stop
name=Sommersdorf Ausbau
public_transport=stop_position
id=node/298417150</desc></wpt><wpt lat="53.5319925" lon="11.8384375"><name>Kossebade</name><desc>bus=yes
highway=bus_stop
name=Kossebade
public_transport=stop_position
id=node/301149844</desc></wpt><wpt lat="53.4679056" lon="13.973801"><name>Rollwitz Ausbau</name><desc>bench=yes
bin=yes
bus=yes
departures_board=timetable
highway=bus_stop
lit=yes
name=Rollwitz Ausbau
public_transport=platform
shelter=yes
id=node/302299658</desc></wpt><wpt lat="53.4713094" lon="13.9769055"><name>Rollwitz</name><desc>highway=bus_stop
name=Rollwitz
public_transport=platform
id=node/302299659</desc></wpt><wpt lat="53.4902031" lon="13.9829591"><name>node/302299660</name><desc>bus=yes
highway=bus_stop
operator=VVG
public_transport=platform
id=node/302299660</desc></wpt><wpt lat="53.5213751" lon="13.9770309"><name>Anklamer Straße</name><desc>bench=no
bin=yes
bus=yes
departures_board=timetable
highway=bus_stop
name=Anklamer Straße
public_transport=platform
shelter=yes
id=node/302299662</desc></wpt><wpt lat="53.5356527" lon="13.9734199"><name>Chausseehaus</name><desc>bench=no
bin=no
highway=bus_stop
name=Chausseehaus
public_transport=platform
shelter=no
tactile_paving=no
id=node/302299663</desc></wpt><wpt lat="53.5459322" lon="13.9690788"><name>Belling</name><desc>bench=yes
bin=yes
highway=bus_stop
name=Belling
public_transport=platform
shelter=yes
tactile_paving=no
id=node/302299664</desc></wpt><wpt lat="53.5639481" lon="13.96195"><name>Sandförde</name><desc>bench=yes
bin=yes
bus=yes
departures_board=timetable
highway=bus_stop
name=Sandförde
public_transport=platform
shelter=yes
id=node/302299666</desc></wpt><wpt lat="53.5695727" lon="13.9523898"><name>Alte Molkerei</name><desc>bench=no
bin=yes
bus=yes
departures_board=timetable
highway=bus_stop
name=Alte Molkerei
public_transport=platform
shelter=no
tactile_paving=no
id=node/302299667</desc></wpt><wpt lat="53.586482" lon="13.9379352"><name>F.-Nagel-Siedlung</name><desc>bench=yes
highway=bus_stop
name=F.-Nagel-Siedlung
public_transport=platform
shelter=yes
id=node/302299668</desc></wpt><wpt lat="53.596848" lon="13.9623028"><name>Hammer Fösterei</name><desc>highway=bus_stop
name=Hammer Fösterei
public_transport=platform
id=node/302299676</desc></wpt><wpt lat="53.5996643" lon="13.9774083"><name>Hammer</name><desc>highway=bus_stop
name=Hammer
public_transport=platform
shelter=yes
id=node/302299677</desc></wpt><wpt lat="53.9754659" lon="11.2383274"><name>Tarnewitz Dorf</name><desc>bench=yes
bin=yes
bus=yes
highway=bus_stop
name=Tarnewitz Dorf
public_transport=platform
shelter=yes
tactile_paving=yes
id=node/302304159</desc></wpt><wpt lat="53.9755506" lon="11.2514529"><name>Tarnewitz, Weisse Wiek</name><desc>bench=yes
bin=yes
bus=yes
highway=bus_stop
lit=yes
name=Tarnewitz, Weisse Wiek
operator=Nahbus
public_transport=platform
shelter=yes
tactile_paving=yes
wheelchair=yes
id=node/302304272</desc></wpt><wpt lat="53.7382187" lon="14.0721611"><name>Haff-Grundschule</name><desc>bench=yes
bin=yes
highway=bus_stop
lit=no
name=Haff-Grundschule
public_transport=platform
shelter=no
tactile_paving=no
id=node/303046597</desc></wpt><wpt lat="53.7349216" lon="14.064501"><name>Ärztehaus</name><desc>bin=yes
bus=yes
departures_board=timetable
highway=bus_stop
name=Ärztehaus
public_transport=platform
shelter=yes
tactile_paving=yes
id=node/303046599</desc></wpt><wpt lat="53.7262997" lon="14.0328011"><name>node/303046693</name><desc>bus=yes
highway=bus_stop
public_transport=platform
id=node/303046693</desc></wpt><wpt lat="53.7244517" lon="14.0313486"><name>Liepgarten Alte Mühle</name><desc>bus=yes
highway=bus_stop
name=Liepgarten Alte Mühle
public_transport=platform
shelter=yes
tactile_paving=no
id=node/303046694</desc></wpt><wpt lat="53.7202782" lon="14.0287157"><name>Liepgarten Mühlenfeldstraße</name><desc>highway=bus_stop
name=Liepgarten Mühlenfeldstraße
public_transport=platform
id=node/303046695</desc></wpt><wpt lat="53.7162372" lon="14.0280586"><name>Liepgarten Denkmal</name><desc>highway=bus_stop
name=Liepgarten Denkmal
public_transport=platform
id=node/303046698</desc></wpt><wpt lat="53.7118425" lon="14.0272017"><name>Liepgarten Feuerwehr</name><desc>highway=bus_stop
name=Liepgarten Feuerwehr
public_transport=platform
id=node/303046699</desc></wpt><wpt lat="53.7081494" lon="14.0221386"><name>Liepgarten LPG</name><desc>highway=bus_stop
name=Liepgarten LPG
public_transport=platform
id=node/303046700</desc></wpt><wpt lat="53.7045054" lon="14.0177328"><name>Liepgarten Friedhof</name><desc>highway=bus_stop
name=Liepgarten Friedhof
public_transport=platform
id=node/303046702</desc></wpt><wpt lat="53.7025503" lon="14.0154103"><name>Liepgarten Försterei</name><desc>highway=bus_stop
name=Liepgarten Försterei
public_transport=platform
id=node/303046704</desc></wpt><wpt lat="53.6968389" lon="14.0120661"><name>Liepgarten Waldfrieden</name><desc>highway=bus_stop
name=Liepgarten Waldfrieden
public_transport=platform
id=node/303046705</desc></wpt><wpt lat="53.6297397" lon="14.0109087"><name>Markt</name><desc>bench=yes
bus=yes
highway=bus_stop
name=Markt
public_transport=platform
shelter=yes
tactile_paving=no
id=node/303524620</desc></wpt><wpt lat="53.6265034" lon="13.994655"><name>Wilhelmstraße</name><desc>highway=bus_stop
name=Wilhelmstraße
public_transport=platform
id=node/303524625</desc></wpt><wpt lat="53.6214949" lon="13.991905"><name>Friedhof</name><desc>highway=bus_stop
name=Friedhof
public_transport=platform
id=node/303524628</desc></wpt><wpt lat="53.6032566" lon="13.9790194"><name>Hammer Friedhof</name><desc>highway=bus_stop
name=Hammer Friedhof
public_transport=platform
shelter=yes
id=node/303524629</desc></wpt><wpt lat="54.6132194" lon="13.3792493"><name>Breege/Aquamaris, Abzweig</name><desc>bench=yes
bin=yes
bus=yes
departures_board=timetable
highway=bus_stop
lit=no
name=Breege/Aquamaris, Abzweig
network=Verkehrsgesellschaft Vorpommern-Rügen
network:guid=DE-MV-VVR
network:short=VVR
network:wikidata=Q23787863
operator=Verkehrsgesellschaft Vorpommern-Rügen
public_transport=platform
shelter=yes
tactile_paving=no
toilets:wheelchair=no
wheelchair=limited
id=node/304323256</desc></wpt><wpt lat="54.6125269" lon="13.3797316"><name>Breege/Aquamaris, Abzweig</name><desc>bench=no
bin=yes
bus=yes
departures_board=timetable
highway=bus_stop
lit=no
name=Breege/Aquamaris, Abzweig
network=Verkehrsgesellschaft Vorpommern-Rügen
network:guid=DE-MV-VVR
network:short=VVR
network:wikidata=Q23787863
operator=Verkehrsgesellschaft Vorpommern-Rügen
public_transport=platform
shelter=no
tactile_paving=no
toilets:wheelchair=no
wheelchair=limited
id=node/304323261</desc></wpt><wpt lat="54.5693545" lon="13.4538596"><name>Glowe, Strand</name><desc>bench=yes
bin=yes
bus=yes
departures_board=timetable
highway=bus_stop
lit=no
name=Glowe, Strand
network=Verkehrsgesellschaft Vorpommern-Rügen
network:guid=DE-MV-VVR
network:short=VVR
network:wikidata=Q23787863
operator=Verkehrsgesellschaft Vorpommern-Rügen
public_transport=platform
shelter=no
tactile_paving=no
toilets:wheelchair=no
wheelchair=limited
id=node/304323264</desc></wpt><wpt lat="54.6301217" lon="13.2337645"><name>Dranske</name><desc>bench=yes
bin=yes
bus=yes
departures_board=timetable
highway=bus_stop
lit=yes
name=Dranske
operator=Verkehrsgesellschaft Vorpommern-Rügen mbH (VVR)
public_transport=platform
shelter=yes
tactile_paving=no
toilets:wheelchair=no
wheelchair=limited
id=node/304334317</desc></wpt><wpt lat="54.6436374" lon="13.2614057"><name>Dranske, Lancken</name><desc>bench=no
bin=no
bus=yes
departures_board=timetable
highway=bus_stop
lit=no
name=Dranske, Lancken
network=Verkehrsgesellschaft Vorpommern-Rügen
network:guid=DE-MV-VVR
network:short=VVR
network:wikidata=Q23787863
operator=Verkehrsgesellschaft Vorpommern-Rügen
public_transport=platform
shelter=no
tactile_paving=no
toilets:wheelchair=no
wheelchair=limited
id=node/304334322</desc></wpt><wpt lat="54.6701746" lon="13.3585947"><name>Schwarbe</name><desc>bench=yes
bin=yes
bus=yes
departures_board=timetable
highway=bus_stop
lit=yes
name=Schwarbe
network=Verkehrsgesellschaft Vorpommern-Rügen
network:guid=DE-MV-VVR
network:short=VVR
network:wikidata=Q23787863
operator=Verkehrsgesellschaft Vorpommern-Rügen
public_transport=platform
shelter=yes
tactile_paving=no
id=node/304334335</desc></wpt><wpt lat="54.6643857" lon="13.2823123"><name>Bakenberg</name><desc>bench=no
bin=no
bus=yes
departures_board=timetable
highway=bus_stop
lit=no
name=Bakenberg
network=Verkehrsgesellschaft Vorpommern-Rügen
network:guid=DE-MV-VVR
network:short=VVR
network:wikidata=Q23787863
operator=Verkehrsgesellschaft Vorpommern-Rügen
public_transport=platform
shelter=no
tactile_paving=no
id=node/304334348</desc></wpt><wpt lat="54.5698444" lon="13.4382934"><name>Schaabe Waldparkplatz 1</name><desc>bench=no
bin=no
bus=yes
departures_board=timetable
highway=bus_stop
lit=no
name=Schaabe Waldparkplatz 1
network=Verkehrsgesellschaft Vorpommern-Rügen
network:guid=DE-MV-VVR
network:short=VVR
network:wikidata=Q23787863
operator=Verkehrsgesellschaft Vorpommern-Rügen
public_transport=platform
shelter=no
tactile_paving=no
id=node/304481963</desc></wpt><wpt lat="54.1116095" lon="11.9002791"><name>Bad Doberan, Ärztehaus/Goethestraße</name><desc>bench=no
bin=no
bus=yes
departures_board=yes
highway=bus_stop
lit=limited
name=Bad Doberan, Ärztehaus/Goethestraße
public_transport=platform
shelter=no
tactile_paving=limited
id=node/304878602</desc></wpt><wpt lat="54.1765193" lon="12.2280217"><name>Forsthaus</name><desc>bus=yes
highway=bus_stop
name=Forsthaus
network=Verkehrsverbund Warnow
network:short=VVW
network:wikidata=Q2516492
operator=Rebus
public_transport=stop_position
ref=de:13072:946
id=node/305097753</desc></wpt><wpt lat="54.1322726" lon="11.6815876"><name>Kägsdorf</name><desc>bench=yes
bin=yes
bus=yes
highway=bus_stop
lit=yes
name=Kägsdorf
public_transport=platform
ref=de:13072:399
shelter=yes
tactile_paving=no
id=node/305165303</desc></wpt><wpt lat="54.116215" lon="11.6817065"><name>Mechelsdorf, Abzweig</name><desc>bench=yes
bin=yes
bus=yes
highway=bus_stop
lit=no
name=Mechelsdorf, Abzweig
public_transport=platform
ref=de:13072:552
shelter=yes
tactile_paving=no
id=node/305169313</desc></wpt><wpt lat="53.7370689" lon="14.0400723"><name>Chausseestraße</name><desc>bench=no
bin=no
bus=yes
highway=bus_stop
name=Chausseestraße
public_transport=platform
shelter=no
tactile_paving=no
id=node/305517948</desc></wpt><wpt lat="53.5972157" lon="13.9813594"><name>node/305528305</name><desc>highway=bus_stop
id=node/305528305</desc></wpt><wpt lat="53.5970567" lon="13.9814418"><name>Hammer Brücke</name><desc>highway=bus_stop
name=Hammer Brücke
public_transport=platform
id=node/305528307</desc></wpt><wpt lat="53.573881" lon="14.0138093"><name>Liepe</name><desc>highway=bus_stop
name=Liepe
public_transport=platform
id=node/305528309</desc></wpt><wpt lat="54.6754702" lon="13.3703707"><name>Varnkevitz</name><desc>bus=yes
departures_board=timetable
highway=bus_stop
name=Varnkevitz
operator=Verkehrsgesellschaft Vorpommern-Rügen mbH (VVR)
public_transport=platform
id=node/306125637</desc></wpt><wpt lat="54.6646115" lon="13.3623911"><name>Mattchow</name><desc>bench=no
bin=no
bus=yes
check_date:shelter=2024-03-22
departures_board=timetable
highway=bus_stop
lit=yes
name=Mattchow
operator=Verkehrsgesellschaft Vorpommern-Rügen mbH (VVR)
public_transport=platform
shelter=no
tactile_paving=no
id=node/306125639</desc></wpt><wpt lat="54.0488692" lon="13.7575932"><name>Wolgast, Aldi</name><desc>bench=no
bin=no
bus=yes
highway=bus_stop
lit=yes
name=Wolgast, Aldi
public_transport=platform
shelter=no
tactile_paving=no
id=node/306586338</desc></wpt><wpt lat="53.5504039" lon="13.2633498"><name>Schwedenstraße</name><desc>bench=yes
bin=yes
bus=yes
departures_board=timetable
highway=bus_stop
name=Schwedenstraße
network=Neubrandenburger Stadtwerke;MVVG
operator=Neubrandenburger Stadtwerke;MVVG
public_transport=platform
shelter=yes
wheelchair=yes
id=node/307544027</desc></wpt><wpt lat="53.5478816" lon="13.2646255"><name>Kaufhof Süd</name><desc>bench=yes
bin=yes
bus=yes
departures_board=timetable
highway=bus_stop
lit=yes
name=Kaufhof Süd
network=Neubrandenburger Stadtwerke;MVVG
operator=Neubrandenburger Stadtwerke;MVVG
public_transport=platform
shelter=yes
tactile_paving=no
wheelchair=yes
id=node/307544028</desc></wpt><wpt lat="53.5469178" lon="13.2653875"><name>Kaufhof Süd</name><desc>bench=yes
bin=yes
bus=yes
departures_board=timetable
highway=bus_stop
lit=yes
name=Kaufhof Süd
network=Neubrandenburger Stadtwerke;MVVG
operator=Neubrandenburger Stadtwerke;MVVG
public_transport=platform
shelter=yes
tactile_paving=no
wheelchair=yes
id=node/307544029</desc></wpt><wpt lat="53.5447549" lon="13.2653303"><name>Neustrelitzer Straße</name><desc>bench=yes
bin=yes
bus=yes
departures_board=timetable
highway=bus_stop
lit=yes
name=Neustrelitzer Straße
network=Neubrandenburger Stadtwerke
operator=Neubrandenburger Stadtwerke
public_transport=platform
shelter=yes
tactile_paving=no
wheelchair=yes
id=node/307544030</desc></wpt><wpt lat="53.5426097" lon="13.2652462"><name>Am Stargarder Bruch</name><desc>bench=yes
bin=yes
bus=yes
check_date:shelter=2024-03-30
departures_board=timetable
highway=bus_stop
name=Am Stargarder Bruch
network=Neubrandenburger Stadtwerke
operator=Neubrandenburger Stadtwerke
public_transport=platform
shelter=yes
tactile_paving=no
wheelchair=yes
id=node/307544031</desc></wpt><wpt lat="53.5424197" lon="13.2656394"><name>Neustrelitzer Straße</name><desc>bench=yes
bin=yes
bus=yes
check_date:shelter=2024-03-30
departures_board=timetable
highway=bus_stop
name=Neustrelitzer Straße
network=Neubrandenburger Stadtwerke
operator=Neubrandenburger Stadtwerke
public_transport=platform
shelter=yes
tactile_paving=no
wheelchair=yes
id=node/307544032</desc></wpt><wpt lat="53.5389085" lon="13.2646372"><name>Am Blumenborn</name><desc>bench=no
bin=yes
bus=yes
check_date:shelter=2024-03-30
departures_board=timetable
highway=bus_stop
lit=yes
name=Am Blumenborn
network=Neubrandenburger Stadtwerke;MVVG
operator=Neubrandenburger Stadtwerke;MVVG
public_transport=platform
shelter=no
tactile_paving=no
wheelchair=yes
id=node/307544033</desc></wpt><wpt lat="53.5644747" lon="13.2692013"><name>Demminer Straße</name><desc>bench=yes
bin=yes
bus=yes
covered=yes
departures_board=timetable
highway=bus_stop
lit=yes
name=Demminer Straße
network=Neubrandenburger Verkehrsbetriebe;MVVG
operator=Neubrandenburger Verkehrsbetriebe;MVVG
passenger_information_display=no
public_transport=platform
shelter=yes
tactile_paving=yes
wheelchair=yes
id=node/307687520</desc></wpt><wpt lat="53.5752066" lon="13.268998"><name>Sandkrug</name><desc>bench=yes
bin=yes
bus=yes
covered=yes
departures_board=timetable
highway=bus_stop
name=Sandkrug
network=Neubrandenburger Verkehrsbetriebe
operator=Neubrandenburger Verkehrsbetriebe
passenger_information_display=no
public_transport=platform
shelter=yes
wheelchair=yes
id=node/307690093</desc></wpt><wpt lat="53.5764413" lon="13.2697727"><name>Sandkrug</name><desc>bench=yes
bus=yes
departures_board=timetable
highway=bus_stop
name=Sandkrug
network=Neubrandenburger Verkehrsbetriebe
operator=Neubrandenburger Verkehrsbetriebe
public_transport=platform
shelter=no
wheelchair=yes
id=node/307690097</desc></wpt><wpt lat="53.5798042" lon="13.2721558"><name>Trockener Weg</name><desc>bin=yes
covered=no
highway=bus_stop
name=Trockener Weg
passenger_information_display=no
public_transport=platform
id=node/307690108</desc></wpt><wpt lat="53.5787078" lon="13.2699403"><name>Trockener Weg</name><desc>bench=yes
bin=yes
bus=yes
covered=yes
departures_board=timetable
highway=bus_stop
name=Trockener Weg
network=Neubrandenburger Verkehrsbetriebe
operator=Neubrandenburger Verkehrsbetriebe
passenger_information_display=no
public_transport=platform
shelter=yes
wheelchair=yes
id=node/307690110</desc></wpt><wpt lat="53.5765729" lon="13.2788893"><name>Unkel-Bräsig-Straße</name><desc>bench=yes
bus=yes
departures_board=timetable
highway=bus_stop
name=Unkel-Bräsig-Straße
network=Neubrandenburger Verkehrsbetriebe
operator=Neubrandenburger Verkehrsbetriebe
public_transport=platform
shelter=yes
wheelchair=yes
id=node/307690111</desc></wpt><wpt lat="53.5769645" lon="13.280889"><name>Unkel-Bräsig-Straße</name><desc>bench=no
bus=yes
departures_board=timetable
highway=bus_stop
name=Unkel-Bräsig-Straße
network=Neubrandenburger Verkehrsbetriebe
operator=Neubrandenburger Verkehrsbetriebe
public_transport=platform
shelter=no
wheelchair=yes
id=node/307690112</desc></wpt><wpt lat="53.5788554" lon="13.2832374"><name>Uns Hüsung</name><desc>bench=yes
bus=yes
departures_board=timetable
highway=bus_stop
name=Uns Hüsung
network=Neubrandenburger Verkehrsbetriebe
operator=Neubrandenburger Verkehrsbetriebe
public_transport=platform
shelter=yes
wheelchair=yes
id=node/307690113</desc></wpt><wpt lat="53.5786322" lon="13.2834006"><name>Uns Hüsung</name><desc>bench=yes
bus=yes
departures_board=timetable
highway=bus_stop
name=Uns Hüsung
network=Neubrandenburger Verkehrsbetriebe
operator=Neubrandenburger Verkehrsbetriebe
public_transport=platform
shelter=no
wheelchair=yes
id=node/307690114</desc></wpt><wpt lat="53.5371075" lon="13.2613571"><name>Kirschenallee</name><desc>bench=yes
bus=yes
departures_board=timetable
highway=bus_stop
name=Kirschenallee
network=Neubrandenburger Stadtwerke
operator=Neubrandenburger Stadtwerke
public_transport=platform
shelter=yes
wheelchair=yes
id=node/307700143</desc></wpt><wpt lat="53.5323745" lon="13.2600737"><name>Lindenberg</name><desc>bench=yes
bin=yes
bus=yes
departures_board=timetable
highway=bus_stop
name=Lindenberg
network=Neubrandenburger Stadtwerke
operator=Neubrandenburger Stadtwerke
public_transport=platform
shelter=no
wheelchair=yes
id=node/307700145</desc></wpt><wpt lat="53.5297033" lon="13.2611625"><name>Behördenzentrum</name><desc>bench=yes
bus=yes
departures_board=timetable
highway=bus_stop
name=Behördenzentrum
network=Neubrandenburger Stadtwerke
operator=Neubrandenburger Stadtwerke
public_transport=platform
shelter=no
wheelchair=yes
id=node/307700150</desc></wpt><wpt lat="53.526312" lon="13.2615095"><name>Bethanienberg</name><desc>bench=yes
bus=yes
check_date:shelter=2024-03-31
departures_board=timetable
fixme=Wo ist die Bushaltestelle "Bethanienberg" Stadtauswärts? Ist es diese hier oder die andere? Oder gibt es zwei?
highway=bus_stop
name=Bethanienberg
network=Neubrandenburger Stadtwerke;MVVG
operator=Neubrandenburger Stadtwerke;MVVG
public_transport=platform
shelter=no
wheelchair=yes
id=node/307700176</desc></wpt><wpt lat="53.5260982" lon="13.2619228"><name>Bethanienberg</name><desc>bench=yes
bus=yes
check_date:shelter=2024-03-31
departures_board=timetable
highway=bus_stop
name=Bethanienberg
network=Neubrandenburger Stadtwerke;MVVG
operator=Neubrandenburger Stadtwerke;MVVG
public_transport=platform
shelter=yes
wheelchair=yes
id=node/307700180</desc></wpt><wpt lat="53.5231069" lon="13.2575003"><name>Rotbuchenring</name><desc>bench=yes
bin=yes
bus=yes
departures_board=timetable
highway=bus_stop
lit=yes
name=Rotbuchenring
network=Neubrandenburger Stadtwerke
operator=Neubrandenburger Stadtwerke
public_transport=platform
shelter=no
tactile_paving=yes
wheelchair=yes
id=node/307700220</desc></wpt><wpt lat="53.5162151" lon="13.2607896"><name>Am Wäldchen</name><desc>bench=no
bus=yes
departures_board=timetable
highway=bus_stop
name=Am Wäldchen
network=Neubrandenburger Stadtwerke
operator=Neubrandenburger Stadtwerke
public_transport=platform
shelter=no
id=node/307700279</desc></wpt><wpt lat="53.5156625" lon="13.2616434"><name>Am Wäldchen</name><desc>bench=yes
bus=yes
departures_board=timetable
highway=bus_stop
name=Am Wäldchen
network=Neubrandenburger Stadtwerke
operator=Neubrandenburger Stadtwerke
public_transport=platform
shelter=yes
id=node/307700283</desc></wpt><wpt lat="53.521999" lon="13.2612348"><name>Gewerbegebiet</name><desc>bench=no
bus=yes
departures_board=timetable
highway=bus_stop
name=Gewerbegebiet
network=MVVG
operator=MVVG
public_transport=platform
ref=8421
shelter=no
wheelchair=yes
id=node/307700285</desc></wpt><wpt lat="53.565359" lon="13.2696904"><name>Demminer Straße</name><desc>bench=yes
bin=yes
bus=yes
covered=yes
departures_board=timetable
highway=bus_stop
lit=yes
name=Demminer Straße
network=Neubrandenburger Verkehrsbetriebe;MVVG
operator=Neubrandenburger Verkehrsbetriebe;MVVG
passenger_information_display=no
public_transport=platform
shelter=yes
tactile_paving=yes
wheelchair=yes
id=node/307700289</desc></wpt><wpt lat="53.5672868" lon="13.2607384"><name>Fasanenstraße</name><desc>bench=yes
bin=yes
bus=yes
departures_board=timetable
highway=bus_stop
lit=no
name=Fasanenstraße
network=Neubrandenburger Verkehrsbetriebe
operator=Neubrandenburger Verkehrsbetriebe
public_transport=platform
shelter=yes
tactile_paving=yes
id=node/307700350</desc></wpt><wpt lat="53.5571308" lon="13.2465318"><name>Hochschule</name><desc>bench=yes
bin=yes
bus=yes
departures_board=timetable
highway=bus_stop
lit=yes
name=Hochschule
network=Neubrandenburger Stadtwerke;MVVG
operator=Neubrandenburger Stadtwerke;MVVG
public_transport=platform
shelter=yes
wheelchair=yes
id=node/307700377</desc></wpt><wpt lat="53.557336" lon="13.2354059"><name>Hopfenburg</name><desc>bench=yes
bus=yes
departures_board=timetable
highway=bus_stop
name=Hopfenburg
network=Neubrandenburger Stadtwerke;MVVG
operator=Neubrandenburger Stadtwerke;MVVG
public_transport=platform
shelter=yes
wheelchair=yes
id=node/307700380</desc></wpt><wpt lat="53.5688149" lon="13.2044362"><name>Weitin Dorf</name><desc>bench=no
bus=yes
departures_board=timetable
highway=bus_stop
name=Weitin Dorf
network=Neubrandenburger Verkehrsbetriebe;MVVG
operator=Neubrandenburger Verkehrsbetriebe;MVVG
public_transport=platform
shelter=no
tactile_paving=no
wheelchair=yes
id=node/307700422</desc></wpt><wpt lat="53.6280026" lon="13.0336849"><name>Rosenow</name><desc>bench=yes
bin=yes
bus=yes
departures_board=timetable
highway=bus_stop
lit=yes
name=Rosenow
network=MVVG
operator=MVVG
public_transport=platform
shelter=yes
tactile_paving=yes
wheelchair=yes
id=node/307700456</desc></wpt><wpt lat="53.6272768" lon="13.000467"><name>node/307700561</name><desc>fixme=Exisitiert diese Haltestelle wirklich?
highway=bus_stop
id=node/307700561</desc></wpt><wpt lat="53.6272135" lon="13.0005203"><name>node/307700563</name><desc>fixme=Exisitiert diese Haltestelle wirklich?
highway=bus_stop
id=node/307700563</desc></wpt><wpt lat="53.985822" lon="12.2206885"><name>Prisannewitz</name><desc>bus=yes
highway=bus_stop
name=Prisannewitz
network=Verkehrsverbund Warnow
network:short=VVW
network:wikidata=Q2516492
operator=Rebus
public_transport=stop_position
ref=de:13072:669
shelter=yes
id=node/308240598</desc></wpt><wpt lat="54.2541517" lon="13.19291"><name>Niederhof</name><desc>bench=yes
bus=yes
highway=bus_stop
name=Niederhof
public_transport=platform
shelter=yes
tactile_paving=no
id=node/308937456</desc></wpt><wpt lat="54.240661" lon="13.1858717"><name>Brandshagen, Wohnpark</name><desc>highway=bus_stop
name=Brandshagen, Wohnpark
public_transport=platform
id=node/308937797</desc></wpt><wpt lat="54.2376877" lon="13.1835779"><name>Niederhof, Abzweig</name><desc>bus=yes
highway=bus_stop
name=Niederhof, Abzweig
network=Verkehrsgesellschaft Vorpommern-Rügen
network:guid=DE-MV-VVR
network:short=VVR
network:wikidata=Q23787863
operator=Verkehrsgesellschaft Vorpommern-Rügen
public_transport=platform
id=node/308937798</desc></wpt><wpt lat="54.2391238" lon="13.1705375"><name>Brandshagen, Siedlung</name><desc>bench=yes
bin=no
bus=yes
highway=bus_stop
name=Brandshagen, Siedlung
network=Verkehrsgesellschaft Vorpommern-Rügen
network:guid=DE-MV-VVR
network:short=VVR
network:wikidata=Q23787863
operator=Verkehrsgesellschaft Vorpommern-Rügen
public_transport=platform
shelter=no
tactile_paving=no
id=node/308937800</desc></wpt><wpt lat="54.2394849" lon="13.173487"><name>Brandshagen, Schule</name><desc>bench=no
bus=yes
highway=bus_stop
name=Brandshagen, Schule
network=Verkehrsgesellschaft Vorpommern-Rügen
network:guid=DE-MV-VVR
network:short=VVR
network:wikidata=Q23787863
operator=Verkehrsgesellschaft Vorpommern-Rügen
public_transport=platform
shelter=no
id=node/308937801</desc></wpt><wpt lat="54.2531747" lon="13.1797327"><name>Neuhof, Mitte</name><desc>highway=bus_stop
name=Neuhof, Mitte
public_transport=platform
id=node/308937803</desc></wpt><wpt lat="54.2621428" lon="13.178758"><name>Neuhof, Wendeplatz</name><desc>bench=yes
bus=yes
highway=bus_stop
name=Neuhof, Wendeplatz
public_transport=platform
shelter=yes
id=node/308937804</desc></wpt><wpt lat="54.106817" lon="12.4212373"><name>Wendorf bei Reppelin</name><desc>bench=yes
bus=yes
highway=bus_stop
name=Wendorf bei Reppelin
public_transport=platform
ref=de:13072:1790
shelter=yes
id=node/308943448</desc></wpt><wpt lat="54.1116846" lon="12.4305187"><name>Neu Wendorf</name><desc>bus=yes
highway=bus_stop
name=Neu Wendorf
public_transport=platform
ref=de:13072:595
id=node/308943460</desc></wpt><wpt lat="54.122558" lon="12.5083376"><name>Wöpkendorf</name><desc>highway=bus_stop
name=Wöpkendorf
id=node/308950143</desc></wpt><wpt lat="54.1058355" lon="12.4759402"><name>Dammerstorf Abzweig</name><desc>bus=yes
highway=bus_stop
name=Dammerstorf Abzweig
operator=Verkehrsgesellschaft Vorpommern-Rügen
public_transport=platform
ref=de:13073:4002
id=node/308950170</desc></wpt><wpt lat="54.2389893" lon="13.1780141"><name>Brandshagen, Kirche</name><desc>bench=yes
bus=yes
highway=bus_stop
name=Brandshagen, Kirche
network=Verkehrsgesellschaft Vorpommern-Rügen
network:guid=DE-MV-VVR
network:short=VVR
network:wikidata=Q23787863
operator=Verkehrsgesellschaft Vorpommern-Rügen
public_transport=platform
tactile_paving=no
id=node/308956588</desc></wpt><wpt lat="54.1369571" lon="12.2070967"><name>Häschendorf</name><desc>bus=yes
highway=bus_stop
name=Häschendorf
public_transport=platform
ref=de:13072:1567
id=node/309443638</desc></wpt><wpt lat="53.280731" lon="12.8148524"><name>Mirow, Siedlung</name><desc>bus=yes
highway=bus_stop
name=Mirow, Siedlung
operator=MVVG
public_transport=stop_position
id=node/310505805</desc></wpt><wpt lat="54.3131473" lon="13.078582"><name>Wolfgang-Heinze-Straße</name><desc>bench=no
bin=yes
bus=yes
highway=bus_stop
lit=yes
name=Wolfgang-Heinze-Straße
network=Verkehrsgesellschaft Vorpommern-Rügen
network:guid=DE-MV-VVR
network:short=VVR
network:wikidata=Q23787863
operator=Verkehrsgesellschaft Vorpommern-Rügen
public_transport=platform
route_ref=1;3;6;60;304;305
shelter=no
tactile_paving=no
wheelchair=yes
id=node/311067075</desc></wpt><wpt lat="54.2061935" lon="13.1072681"><name>Bookhagen</name><desc>highway=bus_stop
name=Bookhagen
public_transport=platform
id=node/311098543</desc></wpt><wpt lat="54.2214917" lon="13.1029579"><name>Neu Elmenhorst</name><desc>bus=yes
highway=bus_stop
name=Neu Elmenhorst
network=Verkehrsgesellschaft Vorpommern-Rügen
network:guid=DE-MV-VVR
network:short=VVR
network:wikidata=Q23787863
operator=Verkehrsgesellschaft Vorpommern-Rügen
public_transport=platform
id=node/311098896</desc></wpt><wpt lat="54.2370319" lon="13.1072878"><name>Zarrendorf, Teschenhäger Weg</name><desc>bench=yes
bin=yes
bus=yes
highway=bus_stop
name=Zarrendorf, Teschenhäger Weg
network=Verkehrsgesellschaft Vorpommern-Rügen
network:guid=DE-MV-VVR
network:short=VVR
network:wikidata=Q23787863
operator=Verkehrsgesellschaft Vorpommern-Rügen
public_transport=platform
route_ref=9;310
shelter=yes
id=node/311099224</desc></wpt><wpt lat="54.1647366" lon="13.0510504"><name>Glashagen, Wendeplatz</name><desc>highway=bus_stop
name=Glashagen, Wendeplatz
public_transport=platform
shelter=yes
id=node/311099982</desc></wpt><wpt lat="54.3180651" lon="13.0843669"><name>Rosengarten</name><desc>bench=yes
bin=yes
bus=yes
highway=bus_stop
lit=yes
name=Rosengarten
network=Verkehrsgesellschaft Vorpommern-Rügen
network:guid=DE-MV-VVR
network:short=VVR
network:wikidata=Q23787863
operator=Verkehrsgesellschaft Vorpommern-Rügen
public_transport=platform
route_ref=4
shelter=yes
tactile_paving=yes
wheelchair=yes
id=node/311130152</desc></wpt><wpt lat="54.3179983" lon="13.0842044"><name>Rosengarten</name><desc>bench=yes
bin=yes
bus=yes
highway=bus_stop
lit=yes
name=Rosengarten
network=Verkehrsgesellschaft Vorpommern-Rügen
network:guid=DE-MV-VVR
network:short=VVR
network:wikidata=Q23787863
operator=Verkehrsgesellschaft Vorpommern-Rügen
public_transport=platform
route_ref=4
shelter=yes
tactile_paving=yes
wheelchair=yes
id=node/311130153</desc></wpt><wpt lat="54.2396037" lon="12.4371938"><name>Ribnitz, Bahnhof West</name><desc>amenity=bus_station
bench=yes
bin=no
bus=yes
highway=bus_stop
lit=yes
name=Ribnitz, Bahnhof West
network=Verkehrsgesellschaft Vorpommern-Rügen
network:guid=DE-MV-VVR
network:short=VVR
network:wikidata=Q23787863
operator=Verkehrsgesellschaft Vorpommern-Rügen
public_transport=station
shelter=no
tactile_paving=yes
wheelchair=limited
id=node/311136149</desc></wpt><wpt lat="54.3119322" lon="13.067267"><name>Carl-Heydemann-Ring</name><desc>bench=yes
bin=yes
bus=yes
departures_board=timetable
highway=bus_stop
lit=yes
name=Carl-Heydemann-Ring
operator=Verkehrsgesellschaft Vorpommern-Rügen mbH (VVR)
public_transport=platform
shelter=yes
tactile_paving=no
id=node/311298459</desc></wpt><wpt lat="54.3116929" lon="13.0673481"><name>Carl-Heydemann-Ring</name><desc>bench=yes
bin=yes
bus=yes
departures_board=timetable
highway=bus_stop
lit=yes
name=Carl-Heydemann-Ring
operator=Verkehrsgesellschaft Vorpommern-Rügen mbH (VVR)
public_transport=platform
shelter=yes
tactile_paving=no
id=node/311298460</desc></wpt><wpt lat="53.5254613" lon="13.2608138"><name>Bethanienberg</name><desc>bench=yes
bin=yes
bus=yes
departures_board=timetable
fixme=Wo ist die Bushaltestelle "Bethanienberg" Stadtauswärts? Ist es diese hier oder die andere? Oder gibt es zwei?
highway=bus_stop
lit=yes
name=Bethanienberg
network=Neubrandenburger Stadtwerke
operator=Neubrandenburger Stadtwerke
public_transport=platform
shelter=no
tactile_paving=yes
wheelchair=yes
id=node/311299987</desc></wpt><wpt lat="54.3093633" lon="13.0782038"><name>Hauptbahnhof</name><desc>bench=yes
bin=yes
bus=yes
departures_board=realtime
highway=bus_stop
lit=yes
name=Hauptbahnhof
network=Verkehrsgesellschaft Vorpommern-Rügen
network:guid=DE-MV-VVR
network:short=VVR
network:wikidata=Q23787863
network:wikipedia=de:Verkehrsgesellschaft Vorpommern-Rügen
operator=Verkehrsgesellschaft Vorpommern-Rügen
public_transport=platform
route_ref=1;3;4;6;8;9;30;60;302;303;304;305;306;308;309;310
shelter=yes
tactile_paving=yes
wheelchair=yes
id=node/311301799</desc></wpt><wpt lat="54.3090551" lon="13.0792064"><name>Hauptbahnhof</name><desc>bench=yes
bin=yes
bus=yes
check_date:shelter=2021-08-25
departures_board=realtime
departures_board:speech_output=yes
highway=bus_stop
kerb=raised
kerb:approach_aid=no
lit=yes
name=Hauptbahnhof
network=Verkehrsgesellschaft Vorpommern-Rügen
network:guid=DE-MV-VVR
network:short=VVR
network:wikidata=Q23787863
network:wikipedia=de:Verkehrsgesellschaft Vorpommern-Rügen
operator=Verkehrsgesellschaft Vorpommern-Rügen
public_transport=platform
route_ref=1;3;4;6;8;9;30;60;302;303;304;305;306;308;309;310
shelter=yes
tactile_paving=yes
wheelchair=yes
id=node/311301800</desc></wpt><wpt lat="54.3166459" lon="13.0809203"><name>Friedrich-Engels-Straße</name><desc>bench=no
bin=yes
bus=yes
highway=bus_stop
lit=yes
name=Friedrich-Engels-Straße
operator=Verkehrsgesellschaft Vorpommern-Rügen mbH (VVR)
public_transport=platform
route_ref=1;3;6;60;304;305
shelter=no
tactile_paving=no
wheelchair=yes
id=node/311301801</desc></wpt><wpt lat="54.3178598" lon="13.0815181"><name>Friedrich-Engels-Straße</name><desc>bench=no
bin=no
bus=yes
highway=bus_stop
lit=yes
name=Friedrich-Engels-Straße
operator=Verkehrsgesellschaft Vorpommern-Rügen mbH (VVR)
public_transport=platform
route_ref=1;3;6;60;304;305
shelter=no
tactile_paving=no
wheelchair=yes
id=node/311301802</desc></wpt><wpt lat="54.3121929" lon="13.0959541"><name>Stralsund Wasserstraße</name><desc>bench=yes
bin=yes
bus=yes
check_date:shelter=2023-05-18
departures_board=timetable
highway=bus_stop
lit=yes
name=Stralsund Wasserstraße
network=Verkehrsgesellschaft Vorpommern-Rügen
network:guid=DE-MV-VVR
network:short=VVR
network:wikidata=Q23787863
operator=VVR
public_transport=platform
shelter=yes
tactile_paving=yes
wheelchair=yes
id=node/311365887</desc></wpt><wpt lat="54.3121503" lon="13.0963753"><name>Stralsund Wasserstraße</name><desc>bench=yes
bin=yes
bus=yes
departures_board=timetable
highway=bus_stop
lit=yes
name=Stralsund Wasserstraße
network=Verkehrsgesellschaft Vorpommern-Rügen
network:guid=DE-MV-VVR
network:short=VVR
network:wikidata=Q23787863
operator=VVR
public_transport=platform
shelter=yes
tactile_paving=no
wheelchair=yes
id=node/311365888</desc></wpt><wpt lat="53.5376744" lon="13.3166131"><name>Carlshöhe</name><desc>bench=yes
bin=yes
bus=yes
departures_board=timetable
highway=bus_stop
lit=yes
name=Carlshöhe
network=Neubrandenburger Verkehrsbetriebe;MVVG
operator=Neubrandenburger Verkehrsbetriebe;MVVG
public_transport=platform
shelter=yes
tactile_paving=yes
id=node/311540616</desc></wpt><wpt lat="53.5362696" lon="13.3203294"><name>Waldfriedhof</name><desc>bench=yes
bus=yes
departures_board=timetable
highway=bus_stop
name=Waldfriedhof
network=Neubrandenburger Verkehrsbetriebe
operator=Neubrandenburger Verkehrsbetriebe
public_transport=platform
shelter=yes
id=node/311541052</desc></wpt><wpt lat="53.5426134" lon="13.3122856"><name>Carlshöher Straße</name><desc>bench=yes
bus=yes
departures_board=timetable
highway=bus_stop
name=Carlshöher Straße
network=Neubrandenburger Verkehrsbetriebe;MVVG
operator=Neubrandenburger Verkehrsbetriebe;MVVG
public_transport=platform
shelter=no
tactile_paving=no
id=node/311541200</desc></wpt><wpt lat="53.5465656" lon="13.296121"><name>Klinikum</name><desc>bench=no
bus=yes
departures_board=timetable
highway=bus_stop
name=Klinikum
network=Neubrandenburger Verkehrsbetriebe;MVVG
operator=Neubrandenburger Verkehrsbetriebe;MVVG
public_transport=platform
shelter=no
wheelchair=yes
id=node/311541273</desc></wpt><wpt lat="53.5473291" lon="13.2952608"><name>Klinikum</name><desc>bench=yes
bus=yes
departures_board=timetable
highway=bus_stop
name=Klinikum
network=Neubrandenburger Verkehrsbetriebe;MVVG
operator=Neubrandenburger Verkehrsbetriebe;MVVG
public_transport=platform
shelter=yes
id=node/311541306</desc></wpt><wpt lat="53.5513873" lon="13.2924836"><name>Kopernikusstraße</name><desc>bench=yes
bus=yes
departures_board=timetable
highway=bus_stop
name=Kopernikusstraße
network=Neubrandenburger Verkehrsbetriebe;MVVG
operator=Neubrandenburger Verkehrsbetriebe;MVVG
public_transport=platform
shelter=yes
id=node/311541375</desc></wpt><wpt lat="53.5568344" lon="13.2927631"><name>An der B 104</name><desc>bench=yes
bus=yes
departures_board=timetable
highway=bus_stop
name=An der B 104
network=Neubrandenburger Verkehrsbetriebe GmbH
operator=Neubrandenburger Verkehrsbetriebe GmbH
public_transport=platform
shelter=yes
wheelchair=yes
id=node/311541708</desc></wpt><wpt lat="53.5540488" lon="13.2926782"><name>Juri-Gagarin-Ring</name><desc>bus=yes
departures_board=timetable
highway=bus_stop
name=Juri-Gagarin-Ring
network=Neubrandenburger Verkehrsbetriebe;MVVG
operator=Neubrandenburger Verkehrsbetriebe;MVVG
public_transport=platform
shelter=yes
id=node/312522014</desc></wpt><wpt lat="53.5539363" lon="13.2923212"><name>Juri-Gagarin-Ring</name><desc>bench=yes
bus=yes
departures_board=timetable
highway=bus_stop
name=Juri-Gagarin-Ring
network=Neubrandenburger Verkehrsbetriebe;MVVG
operator=Neubrandenburger Verkehrsbetriebe;MVVG
public_transport=platform
shelter=yes
id=node/312522423</desc></wpt><wpt lat="54.2256408" lon="13.166723"><name>Schönhof</name><desc>bus=yes
highway=bus_stop
name=Schönhof
network=Verkehrsgesellschaft Vorpommern-Rügen
network:guid=DE-MV-VVR
network:short=VVR
network:wikidata=Q23787863
operator=Verkehrsgesellschaft Vorpommern-Rügen
public_transport=platform
shelter=yes
id=node/313191167</desc></wpt><wpt lat="53.5635352" lon="13.2827059"><name>Sponholzer Straße</name><desc>bench=yes
bus=yes
departures_board=timetable
highway=bus_stop
name=Sponholzer Straße
network=Neubrandenburger Verkehrsbetriebe
operator=Neubrandenburger Verkehrsbetriebe
public_transport=platform
shelter=yes
id=node/313459829</desc></wpt><wpt lat="53.5632312" lon="13.2829344"><name>Sponholzer Straße</name><desc>bench=yes
bus=yes
departures_board=timetable
highway=bus_stop
name=Sponholzer Straße
network=Neubrandenburger Verkehrsbetriebe
operator=Neubrandenburger Verkehrsbetriebe
public_transport=platform
shelter=yes
id=node/313459830</desc></wpt><wpt lat="54.3158399" lon="13.0505354"><name>Am Stadtwald</name><desc>bench=yes
bin=yes
bus=yes
departures_board=timetable
highway=bus_stop
lit=yes
name=Am Stadtwald
network=Verkehrsgesellschaft Vorpommern-Rügen
network:guid=DE-MV-VVR
network:short=VVR
network:wikidata=Q23787863
operator=Verkehrsgesellschaft Vorpommern-Rügen
public_transport=platform
route_ref=1;8;30
shelter=yes
tactile_paving=no
id=node/314391694</desc></wpt><wpt lat="54.3157291" lon="13.0505183"><name>Am Stadtwald</name><desc>bench=yes
bin=yes
bus=yes
departures_board=timetable
highway=bus_stop
lit=yes
name=Am Stadtwald
network=Verkehrsgesellschaft Vorpommern-Rügen
network:guid=DE-MV-VVR
network:short=VVR
network:wikidata=Q23787863
operator=Verkehrsgesellschaft Vorpommern-Rügen
public_transport=platform
route_ref=1;8;30
shelter=yes
tactile_paving=no
id=node/314391695</desc></wpt><wpt lat="54.3137092" lon="13.0584277"><name>Rostocker Werk</name><desc>bench=yes
bin=yes
bus=yes
departures_board=timetable
highway=bus_stop
lit=yes
name=Rostocker Werk
network=Verkehrsgesellschaft Vorpommern-Rügen
network:guid=DE-MV-VVR
network:short=VVR
network:wikidata=Q23787863
operator=Verkehrsgesellschaft Vorpommern-Rügen
public_transport=platform
route_ref=1;8;30
shelter=yes
tactile_paving=no
id=node/314391697</desc></wpt><wpt lat="54.3129363" lon="13.0624782"><name>Rostocker Werk</name><desc>bench=yes
bin=yes
bus=yes
departures_board=timetable
highway=bus_stop
lit=yes
name=Rostocker Werk
network=Verkehrsgesellschaft Vorpommern-Rügen
network:guid=DE-MV-VVR
network:short=VVR
network:wikidata=Q23787863
operator=Verkehrsgesellschaft Vorpommern-Rügen
public_transport=platform
route_ref=1;8;30
shelter=yes
tactile_paving=yes
id=node/314391699</desc></wpt><wpt lat="54.3104128" lon="13.0729203"><name>Barther Straße</name><desc>bench=no
bin=yes
bus=yes
departures_board=timetable
highway=bus_stop
lit=no
name=Barther Straße
operator=Verkehrsgesellschaft Vorpommern-Rügen mbH (VVR)
public_transport=platform
route_ref=1;8;30
shelter=no
tactile_paving=yes
id=node/314391700</desc></wpt><wpt lat="54.3103796" lon="13.0735276"><name>Barther Straße</name><desc>bench=no
bin=no
bus=yes
departures_board=timetable
highway=bus_stop
lit=no
name=Barther Straße
operator=Verkehrsgesellschaft Vorpommern-Rügen mbH (VVR)
public_transport=platform
route_ref=1;8;30
shelter=no
tactile_paving=yes
id=node/314391707</desc></wpt><wpt lat="54.3173838" lon="13.089209"><name>Olof-Palme-Platz</name><desc>bench=yes
bin=yes
bus=yes
highway=bus_stop
lit=yes
name=Olof-Palme-Platz
network=Verkehrsgesellschaft Vorpommern-Rügen
network:guid=DE-MV-VVR
network:short=VVR
network:wikidata=Q23787863
network:wikipedia=de:Verkehrsgesellschaft Vorpommern-Rügen
operator=Verkehrsgesellschaft Vorpommern-Rügen
public_transport=platform
route_ref=1;4;60;304;310
shelter=yes
tactile_paving=yes
wheelchair=yes
id=node/314391709</desc></wpt><wpt lat="54.3213438" lon="13.079455"><name>Knieperdamm</name><desc>bench=yes
bin=yes
bus=yes
highway=bus_stop
lit=yes
name=Knieperdamm
network=Verkehrsgesellschaft Vorpommern-Rügen
network:guid=DE-MV-VVR
network:short=VVR
network:wikidata=Q23787863
operator=Verkehrsgesellschaft Vorpommern-Rügen
public_transport=platform
route_ref=1;3;4;60;304;305
shelter=no
tactile_paving=no
wheelchair=yes
id=node/314391711</desc></wpt><wpt lat="54.3208146" lon="13.0798832"><name>Knieperdamm</name><desc>bench=yes
bin=yes
bus=yes
highway=bus_stop
lit=yes
name=Knieperdamm
network=Verkehrsgesellschaft Vorpommern-Rügen
network:guid=DE-MV-VVR
network:short=VVR
network:wikidata=Q23787863
operator=Verkehrsgesellschaft Vorpommern-Rügen
public_transport=platform
route_ref=1;3;4;60;304;305
shelter=no
tactile_paving=no
wheelchair=yes
id=node/314391713</desc></wpt><wpt lat="54.3244768" lon="13.0773777"><name>Kleine Parower Straße</name><desc>bench=no
bin=yes
bus=yes
highway=bus_stop
lit=yes
name=Kleine Parower Straße
network=Verkehrsgesellschaft Vorpommern-Rügen
network:guid=DE-MV-VVR
network:short=VVR
network:wikidata=Q23787863
operator=Verkehrsgesellschaft Vorpommern-Rügen
public_transport=platform
route_ref=1;3;60;304;305
shelter=no
wheelchair=yes
id=node/314392990</desc></wpt><wpt lat="54.327193" lon="13.0736861"><name>Mozartstraße</name><desc>bench=yes
bin=yes
bus=yes
highway=bus_stop
lit=yes
name=Mozartstraße
network=Verkehrsgesellschaft Vorpommern-Rügen
network:guid=DE-MV-VVR
network:short=VVR
network:wikidata=Q23787863
operator=Verkehrsgesellschaft Vorpommern-Rügen
public_transport=platform
route_ref=1;3;60;304;305
shelter=yes
tactile_paving=no
wheelchair=yes
id=node/314392992</desc></wpt><wpt lat="54.3275906" lon="13.0727502"><name>Mozartstraße</name><desc>bench=yes
bin=yes
bus=yes
highway=bus_stop
lit=yes
name=Mozartstraße
network=Verkehrsgesellschaft Vorpommern-Rügen
network:guid=DE-MV-VVR
network:short=VVR
network:wikidata=Q23787863
operator=Verkehrsgesellschaft Vorpommern-Rügen
public_transport=platform
route_ref=1;3;60;304;305
shelter=yes
tactile_paving=no
wheelchair=yes
id=node/314392993</desc></wpt><wpt lat="54.3298557" lon="13.0697472"><name>Heinrich-Heine-Ring</name><desc>bench=yes
bin=yes
bus=yes
highway=bus_stop
lit=no
name=Heinrich-Heine-Ring
network=Verkehrsgesellschaft Vorpommern-Rügen
network:guid=DE-MV-VVR
network:short=VVR
network:wikidata=Q23787863
operator=Verkehrsgesellschaft Vorpommern-Rügen
public_transport=platform
route_ref=1
shelter=yes
tactile_paving=no
wheelchair=yes
id=node/314392994</desc></wpt><wpt lat="54.3330717" lon="13.0721987"><name>Heinrich-Mann-Straße</name><desc>bench=yes
bin=yes
bus=yes
highway=bus_stop
lit=yes
name=Heinrich-Mann-Straße
public_transport=platform
shelter=yes
tactile_paving=no
wheelchair=yes
id=node/314392995</desc></wpt><wpt lat="54.332846" lon="13.0722722"><name>Heinrich-Mann-Straße</name><desc>bench=yes
bin=yes
bus=yes
highway=bus_stop
lit=yes
name=Heinrich-Mann-Straße
public_transport=platform
shelter=yes
tactile_paving=no
wheelchair=yes
id=node/314392996</desc></wpt><wpt lat="54.3294951" lon="13.079244"><name>Krankenhaus/Sund</name><desc>bench=yes
bin=yes
bus=yes
bus_routes=4
highway=bus_stop
lit=yes
name=Krankenhaus/Sund
network=Verkehrsgesellschaft Vorpommern-Rügen
network:guid=DE-MV-VVR
network:short=VVR
network:wikidata=Q23787863
operator=VVR
public_transport=platform
route_ref=4
shelter=yes
tactile_paving=yes
wheelchair=yes
id=node/314392997</desc></wpt><wpt lat="54.3263184" lon="13.081427"><name>Ernst-Moritz-Arndt-Straße</name><desc>bench=no
bin=yes
bus=yes
highway=bus_stop
lit=yes
name=Ernst-Moritz-Arndt-Straße
network=Verkehrsgesellschaft Vorpommern-Rügen
network:guid=DE-MV-VVR
network:short=VVR
network:wikidata=Q23787863
operator=Verkehrsgesellschaft Vorpommern-Rügen
public_transport=platform
route_ref=4
shelter=no
tactile_paving=yes
wheelchair=yes
id=node/314393000</desc></wpt><wpt lat="54.3330013" lon="13.0768598"><name>Lilienthalstraße</name><desc>bench=yes
bin=yes
bus=yes
highway=bus_stop
lit=yes
name=Lilienthalstraße
network=Verkehrsgesellschaft Vorpommern-Rügen
network:guid=DE-MV-VVR
network:short=VVR
network:wikidata=Q23787863
operator=Verkehrsgesellschaft Vorpommern-Rügen
public_transport=platform
route_ref=4;60
shelter=yes
tactile_paving=yes
wheelchair=yes
id=node/314851450</desc></wpt><wpt lat="54.3329089" lon="13.0767093"><name>Lilienthalstraße</name><desc>bench=yes
bin=yes
bus=yes
highway=bus_stop
lit=yes
name=Lilienthalstraße
network=Verkehrsgesellschaft Vorpommern-Rügen
network:guid=DE-MV-VVR
network:short=VVR
network:wikidata=Q23787863
operator=Verkehrsgesellschaft Vorpommern-Rügen
public_transport=platform
route_ref=4;60
shelter=yes
tactile_paving=yes
wheelchair=yes
id=node/314851452</desc></wpt><wpt lat="54.313415" lon="13.0856243"><name>Kütertor</name><desc>bench=yes
bin=yes
bus=yes
highway=bus_stop
lit=yes
name=Kütertor
network=Verkehrsgesellschaft Vorpommern-Rügen
network:guid=DE-MV-VVR
network:short=VVR
network:wikidata=Q23787863
network:wikipedia=de:Verkehrsgesellschaft Vorpommern-Rügen
operator=Verkehrsgesellschaft Vorpommern-Rügen
public_transport=platform
route_ref=1;4;60
shelter=yes
tactile_paving=yes
wheelchair=yes
id=node/314851454</desc></wpt><wpt lat="54.3098212" lon="13.0839174"><name>Knieperwall</name><desc>bench=yes
bin=yes
bus=yes
highway=bus_stop
lit=yes
name=Knieperwall
network=Verkehrsgesellschaft Vorpommern-Rügen
network:guid=DE-MV-VVR
network:short=VVR
network:wikidata=Q23787863
network:wikipedia=de:Verkehrsgesellschaft Vorpommern-Rügen
operator=Verkehrsgesellschaft Vorpommern-Rügen
public_transport=platform
route_ref=1;4;60
shelter=yes
tactile_paving=yes
wheelchair=yes
id=node/314851457</desc></wpt><wpt lat="54.3073922" lon="13.0705874"><name>Agentur für Arbeit</name><desc>bench=yes
bin=yes
bus=yes
highway=bus_stop
lit=yes
name=Agentur für Arbeit
network=Verkehrsgesellschaft Vorpommern-Rügen
network:guid=DE-MV-VVR
network:short=VVR
network:wikidata=Q23787863
operator=Verkehrsgesellschaft Vorpommern-Rügen
public_transport=platform
route_ref=4;9;60;302;306;308;309;310
shelter=yes
tactile_paving=yes
wheelchair=limited
id=node/314863765</desc></wpt><wpt lat="54.3070627" lon="13.0694205"><name>Agentur für Arbeit</name><desc>bench=yes
bin=yes
bus=yes
highway=bus_stop
lit=yes
name=Agentur für Arbeit
network=Verkehrsgesellschaft Vorpommern-Rügen
network:guid=DE-MV-VVR
network:short=VVR
network:wikidata=Q23787863
operator=Verkehrsgesellschaft Vorpommern-Rügen
public_transport=platform
route_ref=4;9;60;302;306;308;309;310
shelter=yes
tactile_paving=yes
id=node/314863770</desc></wpt><wpt lat="54.3023005" lon="13.0951475"><name>Frankendamm Kreuzung</name><desc>bench=yes
bin=yes
bus=yes
departures_board=timetable
highway=bus_stop
lit=yes
name=Frankendamm Kreuzung
public_transport=platform
route_ref=1;3;30;41;60;303;310
shelter=yes
tactile_paving=yes
wheelchair=yes
id=node/314868714</desc></wpt><wpt lat="54.3022221" lon="13.0953667"><name>Frankendamm Kreuzung</name><desc>bench=yes
bin=yes
bus=yes
departures_board=timetable
highway=bus_stop
lit=yes
name=Frankendamm Kreuzung
public_transport=platform
route_ref=1;3;30;41;60;303;310
shelter=yes
tactile_paving=yes
wheelchair=yes
id=node/314868719</desc></wpt><wpt lat="54.305783" lon="13.0977129"><name>Gartenstraße</name><desc>bench=yes
bin=yes
bus=yes
departures_board=timetable
highway=bus_stop
lit=yes
name=Gartenstraße
network=Verkehrsgesellschaft Vorpommern-Rügen
network:guid=DE-MV-VVR
network:short=VVR
network:wikidata=Q23787863
operator=Verkehrsgesellschaft Vorpommern-Rügen
public_transport=platform
route_ref=1;3;30;60;303;310
shelter=yes
tactile_paving=yes
wheelchair=yes
id=node/314868723</desc></wpt><wpt lat="54.3057602" lon="13.0978834"><name>Gartenstraße</name><desc>bench=yes
bin=yes
bus=yes
departures_board=timetable
highway=bus_stop
lit=yes
name=Gartenstraße
network=Verkehrsgesellschaft Vorpommern-Rügen
network:guid=DE-MV-VVR
network:short=VVR
network:wikidata=Q23787863
operator=Verkehrsgesellschaft Vorpommern-Rügen
public_transport=platform
route_ref=1;3;30;60;303;310
shelter=yes
tactile_paving=yes
wheelchair=yes
id=node/314868726</desc></wpt><wpt lat="54.3087937" lon="13.0977599"><name>Stralsund, Hafenstraße</name><desc>bench=yes
bin=yes
bus=yes
departures_board=timetable
highway=bus_stop
lit=yes
name=Stralsund, Hafenstraße
network=Verkehrsgesellschaft Vorpommern-Rügen
network:guid=DE-MV-VVR
network:short=VVR
network:wikidata=Q23787863
network:wikipedia=de:Verkehrsgesellschaft Vorpommern-Rügen
operator=Verkehrsgesellschaft Vorpommern-Rügen
public_transport=platform
shelter=yes
tactile_paving=yes
wheelchair=yes
id=node/314868729</desc></wpt><wpt lat="54.3088522" lon="13.0979888"><name>Stralsund, Hafenstraße</name><desc>bench=yes
bin=yes
bus=yes
departures_board=timetable
highway=bus_stop
lit=yes
name=Stralsund, Hafenstraße
network=Verkehrsgesellschaft Vorpommern-Rügen
network:guid=DE-MV-VVR
network:short=VVR
network:wikidata=Q23787863
network:wikipedia=de:Verkehrsgesellschaft Vorpommern-Rügen
operator=Verkehrsgesellschaft Vorpommern-Rügen
public_transport=platform
shelter=yes
tactile_paving=yes
wheelchair=yes
id=node/314868733</desc></wpt><wpt lat="54.3025423" lon="13.1005378"><name>Schwarze Kuppe P+R</name><desc>bus=yes
departures_board=timetable
highway=bus_stop
name=Schwarze Kuppe P+R
network=Verkehrsgesellschaft Vorpommern-Rügen
network:guid=DE-MV-VVR
network:short=VVR
network:wikidata=Q23787863
operator=Verkehrsgesellschaft Vorpommern-Rügen
public_transport=platform
id=node/314868736</desc></wpt><wpt lat="54.3023406" lon="13.1004151"><name>Schwarze Kuppe P+R</name><desc>bench=no
bin=no
bus=yes
departures_board=timetable
highway=bus_stop
name=Schwarze Kuppe P+R
network=Verkehrsgesellschaft Vorpommern-Rügen
network:guid=DE-MV-VVR
network:short=VVR
network:wikidata=Q23787863
operator=Verkehrsgesellschaft Vorpommern-Rügen
public_transport=platform
shelter=no
tactile_paving=no
id=node/314868739</desc></wpt><wpt lat="54.3172793" lon="13.0946949"><name>Stralsund, Hafen</name><desc>bench=no
bin=no
bus=yes
highway=bus_stop
lit=yes
name=Stralsund, Hafen
network=Verkehrsgesellschaft Vorpommern-Rügen
network:guid=DE-MV-VVR
network:short=VVR
network:wikidata=Q23787863
network:wikipedia=de:Verkehrsgesellschaft Vorpommern-Rügen
operator=Verkehrsgesellschaft Vorpommern-Rügen
public_transport=platform
route_ref=1;6;60
shelter=no
tactile_paving=no
wheelchair=yes
id=node/314868746</desc></wpt><wpt lat="54.3144966" lon="13.0957206"><name>Ozeaneum</name><desc>bench=no
bin=yes
bus=yes
highway=bus_stop
lit=yes
name=Ozeaneum
network=Verkehrsgesellschaft Vorpommern-Rügen
network:guid=DE-MV-VVR
network:short=VVR
network:wikidata=Q23787863
network:wikipedia=de:Verkehrsgesellschaft Vorpommern-Rügen
operator=Verkehrsgesellschaft Vorpommern-Rügen
public_transport=platform
route_ref=1;6;60
shelter=no
tactile_paving=no
wheelchair=yes
id=node/314868750</desc></wpt><wpt lat="54.314417" lon="13.0964391"><name>Ozeaneum</name><desc>bench=no
bin=yes
bus=yes
highway=bus_stop
lit=yes
name=Ozeaneum
network=Verkehrsgesellschaft Vorpommern-Rügen
network:guid=DE-MV-VVR
network:short=VVR
network:wikidata=Q23787863
network:wikipedia=de:Verkehrsgesellschaft Vorpommern-Rügen
operator=Verkehrsgesellschaft Vorpommern-Rügen
public_transport=platform
route_ref=1;6;60
shelter=no
tactile_paving=no
wheelchair=yes
id=node/314868753</desc></wpt><wpt lat="54.3010015" lon="13.062086"><name>Zur Siedlung</name><desc>bus=yes
highway=bus_stop
name=Zur Siedlung
network=Verkehrsgesellschaft Vorpommern-Rügen
network:guid=DE-MV-VVR
network:short=VVR
network:wikidata=Q23787863
operator=Verkehrsgesellschaft Vorpommern-Rügen
public_transport=platform
id=node/315255720</desc></wpt><wpt lat="54.3004981" lon="13.061409"><name>Zur Siedlung</name><desc>bench=no
bin=no
bus=yes
highway=bus_stop
lit=yes
name=Zur Siedlung
network=Verkehrsgesellschaft Vorpommern-Rügen
network:guid=DE-MV-VVR
network:short=VVR
network:wikidata=Q23787863
operator=Verkehrsgesellschaft Vorpommern-Rügen
public_transport=platform
shelter=no
id=node/315255721</desc></wpt><wpt lat="54.2975592" lon="13.0593403"><name>Nachtkoppelring</name><desc>bench=yes
bin=yes
bus=yes
highway=bus_stop
lit=yes
name=Nachtkoppelring
network=Verkehrsgesellschaft Vorpommern-Rügen
network:guid=DE-MV-VVR
network:short=VVR
network:wikidata=Q23787863
operator=Verkehrsgesellschaft Vorpommern-Rügen
public_transport=platform
shelter=yes
tactile_paving=no
id=node/315308995</desc></wpt><wpt lat="54.2969814" lon="13.0586564"><name>Nachtkoppelring</name><desc>bench=no
bin=no
bus=yes
highway=bus_stop
lit=no
name=Nachtkoppelring
network=Verkehrsgesellschaft Vorpommern-Rügen
network:guid=DE-MV-VVR
network:short=VVR
network:wikidata=Q23787863
operator=Verkehrsgesellschaft Vorpommern-Rügen
public_transport=platform
shelter=no
tactile_paving=no
id=node/315308997</desc></wpt><wpt lat="53.6338977" lon="11.4024084"><name>Platz der Freiheit</name><desc>bus=yes
highway=bus_stop
name=Platz der Freiheit
public_transport=stop_position
railway=tram_stop
ref=PDF2
tram=yes
wheelchair=yes
id=node/315642016</desc></wpt><wpt lat="54.1541972" lon="12.3077175"><name>Vogtshagen</name><desc>bench=yes
bin=yes
bus=yes
highway=bus_stop
name=Vogtshagen
public_transport=platform
ref=de:13072:1082
shelter=yes
id=node/316020627</desc></wpt><wpt lat="54.2875272" lon="13.0903142"><name>Am Umspannwerk</name><desc>bus=yes
bus_routes=4
highway=bus_stop
name=Am Umspannwerk
network=Verkehrsgesellschaft Vorpommern-Rügen
network:guid=DE-MV-VVR
network:short=VVR
network:wikidata=Q23787863
operator=Verkehrsgesellschaft Vorpommern-Rügen
public_transport=platform
id=node/316078213</desc></wpt><wpt lat="54.2873539" lon="13.089961"><name>Am Umspannwerk</name><desc>bus=yes
bus_routes=4
highway=bus_stop
name=Am Umspannwerk
network=Verkehrsgesellschaft Vorpommern-Rügen
network:guid=DE-MV-VVR
network:short=VVR
network:wikidata=Q23787863
operator=Verkehrsgesellschaft Vorpommern-Rügen
public_transport=platform
id=node/316087531</desc></wpt><wpt lat="54.3325713" lon="13.0662912"><name>Zentralfriedhof</name><desc>bench=yes
bin=yes
bus=yes
highway=bus_stop
lit=yes
name=Zentralfriedhof
network=Verkehrsgesellschaft Vorpommern-Rügen
network:guid=DE-MV-VVR
network:short=VVR
network:wikidata=Q23787863
operator=Verkehrsgesellschaft Vorpommern-Rügen
public_transport=platform
route_ref=1;304;305
shelter=yes
tactile_paving=no
id=node/316103635</desc></wpt><wpt lat="54.3329697" lon="13.065955"><name>Zentralfriedhof</name><desc>bench=no
bin=no
bus=yes
highway=bus_stop
lit=yes
name=Zentralfriedhof
network=Verkehrsgesellschaft Vorpommern-Rügen
network:guid=DE-MV-VVR
network:short=VVR
network:wikidata=Q23787863
operator=Verkehrsgesellschaft Vorpommern-Rügen
public_transport=platform
route_ref=1;304;305
shelter=no
tactile_paving=no
id=node/316103637</desc></wpt><wpt lat="54.3365606" lon="13.0649877"><name>Zur Schwedenschanze</name><desc>bench=yes
bin=yes
bus=yes
highway=bus_stop
lit=yes
name=Zur Schwedenschanze
network=Verkehrsgesellschaft Vorpommern-Rügen
network:guid=DE-MV-VVR
network:short=VVR
network:wikidata=Q23787863
operator=Verkehrsgesellschaft Vorpommern-Rügen
public_transport=platform
route_ref=1
shelter=no
tactile_paving=no
id=node/316103639</desc></wpt><wpt lat="54.3366753" lon="13.0652314"><name>Zur Schwedenschanze</name><desc>bench=no
bin=yes
bus=yes
highway=bus_stop
lit=yes
name=Zur Schwedenschanze
network=Verkehrsgesellschaft Vorpommern-Rügen
network:guid=DE-MV-VVR
network:short=VVR
network:wikidata=Q23787863
operator=Verkehrsgesellschaft Vorpommern-Rügen
public_transport=platform
route_ref=1
shelter=no
tactile_paving=no
id=node/316103642</desc></wpt><wpt lat="54.3405288" lon="13.0667978"><name>Parower Chaussee</name><desc>bench=no
bin=no
bus=yes
highway=bus_stop
lit=yes
name=Parower Chaussee
network=Verkehrsgesellschaft Vorpommern-Rügen
network:guid=DE-MV-VVR
network:short=VVR
network:wikidata=Q23787863
operator=Verkehrsgesellschaft Vorpommern-Rügen
public_transport=platform
route_ref=1;304;305
shelter=yes
tactile_paving=no
id=node/316103643</desc></wpt><wpt lat="54.340387" lon="13.0669138"><name>Parower Chaussee</name><desc>bench=no
bin=no
bus=yes
highway=bus_stop
lit=yes
name=Parower Chaussee
network=Verkehrsgesellschaft Vorpommern-Rügen
network:guid=DE-MV-VVR
network:short=VVR
network:wikidata=Q23787863
operator=Verkehrsgesellschaft Vorpommern-Rügen
public_transport=platform
route_ref=1;304;305
shelter=no
tactile_paving=no
id=node/316103645</desc></wpt><wpt lat="54.3439649" lon="13.0683872"><name>Abzweig Parow</name><desc>bench=no
bin=no
bus=yes
highway=bus_stop
lit=yes
name=Abzweig Parow
network=Verkehrsgesellschaft Vorpommern-Rügen
network:guid=DE-MV-VVR
network:short=VVR
network:wikidata=Q23787863
operator=Verkehrsgesellschaft Vorpommern-Rügen
public_transport=platform
route_ref=1;304;305
shelter=yes
tactile_paving=no
id=node/316103647</desc></wpt>