<gpx xmlns="http://www.topografix.com/GPX/1/1" xmlns:xsi="http://www.w3.org/2001/XMLSchema-instance" xsi:schemaLocation="http://www.topografix.com/GPX/1/1 http://www.topografix.com/GPX/1/1/gpx.xsd" version="1.1" creator="OverpassTurboBatch"><metadata/><wpt lat="51.532554" lon="12.1662681"><name>Landsberg (bei Halle/Saale)</name><desc>name=Landsberg (bei Halle/Saale)
network=Mitteldeutscher Verkehrsverbund
network:short=MDV
network:wikidata=Q1742463
note="Landsberg (b Halle/Saale)" ist die offizielle Betriebsstellenbezeichnung
operator=DB InfraGO
public_transport=station
railway=station
railway:ref=LLBG
short_name=Landsberg (b Halle/Saale)
train=yes
website=https://www.bahnhof.de/landsberg-b-halle-saale
wikidata=Q62107364
id=node/31077761</desc></wpt><wpt lat="51.9206223" lon="11.810498"><name>Calbe (Saale) Ost</name><desc>departures_board=timetable
name=Calbe (Saale) Ost
operator=DB Netz AG
public_transport=station
railway=station
railway:ref=LCBO
railway:station_category=5
uic_name=Calbe(Saale) Ost
uic_ref=8010070
wikidata=Q28119428
wikipedia=de:Bahnhof Calbe (Saale) Ost
id=node/32879635</desc></wpt><wpt lat="52.3386172" lon="11.7597095"><name>Angern-Rogätz</name><desc>name=Angern-Rogätz
public_transport=station
railway=station
railway:ref=LANG
train=yes
uic_ref=8011042
wikidata=Q109442767
id=node/32881709</desc></wpt><wpt lat="52.6676295" lon="11.5948789"><name>Hohenwulsch</name><desc>name=Hohenwulsch
operator=DB InfraGO AG
public_transport=station
railway=station
railway:ref=LHWU
railway:station_category=6
ref:station=2865
train=yes
uic_ref=8010172
wheelchair=yes
wikidata=Q63986223
id=node/32881716</desc></wpt><wpt lat="52.751537" lon="11.4837956"><name>Brunau-Packebusch</name><desc>name=Brunau-Packebusch
operator=DB Netz AG;DB Station&amp;Service AG
public_transport=station
railway=station
railway:ref=LBRP
uic_ref=8011277
wikidata=Q109423059
id=node/32881718</desc></wpt><wpt lat="52.8582934" lon="11.1611006"><name>Salzwedel</name><desc>departures_board=timetable
name=Salzwedel
operator=DB InfraGO AG
public_transport=station
railway=station
railway:ref=LSW
railway:station_category=4
ref:station=5487
toilets:wheelchair=yes
train=yes
uic_ref=8010310
wheelchair=yes
wikidata=Q801391
wikipedia=de:Bahnhof Salzwedel
id=node/32881721</desc></wpt><wpt lat="51.4798304" lon="11.2943896"><name>Sangerhausen</name><desc>addr:city=Sangerhausen
addr:housenumber=33a
addr:postcode=06526
addr:street=Bahnhofstraße
departures_board=timetable
name=Sangerhausen
network=NASA
note=Bahnsteigerneuerung mit Einbau von Aufzügen und Neubau von Bahnsteigdächern bis 2015-09
operator=DB InfraGO AG
public_transport=station
railway=station
railway:ref=USG
railway:station_category=4
ref:IFOPT=de:15087:8010312
ref:station=5505
train=yes
uic_ref=8010312
wheelchair=yes
wikidata=Q9333572
id=node/33836725</desc></wpt><wpt lat="51.4479883" lon="11.9508026"><name>Halle-Südstadt</name><desc>name=Halle-Südstadt
operator=DB InfraGO
public_transport=station
railway=station
railway:ref=LSUE
railway:station_category=6
train=yes
uic_name=Halle Südstadt
uic_ref=8080590
website=https://www.bahnhof.de/halle-suedstadt
wheelchair=yes
wikidata=Q116018769
wikipedia=de:Bahnhof Halle-Südstadt
id=node/42137342</desc></wpt><wpt lat="51.8974718" lon="12.2173582"><name>Rodleben</name><desc>name=Rodleben
operator=DB InfraGO
public_transport=station
railway=station
railway:ref=LROD
railway:ref:parent=LR
railway:station_category=6
uic_ref=8012777
website=https://www.bahnhof.de/rodleben
wheelchair=yes
wikidata=Q55631898
id=node/59909090</desc></wpt><wpt lat="51.4626576" lon="11.6681651"><name>Röblingen am See</name><desc>name=Röblingen am See
operator=DB Netz AG
public_transport=station
railway=station
railway:ref=LRN
railway:station_category=5
uic_ref=8010299
wheelchair=limited
wikidata=Q60569434
id=node/90545284</desc></wpt><wpt lat="51.6678336" lon="12.3542629"><name>Muldenstein</name><desc>name=Muldenstein
operator=DB InfraGO
public_transport=station
railway=station
railway:ref=LMD
ref:ibnr=8012409
train=yes
website=https://www.bahnhof.de/muldenstein
wheelchair=no
wikidata=Q57296105
id=node/100085065</desc></wpt><wpt lat="51.8428247" lon="12.6350748"><name>Pratau</name><desc>name=Pratau
operator=DB InfraGO
public_transport=station
railway=station
railway:ref=LPT
ref:ibnr=8010281
website=https://www.bahnhof.de/pratau
wikidata=Q57985509
id=node/100085314</desc></wpt><wpt lat="51.0083876" lon="12.0127449"><name>Wetterzeube</name><desc>name=Wetterzeube
operator=DB InfraGO
public_transport=station
railway=station
railway:ref=LWZE
railway:station_category=6
train=yes
website=https://www.bahnhof.de/wetterzeube
wikidata=Q110385044
id=node/121914457</desc></wpt><wpt lat="51.8339529" lon="10.7802611"><name>Wernigerode Westerntor</name><desc>departures_board=timetable
name=Wernigerode Westerntor
operator=Harzer Schmalspurbahnen GmbH - HSB
public_transport=station
railway=station
railway:ref=LWDT
train=yes
usage=tourism
wheelchair=no
wikidata=Q107226619
id=node/175662599</desc></wpt><wpt lat="51.8401896" lon="10.7888637"><name>Wernigerode Hbf</name><desc>addr:city=Wernigerode
addr:housenumber=1
addr:postcode=38855
addr:street=Bahnhofsplatz
departures_board=timetable
image=https://commons.wikimedia.org/wiki/File:Bahnhof_Wernigerode_2019-06-30.jpg
name=Wernigerode Hbf
opening_hours=Mo-Fr 05:00-20:00; Sa 07:00-19:00; Su 08:00-20:00
operator=DB InfraGO AG
phone=+49 391 5491055
public_transport=station
railway=station
railway:ref=LWD
railway:station_category=5
ref:IFOPT=de:15085:8010374
ref:station=6692
toilets:wheelchair=yes
train=yes
uic_ref=8010374
wheelchair=yes
wikidata=Q66724417
wikimedia_commons=File:Bahnhof_Wernigerode_2019-06-30.jpg
id=node/175905094</desc></wpt><wpt lat="51.3568506" lon="11.9904345"><name>Merseburg Hauptbahnhof</name><desc>name=Merseburg Hauptbahnhof
old_name=Merseburg
operator=DB InfraGO
public_transport=station
railway=station
railway:ref=LMG
railway:station_category=4
short_name=Merseburg Hbf
toilets:wheelchair=no
uic_name=Merseburg
uic_ref=8010232
website=https://www.bahnhof.de/merseburg-hbf
wheelchair=limited
wikidata=Q17486272
wikipedia=de:Merseburg Hauptbahnhof
id=node/248220535</desc></wpt><wpt lat="51.4774872" lon="11.9872964"><name>Halle (Saale) Hauptbahnhof</name><desc>addr:city=Halle (Saale)
addr:country=DE
addr:housenumber=1
addr:postcode=06112
addr:street=Hans-Dietrich-Genscher-Platz
departures_board=realtime
departures_board:speech_output=no
internet_access=wlan
internet_access:fee=no
name=Halle (Saale) Hauptbahnhof
name:ar=محطة هاله المركزية
name:cs=Halle hlavní nádraží
name:de=Halle (Saale) Hauptbahnhof
name:es=Estación Central de Halle
name:hu=Halle főpályaudvar
official_name=Halle (Saale) Hbf
operator=DB InfraGO
public_transport=station
railway=station
railway:ref=LH
railway:station_category=2
ref:IFOPT=de:15002:8010159
ref:station=2498
short_name=Halle (Saale) Hbf
toilets:wheelchair=yes
train=yes
uic_name=Halle (Saale) Hbf
uic_ref=8010159
website=https://www.bahnhof.de/halle-saale-hbf
wheelchair=yes
wheelchair:description=Man muss Einstieghilfe beantragen (http://hilfeleistung.specials-bahn.de).
wikidata=Q320366
wikipedia=de:Halle (Saale) Hauptbahnhof
id=node/250082941</desc></wpt><wpt lat="51.7804605" lon="13.1141772"><name>Holzdorf (Elster)</name><desc>name=Holzdorf (Elster)
operator=DB InfraGO
public_transport=station
railway=station
railway:ref=LHZ
railway:station_category=7
uic_name=Holzdorf(Elster)
uic_ref=8011909
website=https://www.bahnhof.de/holzdorf-elster
wikidata=Q108669395
id=node/252873702</desc></wpt><wpt lat="51.4935454" lon="11.9493782"><name>Peißnitzbrücke</name><desc>name=Peißnitzbrücke
public_transport=stop_position
railway=station
ref=1
toilets:wheelchair=no
train=yes
usage=leisure
wheelchair=limited
wheelchair:description=Der Bahnhof ist mit dem Rollstuhl erreichbar. Die Mitfahrt im Rollstuhl geht nicht.
id=node/259844771</desc></wpt><wpt lat="51.8993839" lon="11.0733468"><name>Halberstadt Hauptbahnhof</name><desc>addr:city=Halberstadt
addr:country=DE
addr:housenumber=13
addr:postcode=38820
addr:street=Bahnhofstraße
departures_board=timetable
name=Halberstadt Hauptbahnhof
operator=DB InfraGO AG
public_transport=station
railway=station
railway:ref=LHB
railway:station_category=3
ref:station=2490
short_name=Halberstadt Hbf
toilets:wheelchair=yes
train=yes
uic_ref=8010157
wheelchair=yes
wikidata=Q25089213
wikipedia=de:Bahnhof Halberstadt
id=node/266897444</desc></wpt><wpt lat="51.7935093" lon="11.3750795"><name>Frose</name><desc>name=Frose
operator=DB Netz AG;DB Station&amp;Service AG
public_transport=station
railway=station
railway:ref=LFE
railway:station_category=6
uic_ref=8010119
wikidata=Q28152408
id=node/274856656</desc></wpt><wpt lat="52.0307123" lon="11.2275711"><name>Oschersleben (Bode)</name><desc>addr:city=Oschersleben (Bode)
addr:housenumber=3
addr:postcode=39387
addr:street=Am Bahnhof
departures_board=timetable
name=Oschersleben (Bode)
operator=DB InfraGO AG
public_transport=station
railway=station
railway:ref=LO
railway:station_category=6
ref:station=4784
train=yes
uic_ref=8010266
wikidata=Q19835121
id=node/274987597</desc></wpt><wpt lat="51.6203087" lon="11.0435857"><name>Straßberg (Harz)</name><desc>ele=363
name=Straßberg (Harz)
public_transport=station
railway=station
railway:ref=LSTR
train=yes
usage=tourism
wheelchair=no
wikidata=Q33926963
id=node/278184351</desc></wpt><wpt lat="51.7248354" lon="12.4603"><name>Gräfenhainichen</name><desc>name=Gräfenhainichen
operator=DB InfraGO
public_transport=station
railway=station
railway:ref=LG
ref:ibnr=8011683
website=https://www.bahnhof.de/graefenhainichen
wikidata=Q57985445
id=node/278707229</desc></wpt><wpt lat="51.814243" lon="12.1493176"><name>Dessau-Mosigkau</name><desc>name=Dessau-Mosigkau
operator=DB InfraGO
public_transport=station
railway=station
railway:ref=LDMO
ref:IFOPT=de:15001:8011364
uic_ref=8011364
website=https://www.bahnhof.de/dessau-mosigkau
wheelchair=no
wikidata=Q63111455
wikipedia=en:Dessau-Mosigkau station
id=node/279577834</desc></wpt><wpt lat="51.6897897" lon="12.4085696"><name>Burgkemnitz</name><desc>name=Burgkemnitz
operator=DB InfraGO
public_transport=station
railway=station
railway:ref=LBGK
ref:ibnr=8011296
website=https://www.bahnhof.de/burgkemnitz
wikidata=Q57985113
id=node/279592443</desc></wpt><wpt lat="51.8675201" lon="12.6620632"><name>Lutherstadt Wittenberg Hauptbahnhof</name><desc>name=Lutherstadt Wittenberg Hauptbahnhof
operator=DB InfraGO
public_transport=station
railway=station
railway:ref=LW
railway:station_category=3
short_name=Lutherstadt Wittenberg Hbf
uic_ref=8010222
website=https://www.bahnhof.de/lutherstadt-wittenberg-hauptbahnhof
wheelchair=limited
wheelchair:description=Aufzug zu den Bahnsteigen vorhanden
wikidata=Q801132
wikipedia=de:Bahnhof Lutherstadt Wittenberg
id=node/280139991</desc></wpt><wpt lat="51.5182996" lon="11.5509676"><name>Lutherstadt Eisleben</name><desc>check_date:wheelchair=2024-05-18
name=Lutherstadt Eisleben
operator=DB Netz AG
public_transport=station
railway=station
railway:ref=LEL
railway:station_category=5
uic_ref=8012279
wheelchair=limited
wikidata=Q60569431
id=node/280147477</desc></wpt><wpt lat="51.6479816" lon="11.1148732"><name>Alexisbad</name><desc>departures_board=timetable
ele=325
name=Alexisbad
operator=Harzer Schmalspurbahnen GmbH
public_transport=station
railway=station
railway:ref=LAX
train=yes
usage=tourism
wheelchair=no
wikidata=Q800364
id=node/287343873</desc></wpt><wpt lat="51.670245" lon="11.1326674"><name>Mägdesprung</name><desc>departures_board=timetable
ele=295
name=Mägdesprung
public_transport=station
railway=station
railway:ref=LMAE
train=yes
usage=tourism
wheelchair=no
wikidata=Q19274496
id=node/287343945</desc></wpt><wpt lat="51.6433702" lon="11.1423283"><name>Harzgerode</name><desc>bus=no
name=Harzgerode
public_transport=station
railway=station
railway:ref=LHZG
train=yes
tram=no
usage=tourism
wheelchair=no
wikidata=Q42301989
id=node/287344055</desc></wpt><wpt lat="51.6396162" lon="10.9376172"><name>Friedrichshöhe</name><desc>ele=454
name=Friedrichshöhe
public_transport=stop_position
railway=station
railway:ref=LFH
train=yes
usage=tourism
wheelchair=no
id=node/287344202</desc></wpt><wpt lat="51.8009798" lon="12.3903839"><name>Oranienbaum (Anh)</name><desc>name=Oranienbaum (Anh)
official_name=Oranienbaum (Anh)
operator=Dessauer Verkehrs- und Eisenbahngesellschaft
public_transport=station
railway=station
railway:ref=LOR
ref:ibnr=8012564
short_name=Oranienbaum (Anh)
train=yes
wheelchair=limited
wikidata=Q1200897
id=node/292674973</desc></wpt><wpt lat="51.7961756" lon="11.7514838"><name>Bernburg Hbf</name><desc>departures_board=timetable
name=Bernburg Hbf
operator=DB InfraGO AG
public_transport=station
railway=station
railway:ref=LBG
railway:station_category=5
train=yes
uic_ref=8010043
wheelchair=yes
wikidata=Q23933722
wikipedia=de:Bahnhof Bernburg
id=node/300685360</desc></wpt><wpt lat="52.1523479" lon="11.7156965"><name>Biederitz</name><desc>addr:city=Biederitz
addr:housenumber=1
addr:postcode=39175
addr:street=Heyrothsberger Straße
name=Biederitz
operator=DB InfraGO AG
public_transport=station
railway=station
railway:ref=LBZ
railway:station_category=5
ref:station=621
train=yes
uic_ref=8010047
wheelchair=limited
wikidata=Q55605405
id=node/307422637</desc></wpt><wpt lat="51.7547176" lon="12.50406"><name>Radis</name><desc>name=Radis
operator=DB InfraGO
public_transport=station
railway=station
railway:ref=LRA
railway:station_category=6
uic_ref=8012704
website=https://www.bahnhof.de/radis
wikidata=Q57985468
id=node/309443287</desc></wpt><wpt lat="51.905266" lon="11.7579527"><name>Calbe (Saale) West</name><desc>name=Calbe (Saale) West
operator=DB Netz AG
public_transport=station
railway=station
railway:ref=LCBW
railway:station_category=7
uic_name=Calbe(Saale) West
uic_ref=8010071
wikidata=Q30274649
wikipedia=de:Bahnhof Calbe (Saale) West
id=node/312755973</desc></wpt><wpt lat="52.5003042" lon="11.2941793"><name>Solpke</name><desc>name=Solpke
note=Aufgrund von Weichen im Stationsbereich offenbar Bahnhof, kein Haltepunkt
operator=DB Netz AG;DB Station&amp;Service AG
public_transport=station
railway=station
railway:ref=LSK
ref:station=5891
train=yes
wheelchair=yes
id=node/321313121</desc></wpt><wpt lat="52.5184153" lon="11.4045919"><name>Gardelegen</name><desc>name=Gardelegen
operator=DB Netz AG;DB Station&amp;Service AG
public_transport=station
railway=station
railway:ref=LGA
wheelchair=yes
wikidata=Q5522169
id=node/321342784</desc></wpt><wpt lat="52.1978366" lon="11.1234244"><name>Marienborn</name><desc>name=Marienborn
operator=DB Netz AG
public_transport=station
railway=station
railway:ref=LMBN
uic_ref=8012302
wikidata=Q59308460
id=node/335897323</desc></wpt><wpt lat="52.1767909" lon="11.1554609"><name>Wefensleben</name><desc>name=Wefensleben
network=marego
operator=DB Station&amp;Service AG
railway=station
railway:ref=LWF
uic_name=Wefensleben
uic_ref=8013248
wikidata=Q109381920
id=node/335897332</desc></wpt><wpt lat="51.7569838" lon="11.4658067"><name>Aschersleben</name><desc>departures_board=timetable
name=Aschersleben
operator=DB Netz AG
public_transport=station
railway=station
railway:ref=LAL
railway:station_category=4
toilets:wheelchair=yes
train=yes
uic_ref=8010009
wheelchair=yes
wikidata=Q55604288
id=node/344445860</desc></wpt><wpt lat="51.5032195" lon="12.1349545"><name>Reußen</name><desc>name=Reußen
network=S-Bahn Mitteldeutschland
operator=DB InfraGO
public_transport=station
railway=station
railway:ref=LRE
train=yes
uic_ref=8012757
website=https://www.bahnhof.de/reussen
wikidata=Q85796933
wikipedia=en:Reußen station
id=node/355532543</desc></wpt><wpt lat="52.3480109" lon="11.2613956"><name>Flechtingen</name><desc>name=Flechtingen
operator=DB Netz AG
public_transport=station
railway=station
railway:ref=LFG
railway:station_category=6
ref:station=1806
uic_ref=8011544
id=node/358427259</desc></wpt><wpt lat="51.6741196" lon="11.7797781"><name>Könnern</name><desc>departures_board=no
name=Könnern
operator=DB InfraGO AG
public_transport=station
railway=station
railway:ref=LKO
railway:station_category=5
uic_ref=8010194
wikidata=Q30033194
id=node/359969892</desc></wpt><wpt lat="51.6611965" lon="12.2795161"><name>Wolfen (Bitterfeld)</name><desc>name=Wolfen (Bitterfeld)
operator=DB InfraGO
public_transport=station
railway=station
railway:ref=LWO
uic_ref=8013335
website=https://www.bahnhof.de/wolfen-bitterfeld
wheelchair=yes
wikidata=Q57247839
id=node/382368016</desc></wpt><wpt lat="51.7908644" lon="11.7119989"><name>Paradies</name><desc>name=Paradies
public_transport=station
railway=station
station=miniature
usage=leisure
id=node/385315047</desc></wpt><wpt lat="51.7978212" lon="11.7314353"><name>Rosenhag</name><desc>name=Rosenhag
public_transport=station
railway=station
station=miniature
usage=leisure
id=node/385315061</desc></wpt><wpt lat="51.6902241" lon="11.1274818"><name>Sternhaus-Ramberg</name><desc>ele=413
name=Sternhaus-Ramberg
operator=Harzer Schmalspurbahnen GmbH
public_transport=station
railway=station
railway:ref=LSTE
train=yes
usage=tourism
wheelchair=no
wikidata=Q2781732
id=node/409013722</desc></wpt><wpt lat="52.1157443" lon="12.0880386"><name>Loburg</name><desc>name=Loburg
note=ÖPNV abbestellt
operator=Regio Infra Nord-Ost GmbH
railway=station
railway:ref=LLOG
usage=tourism
wheelchair=no
wikidata=Q107041435
id=node/415412772</desc></wpt><wpt lat="51.9983776" lon="11.7235996"><name>Schönebeck-Bad Salzelmen</name><desc>name=Schönebeck-Bad Salzelmen
public_transport=station
railway=station
uic_ref=8012907
wheelchair=yes
wikidata=Q56640416
id=node/417328783</desc></wpt><wpt lat="52.1414543" lon="11.837132"><name>Büden</name><desc>disused:railway=station
name=Büden
note=ÖPNV abbestellt
operator=Regio Infra Nord-Ost GmbH
public_transport=station
railway=station
railway:ref=LBUD
id=node/447341745</desc></wpt><wpt lat="52.4392322" lon="10.9839815"><name>Oebisfelde</name><desc>name=Oebisfelde
on_demand=no
operator=DB Netz AG
public_transport=station
railway=station
railway:ref=LOE
railway:station_category=5
request_stop=yes
train=yes
uic_ref=8010261
wheelchair=no
wikidata=Q801288
wikipedia=de:Bahnhof Oebisfelde
id=node/447379848</desc></wpt><wpt lat="51.9931591" lon="11.9872627"><name>Güterglück</name><desc>name=Güterglück
operator=DB InfraGO
public_transport=station
railway=station
railway:ref=LGK
railway:station_category=6
uic_ref=8010154
website=https://www.bahnhof.de/gueterglueck
wikidata=Q18674683
wikipedia=de:Bahnhof Güterglück
id=node/447727888</desc></wpt><wpt lat="52.4838921" lon="11.2049507"><name>Mieste</name><desc>name=Mieste
operator=DB Netz AG;DB Station&amp;Service AG
public_transport=station
railway=station
railway:ref=LMST
ref:station=4104
uic_ref=8012351
wheelchair=no
id=node/449286925</desc></wpt><wpt lat="51.791027" lon="12.0598147"><name>Elsnigk (Anh)</name><desc>departures_board=realtime
departures_board:speech_output=no
name=Elsnigk (Anh)
operator=DB InfraGO
public_transport=station
railway=station
railway:ref=LEK
uic_ref=8011484
website=https://www.bahnhof.de/elsnigk-anh
wheelchair=no
wikidata=Q62902483
wikipedia=en:Elsnigk (Anh) station
id=node/449330682</desc></wpt><wpt lat="52.4661754" lon="11.1200859"><name>Miesterhorst</name><desc>name=Miesterhorst
operator=DB Netz AG;DB Station&amp;Service AG
public_transport=station
railway=station
railway:ref=LMT
ref:station=4105
train=yes
uic_ref=8012352
id=node/501594384</desc></wpt><wpt lat="51.660635" lon="10.8816239"><name>Stiege</name><desc>ele=485
name=Stiege
operator=Harzer Schmalspurbahnen GmbH
public_transport=station
railway=station
railway:ref=LSTI
train=yes
usage=tourism
wheelchair=no
wikidata=Q15882320
wikipedia=de:Bahnhof Stiege
id=node/731479219</desc></wpt><wpt lat="51.6012451" lon="11.427065"><name>Wippergrund</name><desc>name=Wippergrund
public_transport=station
railway=station
station=miniature
usage=tourism
id=node/838857402</desc></wpt><wpt lat="52.5437242" lon="11.592215"><name>Uchtspringe</name><desc>name=Uchtspringe
note=aufgrund von Weichen im Stationsbereich offenbar Bahnhof (railway=station) statt Haltepunkt (railway=halt)
operator=DB Netz AG;DB Station&amp;Service AG
public_transport=station
railway=station
railway:ref=LUS
train=yes
uic_ref=8013158
wheelchair=yes
wikidata=Q7876759
id=node/1048920006</desc></wpt><wpt lat="51.4412768" lon="11.2971872"><name>Oberröblingen (Helme)</name><desc>name=Oberröblingen (Helme)
public_transport=station
railway=station
railway:ref=UOR
railway:station_category=6
uic_name=Oberröblingen
uic_ref=8012532
wheelchair=no
wikidata=Q116017731
id=node/1169945076</desc></wpt><wpt lat="51.9190304" lon="12.7798014"><name>Zahna</name><desc>name=Zahna
operator=DB InfraGO
public_transport=station
railway=station
railway:ref=LZA
ref:ibnr=8013371
website=https://www.bahnhof.de/zahna
wikidata=Q58000763
id=node/1379847599</desc></wpt><wpt lat="52.1974178" lon="12.1736885"><name>Altengrabow</name><desc>name=Altengrabow
operator=Regio Infra Nord-Ost GmbH
railway=station
railway:ref=LAGR
usage=tourism
wikidata=Q98148452
id=node/1382698731</desc></wpt><wpt lat="51.7543743" lon="10.844431"><name>Rübeland (Harz)</name><desc>disused:railway=station
name=Rübeland (Harz)
official_name=Rübeland
old_name=Rübeland Tropfsteinhöhlen
public_transport=station
railway=station
railway:ref=LRL
short_name=Rübeland
wheelchair=limited
wikidata=Q108597231
id=node/1426366959</desc></wpt><wpt lat="51.6876993" lon="10.8507918"><name>Hasselfelde</name><desc>name=Hasselfelde
operator=Harzer Schmalspurbahnen GmbH
public_transport=station
railway=station
railway:ref=LHAF
usage=tourism
wheelchair=no
wikidata=Q2187100
id=node/1467176231</desc></wpt><wpt lat="52.2333854" lon="12.1965242"><name>Magdeburgerforth</name><desc>name=Magdeburgerforth
operator=Traditionsverein Kleinbahn des Kreises Jerichow 1 e.V.
platforms=1
public_transport=station
railway=station
usage=tourism
wikidata=Q19835116
id=node/1559076637</desc></wpt><wpt lat="51.3889704" lon="11.9919931"><name>Schkopau</name><desc>name=Schkopau
operator=DB InfraGO
public_transport=station
railway=station
railway:ref=LSP
railway:ref:DB=LSP
website=https://www.bahnhof.de/schkopau
wheelchair=no
wikidata=Q114574604
id=node/1643337651</desc></wpt><wpt lat="51.6013347" lon="11.4157945"><name>Mansfeld Schleife</name><desc>name=Mansfeld Schleife
public_transport=station
railway=station
station=miniature
usage=tourism
id=node/1679559685</desc></wpt><wpt lat="51.4879793" lon="11.9079735"><name>Halle-Nietleben</name><desc>layer=1
name=Halle-Nietleben
old_name=Halle (Saale) West
operator=DB InfraGO
public_transport=station
railway=station
railway:ref=LHNI
railway:station_category=6
ref:station=2504
train=yes
uic_ref=8011813
website=https://www.bahnhof.de/halle-nietleben
wikidata=Q64019742
id=node/1763008125</desc></wpt><wpt lat="51.1583828" lon="11.9373734"><name>Prittitz</name><desc>name=Prittitz
public_transport=station
railway=station
railway:ref=UPZ
uic_ref=8012675
wikidata=Q55421883
id=node/1831226313</desc></wpt><wpt lat="51.1338192" lon="12.0166022"><name>Teuchern</name><desc>name=Teuchern
operator=DB Netz AG
public_transport=station
railway=station
railway:ref=UTEU
railway:station_category=6
uic_ref=8010349
wheelchair=no
wikidata=Q55422043
id=node/1831226315</desc></wpt><wpt lat="51.2671869" lon="12.0220357"><name>Großkorbetha</name><desc>name=Großkorbetha
operator=DB InfraGO
public_transport=station
railway=station
railway:ref=LGC
railway:station_category=4
train=yes
uic_ref=8010146
website=https://www.bahnhof.de/grosskorbetha
wikidata=Q56561303
wikipedia=en:Großkorbetha station
id=node/1831270104</desc></wpt><wpt lat="51.1306179" lon="12.2110728"><name>Profen</name><desc>name=Profen
operator=DB InfraGO
public_transport=station
railway=station
railway:ref=LPR
train=yes
website=https://www.bahnhof.de/profen
wheelchair=no
wikidata=Q64027041
id=node/1834162316</desc></wpt><wpt lat="51.9047254" lon="10.8661601"><name>Heudeber-Danstedt</name><desc>addr:city=Heudeber
addr:housenumber=1
addr:postcode=38855
addr:street=Bahnhofstraße
name=Heudeber-Danstedt
operator=DB Netz AG;DB Station&amp;Service AG
public_transport=stop_position
railway=station
railway:ref=LHR
railway:station_category=7
ref=1
ref:station=2756
train=yes
uic_ref=8010169
wheelchair=yes
wikidata=Q90260790
id=node/1928714556</desc></wpt><wpt lat="51.799801" lon="10.6181919"><name>Brocken</name><desc>departures_board=timetable
ele=1125
image=https://upload.wikimedia.org/wikipedia/commons/b/ba/Brockenbahnhof.jpg
name=Brocken
operator=Harzer Schmalspurbahnen GmbH
public_transport=station
railway=station
railway:ref=LBRO
start_date=1898
train=yes
usage=tourism
wheelchair=yes
wikidata=Q387623
wikipedia=de:Bahnhof Brocken
id=node/1952486601</desc></wpt><wpt lat="52.4034411" lon="12.1565378"><name>Genthin</name><desc>addr:city=Genthin
addr:housenumber=2
addr:postcode=39307
addr:street=Schwarzer Weg
departures_board=timetable
name=Genthin
operator=DB Netz AG;DB Station&amp;Service AG
public_transport=station
railway=station
railway:ref=LGN
railway:station_category=4
ref:station=2066
shelter=yes
tactile_paving=yes
train=yes
uic_ref=8010123
wheelchair=yes
wikidata=Q63118998
id=node/2056353835</desc></wpt><wpt lat="51.7651281" lon="10.6776735"><name>Schierke</name><desc>ele=687
image=https://upload.wikimedia.org/wikipedia/commons/9/98/Bahnhof_Schierke_Sommer.jpg
name=Schierke
opening_hours=24/7
operator=Harzer Schmalspurbahnen GmbH
public_transport=station
railway=station
railway:ref=LSCR
source:ele=wikipedia
start_date=1898
train=yes
usage=tourism
wheelchair=yes
wikidata=Q801406
wikipedia=de:Bahnhof Schierke
id=node/2076074987</desc></wpt><wpt lat="51.2046563" lon="11.9710163"><name>Weißenfels</name><desc>name=Weißenfels
operator=DB InfraGO
public_transport=station
railway=station
railway:ref=UW
railway:station_category=3
uic_ref=8010368
website=https://www.bahnhof.de/weissenfels
wheelchair=limited
wikidata=Q9371879
wikipedia=de:Bahnhof Weißenfels
id=node/2104102802</desc></wpt><wpt lat="51.6225986" lon="12.3168951"><name>Bitterfeld</name><desc>addr:city=Bitterfeld-Wolfen
addr:housenumber=1
addr:postcode=06749
addr:street=Bahnhofstraße
name=Bitterfeld
operator=DB InfraGO AG
platforms=6
public_transport=station
railway=station
railway:ref=LBT
railway:station_category=3
ref:station=680
train=yes
uic_ref=8010050
website=https://www.bahnhof.de/bitterfeld
wheelchair=yes
wikidata=Q9172296
wikipedia=de:Bahnhof Bitterfeld
id=node/2480240101</desc></wpt><wpt lat="51.5816098" lon="11.921499"><name>Wallwitz (Saalkreis)</name><desc>name=Wallwitz (Saalkreis)
official_name=Wallwitz (Saalkr)
operator=DB InfraGO AG
public_transport=station
railway=station
railway:ref=LWWZ
railway:station_category=6
short_name=Wallwitz (Saalkr)
uic_name=Wallwitz(Saalkr)
uic_ref=8013220
wheelchair=limited
wikidata=Q109399766
id=node/2622538125</desc></wpt><wpt lat="52.5908992" lon="12.0405431"><name>Schönhausen (Elbe)</name><desc>name=Schönhausen (Elbe)
operator=DB Netz AG;DB Station&amp;Service AG
public_transport=station
railway=station
railway:ref=LSH
railway:station_category=7
ref:station=5663
uic_name=Schönhausen(Elbe)
uic_ref=8010321
id=node/2635299335</desc></wpt><wpt lat="52.1300218" lon="11.5022944"><name>Niederndodeleben</name><desc>name=Niederndodeleben
network=marego
operator=DB Station&amp;Service AG
public_transport=station
railway=station
train=yes
uic_name=Niederndodeleben
uic_ref=8012490
wikidata=Q109386598
id=node/2690374300</desc></wpt><wpt lat="52.143874" lon="11.3425731"><name>Dreileben-Drackenstedt</name><desc>name=Dreileben-Drackenstedt
public_transport=station
railway=station
railway:ref=LDD
uic_ref=8011415
wikidata=Q109382003
id=node/2775989762</desc></wpt><wpt lat="52.1503655" lon="11.2162509"><name>Eilsleben (b Magdeburg)</name><desc>name=Eilsleben (b Magdeburg)
note="Eilsleben (b Magdeburg)" ist die offizielle Betriebsstellenbezeichnung laut Fahrplanmedien und Trassenpreisauskunft (TPIS)
operator=DB Netz AG
public_transport=station
railway=station
railway:ref=LEI
railway:station_category=5
uic_ref=8010096
wikidata=Q109381952
id=node/2775989766</desc></wpt><wpt lat="52.2744115" lon="11.8402498"><name>Burg (b Magdeburg)</name><desc>departures_board=timetable
name=Burg (b Magdeburg)
network=marego
operator=DB Station&amp;Service AG
public_transport=station
railway=station
railway:ref=LBU
ref:station=973
toilets:wheelchair=no
train=yes
uic_name=Burg(Magdeburg)
uic_ref=8011294
wheelchair=yes
wikidata=Q26821706
wikipedia=de:Bahnhof Burg (b Magdeburg)
id=node/2776195486</desc></wpt><wpt lat="52.1775728" lon="11.7419658"><name>Gerwisch</name><desc>addr:city=Biederitz
addr:housenumber=1
addr:postcode=39175
addr:street=Ladestraße
name=Gerwisch
network=marego
operator=DB InfraGO AG
public_transport=station
railway=station
railway:ref=LGWS
railway:station_category=6
ref:station=2108
toilets:wheelchair=no
train=yes
uic_name=Gerwisch
uic_ref=8011630
wheelchair=yes
wikidata=Q55612588
id=node/2776195488</desc></wpt><wpt lat="52.3342293" lon="11.9765141"><name>Güsen</name><desc>addr:city=Elbe-Parey
addr:housenumber=111
addr:postcode=39317
addr:street=Breiter Weg
departures_board=timetable
name=Güsen
network=marego
network:wikidata=Q1883891
operator=DB InfraGO AG
phone=+49 391 5491055
public_transport=station
railway=station
railway:ref=LGSN
railway:station_category=6
ref:station=2425
train=yes
uic_name=Güsen(b Genthin)
uic_ref=8010151
website=https://www.bahnhof.de/bahnhof-de/Guesen__Kr_Genthin_.html
wikidata=Q97674300
wikipedia=de:Bahnhof Güsen (Kr Genthin)
id=node/2776195489</desc></wpt><wpt lat="52.1489057" lon="11.6417987"><name>Magdeburg-Neustadt</name><desc>addr:city=Magdeburg
addr:postcode=39124
addr:street=Gröperstraße
departures_board=timetable
name=Magdeburg-Neustadt
operator=DB Station&amp;Service AG
public_transport=station
railway=station
railway:ref=LMN
railway:station_category=4
ref:station=3887
train=yes
uic_ref=8010226
wheelchair=yes
wikidata=Q55621712
id=node/2776195491</desc></wpt><wpt lat="52.2187018" lon="11.7843677"><name>Möser</name><desc>departures_board=realtime
departures_board:speech_output=yes
name=Möser
network=marego
operator=DB InfraGO AG
public_transport=station
railway=station
railway:ref=LMOS
railway:station_category=6
ref:station=4187
toilets:wheelchair=no
train=yes
uic_ref=8012381
wheelchair=yes
wikidata=Q55624315
id=node/2776195492</desc></wpt><wpt lat="51.2219966" lon="11.6789059"><name>Laucha (Unstrut)</name><desc>name=Laucha (Unstrut)
operator=Deutsche Bahn
public_transport=station
railway=station
railway:ref=ULCH
railway:station_category=7
uic_name=Laucha(Unstrut)
uic_ref=8012167
wheelchair=yes
wikidata=Q42313166
id=node/2831483155</desc></wpt><wpt lat="51.2831804" lon="11.5699914"><name>Nebra</name><desc>name=Nebra
public_transport=station
railway=station
railway:ref=UNE
railway:station_category=6
uic_ref=8012417
wheelchair=limited
wikidata=Q116017669
id=node/2831483158</desc></wpt><wpt lat="51.8398819" lon="12.2347891"><name>Dessau Hauptbahnhof</name><desc>addr:city=Dessau-Roßlau
addr:housenumber=47
addr:postcode=06844
addr:street=Fritz-Hesse-Straße
departures_board=realtime
departures_board:speech_output=no
internet_access=no
loc_name=Hauptbahnhof
name=Dessau Hauptbahnhof
official_name=Dessau Hbf
operator=DB InfraGO
public_transport=station
railway=station
railway:ref=LD
railway:station_category=3
short_name=Dessau Hbf
train=yes
uic_ref=8010077
website=https://www.bahnhof.de/dessau-hbf
wheelchair=yes
wikidata=Q266559
wikipedia=de:Dessau Hauptbahnhof
id=node/2844061660</desc></wpt><wpt lat="51.883838" lon="12.2370501"><name>Roßlau (Elbe)</name><desc>name=Roßlau (Elbe)
note=vor Ort mit dem Zusatz "(Elbe)" beschildert; "LRP" nur Ril100-Kürzel vom Bft
operator=DB InfraGO
public_transport=station
railway=station
railway:ref=LR
railway:station_category=5
train=yes
uic_name=Roßlau(Elbe)
uic_ref=8010302
website=https://www.bahnhof.de/rosslau-elbe
wheelchair=yes
wheelchair:description:de=Unterführung nicht barrierefrei, Aufzug an ÜBerführung vorhanden, alternativ langer Umweg über Straßenbrücke erforderlich
wikidata=Q14906375
wikipedia=de:Bahnhof Roßlau (Elbe)
id=node/2892428835</desc></wpt><wpt lat="51.5706535" lon="12.2631787"><name>Roitzsch (Kr Bitterfeld)</name><desc>name=Roitzsch (Kr Bitterfeld)
official_name=Roitzsch (Kr Bitterfeld)
operator=DB InfraGO
public_transport=station
railway=station
railway:ref=LROI
ref:IFOPT=de:15082:8012788
ref:station=5327
short_name=Roitzsch (Kr Bitterfeld)
uic_name=Roitzsch(Bitterf)
uic_ref=8012788
website=https://www.bahnhof.de/roitzsch-kr-bitterfeld
wheelchair=limited
wikidata=Q112623602
id=node/2918315462</desc></wpt><wpt lat="51.8878356" lon="12.4587523"><name>Coswig (Anhalt)</name><desc>name=Coswig (Anhalt)
official_name=Coswig (Anh)
old_uic_ref=955940
operator=DB InfraGO
public_transport=station
railway=station
railway:ref=LCW
railway:station_category=5
ref:station=1075
uic_name=Coswig(Anh)
uic_ref=8011322
website=https://www.bahnhof.de/coswig-anh
wheelchair=no
wikidata=Q115933093
id=node/2923528550</desc></wpt><wpt lat="51.7927537" lon="12.9546955"><name>Jessen (Elster)</name><desc>name=Jessen (Elster)
operator=DB InfraGO
public_transport=station
railway=station
railway:ref=LJN
railway:station_category=6
uic_name=Jessen(Elster)
uic_ref=8011960
website=https://www.bahnhof.de/jessen-elster
wikidata=Q85771128
wikipedia=en:Jessen (Elster) station
id=node/2923528557</desc></wpt><wpt lat="51.7523008" lon="11.9892892"><name>Köthen</name><desc>name=Köthen
operator=DB InfraGO AG
public_transport=station
railway=station
railway:ref=LK
railway:station_category=3
ref:station=3382
source=Bing
train=yes
uic_ref=8010195
wheelchair=yes
wikidata=Q15107206
wikipedia=de:Bahnhof Köthen
id=node/2975991455</desc></wpt><wpt lat="51.6288867" lon="11.0916075"><name>Silberhütte (Anh)</name><desc>ele=336
name=Silberhütte (Anh)
public_transport=stop_position
railway=station
railway:ref=LSIB
train=yes
usage=tourism
wheelchair=no
id=node/3009010640</desc></wpt><wpt lat="51.5027941" lon="11.4265552"><name>Blankenheim (Sangerhausen)</name><desc>addr:city=Blankenheim
addr:housenumber=1
addr:postcode=06528
addr:street=Bahnhofstraße
name=Blankenheim (Sangerhausen)
official_name=Blankenheim (Kr Sgh) Bez. Kreis
operator=DB InfraGO AG
public_transport=station
railway=station
railway:ref=UBM
railway:station_category=6
ref:station=689
train=yes
uic_ref=8010054
wheelchair=yes
wikidata=Q116019203
wikimedia_commons=Category:Bahnhof Blankenheim (Kr Sangerhausen)
id=node/3051029336</desc></wpt><wpt lat="51.1629266" lon="11.7966387"><name>Naumburg (Saale) Hbf</name><desc>addr:city=Naumburg (Saale)
addr:postcode=06618
departures_board=realtime
departures_board:speech_output=no
description=Zugang mit Rollstuhl nur zu Gleis 1,4 und 5. Um auf Gleis 2 und 3 zu gelangen ist eine vorherige Anmeldung nötig. Mobilitätsservice-Zentrale: 01806512512. Rollstuhlfahrer werden dann vom Bahnpersonal zu den Gleisen gebracht.
name=Naumburg (Saale) Hbf
on_demand=no
operator=DB InfraGO
platforms=5
public_transport=station
railway=station
railway:ref=UNM
railway:station_category=3
ref:station=4309
request_stop=yes
toilets:wheelchair=no
train=yes
uic_ref=8010240
website=https://www.bahnhof.de/naumburg-saale-hbf
wheelchair=limited
wikidata=Q1971888
wikipedia=de:Naumburg (Saale) Hauptbahnhof
id=node/3073802252</desc></wpt><wpt lat="51.4521759" lon="11.0148536"><name>Berga-Kelbra</name><desc>addr:city=Berga
addr:housenumber=19
addr:postcode=06536
addr:street=Bahnhofstraße
name=Berga-Kelbra
operator=DB InfraGO AG
public_transport=station
railway=station
railway:ref=UBK
railway:station_category=6
ref:station=497
train=yes
uic_ref=8010032
wikidata=Q800461
wikipedia=de:Bahnhof Berga-Kelbra
id=node/3074826102</desc></wpt><wpt lat="51.4628903" lon="11.0652797"><name>Roßla</name><desc>ele=153
name=Roßla
operator=DB Netz AG
public_transport=station
railway=station
railway:ref=UROS
railway:station_category=6
ref:station=5357
uic_name=Roßla
uic_ref=8012796
wheelchair=yes
id=node/3074826107</desc></wpt><wpt lat="51.4840456" lon="11.380015"><name>Riestedt</name><desc>fixme=gibt es noch die Weichen oder wurde der Bahnhofs zum Haltepunkt degradiert?
name=Riestedt
operator=DB Station&amp;Service AG
public_transport=station
railway=station
railway:ref=URIE
ref:station=5280
id=node/3087215868</desc></wpt><wpt lat="52.1305167" lon="11.6267187"><name>Magdeburg Hauptbahnhof</name><desc>addr:city=Magdeburg
addr:housenumber=69
addr:postcode=39104
addr:street=Bahnhofstraße
departures_board=realtime
departures_board:speech_output=yes
fare_zone=010
name=Magdeburg Hauptbahnhof
name:ar=محطة ماغدبورغ المركزية
network=marego
official_name=Magdeburg Hbf
operator=DB Station&amp;Service AG
public_transport=station
railway=station
railway:ref=LM
railway:station_category=2
ref:station=3881
short_name=Magdeburg Hbf
start_date=1873
toilets:wheelchair=yes
train=yes
uic_name=Magdeburg Hbf
uic_ref=8010224
wheelchair=yes
wikidata=Q455960
wikipedia=de:Magdeburg Hauptbahnhof
id=node/3087634633</desc></wpt><wpt lat="51.4603139" lon="11.9033441"><name>Angersdorf</name><desc>name=Angersdorf
operator=DB InfraGO
public_transport=station
railway=station
railway:ref=LAG
railway:station_category=6
uic_ref=8011043
website=https://www.bahnhof.de/angersdorf
wikidata=Q64019609
id=node/3089186115</desc></wpt><wpt lat="51.4643912" lon="11.7829782"><name>Teutschenthal</name><desc>name=Teutschenthal
operator=DB Station&amp;Service AG
public_transport=station
railway=station
railway:ref=LTT
train=yes
wheelchair=no
wikidata=Q64019650
id=node/3103594325</desc></wpt><wpt lat="51.574698" lon="11.4919832"><name>Klostermansfeld</name><desc>addr:city=Klostermansfeld
addr:housenumber=15
addr:postcode=06308
addr:street=Hauptstraße
departures_board=timetable
name=Klostermansfeld
operator=DB InfraGO AG
public_transport=station
railway=station
railway:ref=LKM
railway:station_category=6
ref:station=3285
train=yes
uic_ref=8010191
wikidata=Q56559400
id=node/3104362719</desc></wpt><wpt lat="51.3096733" lon="11.9377599"><name>Frankleben</name><desc>name=Frankleben
operator=DB InfraGO
public_transport=station
railway=station
railway:ref=LFA
website=https://www.bahnhof.de/frankleben
wheelchair=no
wikidata=Q116016822
id=node/3246833766</desc></wpt><wpt lat="51.7297785" lon="11.1492998"><name>Gernrode (Harz)</name><desc>departures_board=timetable
name=Gernrode (Harz)
name:historic=Gernrode HSB
old_name=Gernrode HSB
operator=Harzer Schmalspurbahnen GmbH
operator:short=HSB
public_transport=station
railway=station
railway:ref=LGDE
train=yes
uic_name=Gernrode(Harz)
uic_ref=8010127
usage=tourism
wheelchair=no
wikidata=Q2129519
id=node/3255346153</desc></wpt><wpt lat="51.7850433" lon="11.1519399"><name>Quedlinburg</name><desc>addr:city=Quedlinburg
addr:housenumber=1
addr:postcode=06484
addr:street=Bahnhofsplatz
departures_board=timetable
name=Quedlinburg
operator=DB InfraGO AG
phone=+49 391 5491055
public_transport=station
railway=station
railway:ref=LQB
railway:station_category=5
ref:station=5068
toilets:wheelchair=no
train=yes
uic_ref=8010290
website=https://www.bahnhof.de/bahnhof-de/Quedlinburg.html?hl=quedlinburg
wheelchair=limited
wikidata=Q187367
wikipedia=de:Bahnhof Quedlinburg
id=node/3256649959</desc></wpt><wpt lat="51.7703685" lon="10.7271247"><name>Drei Annen Hohne</name><desc>ele=540
image=http://upload.wikimedia.org/wikipedia/commons/e/ed/Drei_Annen_Hohne_Bahnhof.JPG
name=Drei Annen Hohne
operator=Harzer Schmalspurbahnen GmbH
public_transport=station
railway=station
railway:ref=LDAH
start_date=1898
train=yes
usage=tourism
wheelchair=yes
wikidata=Q800685
wikipedia=de:Bahnhof Drei Annen Hohne
id=node/3326686677</desc></wpt><wpt lat="51.7459679" lon="10.6901482"><name>Elend</name><desc>name=Elend
public_transport=station
railway=station
railway:ref=LELD
usage=tourism
wheelchair=no
wikidata=Q79410207
id=node/3326701925</desc></wpt><wpt lat="51.575405" lon="11.4918767"><name>Benndorf</name><desc>name=Benndorf
operator=Mansfelder Bergwerksbahn e.V.
railway=station
train=yes
usage=tourism
id=node/3365550082</desc></wpt><wpt lat="51.8691916" lon="10.6830061"><name>Ilsenburg</name><desc>departures_board=timetable
name=Ilsenburg
operator=DB InfraGO AG
public_transport=station
railway=station
railway:ref=LIG
railway:station_category=6
ref:station=2980
train=yes
uic_name=Ilsenburg
uic_ref=8011933
wheelchair=yes
wikidata=Q66724523
id=node/3377223130</desc></wpt><wpt lat="52.1091216" lon="11.6300728"><name>Magdeburg-Buckau</name><desc>addr:city=Magdeburg
addr:housenumber=16
addr:postcode=39104
addr:street=Porsestraße
name=Magdeburg-Buckau
operator=DB Netz AG;DB Station&amp;Service AG
platforms=2
public_transport=station
railway=station
railway:ref=LMB
railway:station_category=4
ref:station=3884
train=yes
uic_ref=8013456
wheelchair=yes
wikidata=Q15927310
wikipedia=de:Bahnhof Magdeburg-Buckau
id=node/3381427934</desc></wpt><wpt lat="51.3869387" lon="11.6040442"><name>Querfurt</name><desc>addr:city=Querfurt
addr:housenumber=43
addr:postcode=06268
addr:street=Döcklitzer Tor
departures_board=timetable
name=Querfurt
operator=DB InfraGO AG
public_transport=station
railway=station
railway:ref=LQ
railway:station_category=6
ref:station=5071
train=yes
uic_ref=8010291
website=https://www.bahnhof.de/querfurt
wikidata=Q56757570
wikipedia=de:Bahnhof Querfurt
id=node/3414465879</desc></wpt><wpt lat="51.3893954" lon="11.8720381"><name>Bad Lauchstädt</name><desc>name=Bad Lauchstädt
note=Nur noch Sonderzugverkehr
operator=ZossenRail Betriebsgesellschaft
public_transport=station
railway=station
railway:ref=LLAU
wikidata=Q78082451
id=node/3415235575</desc></wpt><wpt lat="51.8323642" lon="12.8273444"><name>Elster (Elbe)</name><desc>name=Elster (Elbe)
operator=DB InfraGO
public_transport=station
railway=station
railway:ref=LELT
ref:ibnr=8011486
ref:station=1566
train=yes
website=https://www.bahnhof.de/elster-elbe
wikidata=Q115932065
id=node/3606846367</desc></wpt><wpt lat="51.4241501" lon="11.9878916"><name>Halle-Ammendorf</name><desc>addr:city=Halle (Saale)
addr:country=DE
addr:postcode=06132
addr:street=Bahnhofstraße
fare_zone=210;233
name=Halle-Ammendorf
network=Mitteldeutscher Verkehrsverbund
network:short=MDV
network:wikidata=Q1742463
operator=DB InfraGO
public_transport=station
railway=station
railway:ref=LHAD
railway:station_category=6
ref:station=2501
station_management=Halle (Saale)
train=yes
uic_name=Halle-Ammendorf
uic_ref=8010162
website=https://www.bahnhof.de/halle-ammendorf
wheelchair=yes
wikidata=Q102116614
id=node/3646752440</desc></wpt><wpt lat="51.8515572" lon="11.5878747"><name>Staßfurt</name><desc>departures_board=realtime
departures_board:speech_output=no
name=Staßfurt
operator=DB Netz AG
public_transport=station
railway=station
railway:ref=LSF
railway:station_category=5
uic_ref=8010332
wheelchair=yes
wikidata=Q62909499
id=node/3688452069</desc></wpt><wpt lat="51.5792375" lon="11.504745"><name>Bocksthal</name><desc>name=Bocksthal
network=Mansfelder Bergwerksbahn
operator=Mansfelder Bergwerksbahn e.V.
public_transport=station
railway=station
railway:position=1,2
train=yes
usage=tourism
id=node/3901345077</desc></wpt><wpt lat="51.5827998" lon="11.5261519"><name>Zirkelschacht</name><desc>name=Zirkelschacht
network=Mansfelder Bergwerksbahn
operator=Mansfelder Bergwerksbahn e.V.
public_transport=station
railway=station
train=yes
usage=tourism
id=node/3901345079</desc></wpt><wpt lat="51.6330679" lon="11.510965"><name>Hettstedt Kupferkammerhütte</name><desc>name=Hettstedt Kupferkammerhütte
public_transport=station
railway=station
usage=tourism
id=node/4085293289</desc></wpt><wpt lat="51.4800708" lon="11.9206514"><name>Halle-Neustadt</name><desc>name=Halle-Neustadt
name:ar=هاله نويشتات
name:de=Halle-Neustadt
name:en=Halle-Neustadt
name:es=Halle-Neustadt
operator=DB InfraGO
public_transport=station
railway=station
railway:ref=LHN
railway:station_category=4
uic_ref=8010160
website=https://www.bahnhof.de/halle-neustadt
wheelchair=limited
wikidata=Q24765621
wikipedia=de:Bahnhof Halle-Neustadt
id=node/4183634619</desc></wpt><wpt lat="52.7876248" lon="11.760473"><name>Osterburg</name><desc>name=Osterburg
name:ja=オスターブルク
operator=DB InfraGO AG
public_transport=station
railway=station
railway:ref=LOB
ref:station=4789
train=yes
uic_ref=8012568
wikidata=Q7107653
id=node/4374210037</desc></wpt><wpt lat="52.0188151" lon="11.732941"><name>Schönebeck (Elbe)</name><desc>addr:city=Schönebeck (Elbe)
addr:housenumber=39
addr:postcode=39218
addr:street=Bahnhofstraße
departures_board=realtime
departures_board:speech_output=no
name=Schönebeck (Elbe)
operator=DB Netz AG;DB Station&amp;Service AG
public_transport=station
railway=station
railway:ref=LSB
railway:station_category=3
ref:station=5645
train=yes
uic_ref=8010318
wheelchair=yes
wikidata=Q9334526
id=node/4465796002</desc></wpt><wpt lat="52.5946768" lon="11.8548875"><name>Stendal Hauptbahnhof</name><desc>name=Stendal Hauptbahnhof
official_name=Stendal Hauptbahnhof
official_name:note=Nur 5 Hbf heißen laut Betriebsstellenverzeichnis offiziell 'Hauptbahnhof': Berlin, Bernburg, Merseburg, Stendal und Wernigerode.
on_demand=no
operator=DB InfraGO AG
public_transport=station
railway=station
railway:ref=LS
railway:station_category=3
ref:station=6010
request_stop=yes
toilets:wheelchair=no
train=yes
uic_ref=8010334
wheelchair=yes
wikidata=Q801468
wikipedia=de:Stendal Hauptbahnhof
id=node/4530819998</desc></wpt><wpt lat="52.2849843" lon="11.4062749"><name>Haldensleben</name><desc>addr:city=Haldensleben
addr:housenumber=1
addr:place=Bahnhofsplatz
addr:postcode=39340
departures_board=timetable
name=Haldensleben
network=marego
network:wikidata=Q1883891
network:wikipedia=de:Magdeburger Regionalverkehrsverbund
operator=DB InfraGO AG
public_transport=station
railway=station
railway:ref=LHL
railway:station_category=5
ref:station=2493
train=yes
uic_ref=8010158
wheelchair=yes
wikidata=Q15222593
id=node/4618527604</desc></wpt><wpt lat="51.8167975" lon="10.7264456"><name>Steinerne Renne</name><desc>check_date:wheelchair=2023-04-26
name=Steinerne Renne
public_transport=station
railway=station
railway:ref=LSR
usage=tourism
wheelchair=no
wikidata=Q108692580
id=node/4730466678</desc></wpt><wpt lat="51.8200859" lon="10.7435681"><name>Wernigerode-Hasserode</name><desc>name=Wernigerode-Hasserode
public_transport=station
railway=station
railway:ref=LWDH
train=yes
usage=tourism
wheelchair=no
wikidata=Q108053440
id=node/4730466679</desc></wpt><wpt lat="52.2089425" lon="11.6211346"><name>Barleben</name><desc>name=Barleben
network=marego
network:wikidata=Q1883891
network:wikipedia=de:Magdeburger Regionalverkehrsverbund
operator=DB InfraGO AG
public_transport=station
railway=station
railway:station_category=6
ref:IFOPT=de:15083:8011111
ref:station=410
toilets:wheelchair=no
train=yes
uic_ref=8011111
wheelchair=yes
id=node/4731047562</desc></wpt><wpt lat="52.4089206" lon="11.1236132"><name>Rätzlingen</name><desc>name=Rätzlingen
operator=DB Netz AG
public_transport=station
railway=station
railway:ref=LRI
railway:station_category=6
ref:station=5140
train=yes
uic_ref=8012705
id=node/4731214341</desc></wpt><wpt lat="51.0564136" lon="12.1315324"><name>Zeitz</name><desc>name=Zeitz
operator=DB InfraGO
public_transport=station
railway=station
railway:ref=LZ
railway:station_category=4
toilets:wheelchair=no
train=yes
uic_ref=8010390
website=https://www.bahnhof.de/zeitz
wheelchair=yes
wikidata=Q121435195
wikipedia=de:Bahnhof Zeitz
id=node/4946138962</desc></wpt><wpt lat="51.7931795" lon="11.6018062"><name>Güsten</name><desc>name=Güsten
operator=DB Netz AG;DB Station&amp;Service AG
public_transport=station
railway=station
railway:ref=LGT
railway:station_category=5
train=yes
uic_ref=8010152
wheelchair=no
wikidata=Q61968440
id=node/5521742778</desc></wpt><wpt lat="51.7631113" lon="11.7843627"><name>Baalberge</name><desc>name=Baalberge
operator=DB InfraGO AG
public_transport=station
railway=station
railway:ref=LBB
railway:station_category=6
uic_ref=8010013
wikidata=Q28656475
wikipedia=de:Bahnhof Baalberge
id=node/5521742804</desc></wpt><wpt lat="51.6786228" lon="11.5597978"><name>Sandersleben (Anh)</name><desc>departures_board=timetable
name=Sandersleben (Anh)
operator=DB Netz AG
public_transport=station
railway=station
railway:ref=LSL
railway:station_category=4
uic_name=Sandersleben(Anh)
uic_ref=8010311
wheelchair=no
wikidata=Q37692153
wikipedia=de:Bahnhof Sandersleben (Anh)
id=node/5546585679</desc></wpt><wpt lat="51.5006292" lon="12.0544187"><name>Peißen</name><desc>name=Peißen
operator=DB InfraGO
public_transport=station
railway=station
railway:ref=LPE
railway:ref:count=1/2
railway:station_category=6
train=yes
uic_ref=8012619
website=https://www.bahnhof.de/peissen
wikidata=Q85792669
wikipedia=en:Peißen station
id=node/5622246252</desc></wpt><wpt lat="52.2509602" lon="11.6359623"><name>Wolmirstedt</name><desc>name=Wolmirstedt
platforms=3
public_transport=station
railway=station
railway:ref=LWLS
train=yes
uic_ref=8013344
website=https://www.bahnhof.de/wolmirstedt/
wheelchair=yes
wikidata=Q55637851
id=node/5682467386</desc></wpt><wpt lat="52.2963811" lon="11.6803076"><name>Zielitz</name><desc>name=Zielitz
public_transport=station
railway=station
service=no
uic_ref=8013402
wikidata=Q109442789
id=node/5682467388</desc></wpt><wpt lat="51.130808" lon="11.7182716"><name>Bad Kösen</name><desc>name=Bad Kösen
operator=DB InfraGO
public_transport=station
railway=station
railway:ref=UKO
train=yes
website=https://www.bahnhof.de/bad-koesen
wheelchair=no
wikidata=Q56544015
wikipedia=en:Bad Kösen station
id=node/5994217611</desc></wpt><wpt lat="51.6081561" lon="11.5409717"><name>Siersleben</name><desc>name=Siersleben
network=Mansfelder Bergwerksbahn
operator=Mansfelder Bergwerksbahn e.V.
public_transport=station
railway=station
train=yes
wikidata=Q109897238
id=node/6103488011</desc></wpt><wpt lat="51.7459162" lon="11.0308045"><name>Thale Hauptbahnhof</name><desc>addr:city=Thale
addr:country=DE
addr:housenumber=1
addr:postcode=06502
addr:street=Bahnhofstraße
departures_board=timetable
internet_access=no
name=Thale Hauptbahnhof
official_name=Thale Hbf
operator=DB InfraGO AG
public_transport=station
railway=station
railway:ref=LTL
railway:station_category=5
ref:station=6184
short_name=Thale Hbf
start_date=1862
train=yes
uic_name=Thale Hbf
uic_ref=8013112
wheelchair=yes
wikidata=Q2408765
wikipedia=de:Thale Hauptbahnhof
id=node/6506240506</desc></wpt><wpt lat="51.3074531" lon="11.8046138"><name>Mücheln (Geiseltal)</name><desc>name=Mücheln (Geiseltal)
operator=DB InfraGO
public_transport=station
railway=station
railway:ref=LMCH
toilets:wheelchair=no
website=https://www.bahnhof.de/muecheln-geiseltal
wheelchair=no
wikidata=Q116017642
id=node/6533916081</desc></wpt><wpt lat="52.5691497" lon="11.6719988"><name>Vinzelberg</name><desc>name=Vinzelberg
note=Haltepunkt
operator=DB Netz AG;DB Station&amp;Service AG
public_transport=station
railway=station
railway:ref=LVG
ref:station=6425
shelter=no
tactile_paving=no
train=yes
uic_ref=8013194
wheelchair=no
id=node/6535074318</desc></wpt><wpt lat="52.5195496" lon="11.4925124"><name>Jävenitz</name><desc>name=Jävenitz
note=Aufgrund von Weichen im Stationsbereich offenbar Bahnhof, kein Haltepunkt
operator=DB Netz AG;DB Station&amp;Service AG
public_transport=station
railway=station
railway:ref=LJV
uic_ref=8011946
wheelchair=no
wikidata=Q6320030
id=node/6535074319</desc></wpt><wpt lat="51.8604786" lon="10.9794782"><name>Langenstein</name><desc>addr:city=Halberstadt
addr:housenumber=38
addr:postcode=38895
addr:street=Bahnhofstraße
name=Langenstein
operator=DB InfraGO AG
public_transport=station
railway=station
railway:ref=LLAG
railway:station_category=6
ref:station=3551
train=yes
uic_ref=8012161
wikidata=Q116017477
id=node/6535502474</desc></wpt><wpt lat="51.8825567" lon="11.0485637"><name>Halberstadt-Spiegelsberge</name><desc>addr:city=Halberstadt
addr:country=DE
addr:housenumber=8
addr:postcode=38820
addr:street=Klopstockstraße
name=Halberstadt-Spiegelsberge
operator=DB InfraGO AG
public_transport=station
railway=station
railway:ref=LHBS
railway:station_category=7
ref:station=2491
train=yes
uic_ref=8011809
wheelchair=yes
id=node/6535502475</desc></wpt><wpt lat="51.7959504" lon="10.9612272"><name>Blankenburg (Harz)</name><desc>addr:city=Blankenburg (Harz)
addr:country=DE
addr:housenumber=4
addr:postcode=38889
addr:street=Bahnhofstraße
name=Blankenburg (Harz)
operator=DB InfraGO AG
public_transport=station
railway=station
railway:ref=LBK
railway:station_category=5
ref:station=686
start_date=1873-03-31
train=yes
uic_ref=8013439
wikidata=Q322393
wikipedia=de:Bahnhof Blankenburg (Harz)
id=node/6535502476</desc></wpt><wpt lat="52.1340494" lon="11.75629"><name>Königsborn</name><desc>name=Königsborn
public_transport=station
railway=station
railway:ref=LKB
train=yes
uic_ref=8012066
wheelchair=yes
wikidata=Q55616341
id=node/6596850665</desc></wpt><wpt lat="51.1553401" lon="11.8237954"><name>Naumburg (Saale) Ost</name><desc>name=Naumburg (Saale) Ost
operator=ZossenRail Betriebsgesellschaft
public_transport=station
railway=station
railway:ref=UNMO
uic_ref=8012415
wikidata=Q56543403
wikipedia=en:Naumburg (Saale) Ost station
id=node/6647237431</desc></wpt><wpt lat="51.0905964" lon="12.1075264"><name>Theißen</name><desc>name=Theißen
operator=DB InfraGO
public_transport=station
railway=station
railway:ref=LT
uic_ref=8013115
website=https://www.bahnhof.de/theissen
wikidata=Q116018911
id=node/6695657767</desc></wpt><wpt lat="51.1106649" lon="12.0686263"><name>Deuben (b Zeitz)</name><desc>name=Deuben (b Zeitz)
public_transport=station
railway=station
railway:ref=LDB
ref:station=1185
uic_ref=8010078
id=node/6699137854</desc></wpt><wpt lat="51.9467722" lon="11.6768734"><name>Eickendorf</name><desc>name=Eickendorf
operator=DB InfraGO AG
public_transport=station
railway=station
railway:ref=LEF
railway:station_category=6
ref:station=1509
train=yes
uic_ref=8011462
wikidata=Q109399283
id=node/6703898258</desc></wpt><wpt lat="51.6162117" lon="12.0666276"><name>Stumsdorf</name><desc>name=Stumsdorf
operator=DB Station&amp;Service AG
public_transport=station
railway=station
railway:ref=LSTF
wheelchair=limited
wikidata=Q108803789
id=node/7034649937</desc></wpt><wpt lat="51.5510664" lon="12.0991787"><name>Niemberg</name><desc>bus=yes
internet_access=no
name=Niemberg
operator=DB Station&amp;Service AG
public_transport=station
railway=station
railway:ref=LNM
train=yes
wheelchair=yes
wikidata=Q108798564
id=node/7034649938</desc></wpt><wpt lat="52.0738881" lon="11.8390275"><name>Gommern</name><desc>name=Gommern
public_transport=station
railway=station
railway:ref=LGO
uic_ref=8011673
wheelchair=limited
wikidata=Q54232744
id=node/8316780862</desc></wpt><wpt lat="52.2270159" lon="12.1881296"><name>Magdeburgerforth Mitte</name><desc>name=Magdeburgerforth Mitte
public_transport=station
railway=station
wheelchair=limited
id=node/8509849914</desc></wpt><wpt lat="51.7589959" lon="12.4459274"><name>Gräfenhainichen Ferropolis</name><desc>name=Gräfenhainichen Ferropolis
operator=ELS Eisenbahn Logistik und Service
public_transport=station
railway=station
railway:ref=LGFP
train=yes
wikidata=Q135306601
id=node/9017373394</desc></wpt><wpt lat="51.7217599" lon="11.5158173"><name>Drohndorf-Mehringen</name><desc>departures_board=timetable
name=Drohndorf-Mehringen
operator=DB Station&amp;Service AG
public_transport=station
railway=station
railway:ref=LDM
train=yes
wikidata=Q109398118
id=node/9095067318</desc></wpt><wpt lat="51.8029956" lon="11.3328886"><name>Nachterstedt-Hoym</name><desc>name=Nachterstedt-Hoym
operator=DB Station&amp;Service AG
public_transport=station
railway=station
railway:ref=LNHM
wikidata=Q109418536
id=node/9095067322</desc></wpt><wpt lat="51.5240759" lon="11.9622698"><name>Halle-Trotha</name><desc>layer=1
name=Halle-Trotha
operator=DB InfraGO
public_transport=station
railway=station
railway:ref=LHT
ref:ibnr=8011814
train=yes
website=https://www.bahnhof.de/halle-trotha
wheelchair=yes
wikidata=Q9285520
wikipedia=de:Bahnhof Halle-Trotha
id=node/9419393270</desc></wpt><wpt lat="51.6736813" lon="10.7147412"><name>Benneckenstein</name><desc>name=Benneckenstein
public_transport=station
railway=station
train=yes
usage=tourism
wheelchair=yes
wikidata=Q76831776
id=node/9945157006</desc></wpt><wpt lat="51.2886939" lon="11.8847539"><name>Braunsbedra</name><desc>name=Braunsbedra
operator=DB InfraGO
public_transport=station
railway=station
railway:ref=LBS
train=yes
website=https://www.bahnhof.de/braunsbedra
wheelchair=yes
wikidata=Q116024892
id=node/12426589714</desc></wpt><wpt lat="51.8393879" lon="10.7883819"><name>Wernigerode HSB</name><desc>name=Wernigerode HSB
operator=Harzer Schmalspurbahnen GmbH - HSB
public_transport=station
railway=station
railway:ref=LWD
train=yes
usage=tourism
id=node/12504363876</desc></wpt><wpt lat="51.636971" lon="11.5132778"><name>Hettstedt</name><desc>name=Hettstedt
operator=DB InfraGO AG
public_transport=station
railway=station
railway:ref=LHE
railway:station_category=6
ref:station=2752
train=yes
uic_ref=8010168
wheelchair=yes
id=node/12960059018</desc></wpt><wpt lat="52.2353313" lon="11.5257754"><name>Groß Ammensleben</name><desc>addr:city=Niedere Börde
addr:housenumber=19
addr:postcode=39326
addr:street=Bahnhofstraße
name=Groß Ammensleben
network=marego
network:wikidata=Q1883891
operator=DB InfraGO AG
public_transport=station
railway=station
railway:ref=LGRL
railway:station_category=6
ref:station=2291
train=yes
uic_ref=8011714
wikidata=Q116016907
id=node/12976982512</desc></wpt><wpt lat="51.8379057" lon="12.4216311"><name>Wörlitz</name><desc>name=Wörlitz
operator=Dessauer Verkehrs- und Eisenbahngesellschaft
public_transport=station
railway=station
railway:ref=LWOZ
ref:ibnr=8013332
train=yes
website=http://www.dwe-web.info
wikidata=Q108585031
id=node/12998046300</desc></wpt><trk><name>U-Bahnstation Neustädter Straße</name><desc>building=yes
building:material=concrete
height=2.5
public_transport=station
railway=station
ref=U-Bahnstation Neustädter Straße
station=subway
subway=yes
id=way/585964550</desc><trkseg><trkpt lat="52.485794" lon="11.608255"/><trkpt lat="52.4856975" lon="11.6082035"/><trkpt lat="52.4856854" lon="11.6082644"/><trkpt lat="52.485782" lon="11.6083159"/><trkpt lat="52.4857877" lon="11.608287"/><trkpt lat="52.485794" lon="11.608255"/></trkseg></trk><trk><name>way/978478334</name><desc>building=yes
building:material=concrete
height=2.5
public_transport=station
railway=station
station=subway
subway=yes
id=way/978478334</desc><trkseg><trkpt lat="52.4847048" lon="11.6076581"/><trkpt lat="52.4846046" lon="11.6076042"/><trkpt lat="52.4845929" lon="11.6076628"/><trkpt lat="52.484693" lon="11.6077168"/><trkpt lat="52.4847048" lon="11.6076581"/></trkseg></trk></gpx>