<gpx xmlns="http://www.topografix.com/GPX/1/1" xmlns:xsi="http://www.w3.org/2001/XMLSchema-instance" xsi:schemaLocation="http://www.topografix.com/GPX/1/1 http://www.topografix.com/GPX/1/1/gpx.xsd" version="1.1" creator="OverpassTurboBatch"><metadata/><wpt lat="49.3278137" lon="7.3365309"><name>Homburg (Saar) Hauptbahnhof</name><desc>name=Homburg (Saar) Hauptbahnhof
operator=DB Netz AG;DB Station&amp;Service AG
public_transport=station
railway=station
railway:ref=SHO
railway:station_category=3
short_name=Homburg (Saar) Hbf
toilets:wheelchair=yes
train=yes
uic_name=Homburg(Saar)Hbf
uic_ref=8000176
website=https://www.bahn.de/
wheelchair=yes
wheelchair:description=Behindertentoilette und -parkplätze sowie Aufzug vorhanden
wikidata=Q324828
wikipedia=de:Homburg (Saar) Hauptbahnhof
id=node/117552968</desc></wpt><wpt lat="49.2488073" lon="6.8492341"><name>Völklingen</name><desc>addr:city=Völklingen
addr:housenumber=55
addr:postcode=66333
addr:street=Rathausstraße
name=Völklingen
operator=DB Netz AG;DB Station&amp;Service AG
public_transport=station
railway=station
railway:position=10.7
railway:ref=SVL
railway:station_category=3
ref:station=6445
toilets:wheelchair=no
train=yes
uic_ref=8000175
wheelchair=yes
wikidata=Q801570
wikipedia=de:Bahnhof Völklingen
id=node/245597940</desc></wpt><wpt lat="49.2411972" lon="6.990794"><name>Saarbrücken Hauptbahnhof</name><desc>name=Saarbrücken Hauptbahnhof
name:de=Saarbrücken Hauptbahnhof
name:en=Saarbrücken Central Station
name:fr=Gare centrale de Sarrebruck
official_name=Saarbrücken Hbf
operator=DB InfraGO AG
public_transport=station
railway=station
railway:ref=SSH
railway:station_category=2
ref:station=5451
toilets:wheelchair=yes
uic_ref=8000323
wheelchair=yes
wikidata=Q127089
wikipedia=de:Saarbrücken Hauptbahnhof
id=node/259449966</desc></wpt><wpt lat="49.3200617" lon="7.0891829"><name>Friedrichsthal</name><desc>name=Friedrichsthal
official_name=Friedrichsthal (Saar)
operator=DB Netz AG;DB Station&amp;Service AG
public_transport=station
railway=station
railway:ref=SFI
railway:station_category=6
uic_name=Friedrichsthal(Saar)
uic_ref=8002117
wheelchair=no
wikidata=Q800792
wikipedia=de:Bahnhof Friedrichsthal (Saar)
id=node/264464782</desc></wpt><wpt lat="49.466972" lon="7.1653135"><name>Sankt Wendel</name><desc>name=Sankt Wendel
official_name=St Wendel
operator=DB Netz AG;DB Station&amp;Service AG
public_transport=station
railway=station
railway:ref=SSWD
railway:station_category=4
toilets:wheelchair=no
train=yes
uic_name=St Wendel
uic_ref=8005659
wheelchair=yes
wikidata=Q15785205
wikipedia=de:Bahnhof St. Wendel
id=node/264464826</desc></wpt><wpt lat="49.3532843" lon="7.1768732"><name>Neunkirchen (Saar) Hbf</name><desc>name=Neunkirchen (Saar) Hbf
operator=DB Netz AG;DB Station&amp;Service AG
public_transport=station
railway=station
railway:ref=SNK
railway:station_category=3
ref:station=4426
toilets:wheelchair=no
train=yes
uic_name=Neunkirchen(Saar)Hbf
uic_ref=8000272
wheelchair=yes
wikidata=Q1981065
wikipedia=de:Neunkirchen (Saar) Hauptbahnhof
id=node/264464845</desc></wpt><wpt lat="49.2746602" lon="7.1107204"><name>St. Ingbert</name><desc>name=St. Ingbert
official_name=St Ingbert
operator=DB Netz AG;DB Station&amp;Service AG
public_transport=station
railway=station
railway:ref=SSI
railway:station_category=3
ref:station=5942
toilets:wheelchair=no
train=yes
uic_ref=8005649
wheelchair=yes
wikidata=Q322404
wikipedia=de:Bahnhof St. Ingbert
id=node/277741767</desc></wpt><wpt lat="49.2773543" lon="7.0273432"><name>Saarbrücken-Dudweiler</name><desc>name=Saarbrücken-Dudweiler
official_name=Dudweiler
operator=DB Netz AG;DB Station&amp;Service AG
public_transport=station
railway=station
railway:ref=SDUW
railway:station_category=6
ref:station=1373
uic_ref=8001570
wheelchair=no
id=node/290986432</desc></wpt><wpt lat="49.2766801" lon="7.1576511"><name>Rohrbach (Saar)</name><desc>name=Rohrbach (Saar)
operator=DB Netz AG;DB Station&amp;Service AG
public_transport=station
railway=station
railway:ref=SRO
railway:station_category=5
train=yes
uic_name=Rohrbach(Saar)
uic_ref=8000319
wheelchair=limited
wikidata=Q801371
wikipedia=de:Bahnhof Rohrbach (Saar)
id=node/291866612</desc></wpt><wpt lat="49.3457227" lon="7.254184"><name>Bexbach</name><desc>name=Bexbach
operator=DB Netz AG;DB Station&amp;Service AG
public_transport=station
railway=station
railway:position=7.511
railway:ref=SBX
railway:station_category=6
ref:IFOPT=de:10045:98703
ref:station=609
uic_ref=8000941
wheelchair=limited
wikidata=Q800518
wikipedia=de:Bahnhof Bexbach
id=node/294027646</desc></wpt><wpt lat="49.4089619" lon="6.9680096"><name>Eppelborn</name><desc>departures_board=realtime
departures_board:speech_output=yes
name=Eppelborn
operator=DB Netz AG
public_transport=station
railway=station
railway:ref=SEP
railway:station_category=5
ref:ESTW=50
ref:IFOPT=de:10043:99203
ref:station=1612
stop_id=10043
train=yes
uic_ref=8001812
wheelchair=yes
wikidata=Q108502864
id=node/303110591</desc></wpt><wpt lat="49.5056885" lon="6.7468745"><name>Museumsbahn Losheim</name><desc>name=Museumsbahn Losheim
public_transport=station
railway=station
usage=tourism
id=node/316032674</desc></wpt><wpt lat="49.4365845" lon="6.6341891"><name>Merzig (Saar)</name><desc>name=Merzig (Saar)
operator=DB Netz AG
public_transport=station
railway=station
railway:position=39,2
railway:ref=SMZG
railway:station_category=3
toilets:wheelchair=no
train=yes
uic_name=Merzig(Saar)
uic_ref=8003992
wheelchair=yes
wikidata=Q480452
wikipedia=de:Bahnhof Merzig (Saar)
id=node/332099748</desc></wpt><wpt lat="49.2760766" lon="6.7923999"><name>Bous (Saar)</name><desc>check_date:wheelchair=2024-06-24
name=Bous (Saar)
operator=DB Netz AG;DB Station&amp;Service AG
public_transport=station
railway=station
railway:position=16.1
railway:ref=SBO
railway:station_category=6
ref:station=807
train=yes
uic_name=Bous(Saar)
uic_ref=8001110
wheelchair=no
id=node/332099750</desc></wpt><wpt lat="49.2305114" lon="7.0187113"><name>node/339634391</name><desc>id=node/339634391</desc></wpt><wpt lat="49.2443873" lon="7.192805"><name>Würzbach (Saar)</name><desc>name=Würzbach (Saar)
operator=DB Netz AG;DB Station&amp;Service AG
public_transport=station
railway=station
railway:ref=SWB
railway:station_category=6
uic_name=Würzbach(Saar)
uic_ref=8006581
wheelchair=limited
id=node/360674726</desc></wpt><wpt lat="49.5805009" lon="7.1147913"><name>Türkismühle</name><desc>name=Türkismühle
operator=DB Netz AG;DB Station&amp;Service AG
public_transport=station
railway=station
railway:ref=STM
railway:station_category=4
uic_ref=8000154
wheelchair=yes
wikidata=Q801540
wikipedia=de:Bahnhof Türkismühle
id=node/372423290</desc></wpt><wpt lat="49.3540667" lon="6.6155387"><name>Hemmersdorf (Saar)</name><desc>name=Hemmersdorf (Saar)
operator=DB Netz AG
public_transport=station
railway=station
railway:ref=SHEM
railway:station_category=7
ref:station=2682
uic_name=Hemmersdorf(Saar)
uic_ref=8002746
wheelchair=limited
id=node/375993475</desc></wpt><wpt lat="49.3277464" lon="6.7502575"><name>Saarlouis Hbf</name><desc>name=Saarlouis Hbf
operator=DB Netz AG
public_transport=station
railway=station
railway:position=23,5
railway:ref=SSLS
railway:station_category=3
toilets:wheelchair=no
uic_ref=8005247
wheelchair=yes
wikidata=Q993204
wikipedia=de:Saarlouis Hauptbahnhof
id=node/418974032</desc></wpt><wpt lat="49.1433202" lon="7.0447759"><name>Auersmacher</name><desc>name=Auersmacher
operator=DB Netz AG
public_transport=station
railway=station
railway:ref=SAM
railway:station_category=6
stop_id=16400
wikidata=Q15278339
id=node/517523485</desc></wpt><wpt lat="49.3524449" lon="7.1198483"><name>Landsweiler-Reden</name><desc>name=Landsweiler-Reden
operator=DB Netz AG;DB Station&amp;Service AG
public_transport=station
railway=station
railway:ref=SLWR
railway:station_category=5
ref:station=3516
uic_ref=8003516
wheelchair=no
id=node/559450843</desc></wpt><wpt lat="49.4953619" lon="6.5983353"><name>Mettlach</name><desc>name=Mettlach
operator=DB Netz AG;DB Station&amp;Service AG
public_transport=station
railway=station
railway:position=46.7
railway:ref=SMT
railway:station_category=6
train=yes
uic_ref=8004004
wheelchair=yes
id=node/658851123</desc></wpt><wpt lat="49.5168637" lon="6.6083244"><name>Saarhölzbach</name><desc>name=Saarhölzbach
operator=DB Netz AG;DB Station&amp;Service AG
public_transport=station
railway=station
railway:position=49.813
railway:ref=SSLB
railway:station_category=6
uic_ref=8005246
wheelchair=no
id=node/700948251</desc></wpt><wpt lat="49.5388196" lon="6.3759049"><name>Nennig</name><desc>name=Nennig
old_name=Nennig
operator=DB Netz AG;DB Station&amp;Service AG
public_transport=station
railway=station
railway:ref=SNE
railway:station_category=6
uic_ref=8004236
wikidata=Q16059652
id=node/701094172</desc></wpt><wpt lat="49.3525268" lon="6.7221171"><name>Dillingen (Saar)</name><desc>name=Dillingen (Saar)
operator=DB Netz AG
public_transport=station
railway=station
railway:ref=SDL
railway:station_category=3
toilets:wheelchair=no
uic_ref=8000075
wheelchair=yes
wikidata=Q13423541
wikipedia=de:Bahnhof Dillingen (Saar)
id=node/701384734</desc></wpt><wpt lat="49.3028763" lon="6.7760966"><name>Ensdorf (Saar)</name><desc>check_date:wheelchair=2022-08-13
name=Ensdorf (Saar)
operator=DB Netz AG
public_transport=station
railway=station
railway:position=19,6
railway:ref=SEN
railway:station_category=6
ref:station=1604
train=yes
uic_name=Ensdorf(Saar)
uic_ref=8001799
wheelchair=no
id=node/701424581</desc></wpt><wpt lat="49.2422612" lon="6.956123"><name>Saarbrücken-Burbach</name><desc>description=Saarbrücken-Burbach, Gleis 3
name=Saarbrücken-Burbach
operator=DB Netz AG;DB Station&amp;Service AG
public_transport=station
railway=station
railway:position=2,5
railway:ref=SSB
railway:ref:parent=SSH
railway:station_category=6
ref=3
train=yes
uic_ref=8005243
wheelchair=no
wikidata=Q15263835
id=node/701430519</desc></wpt><wpt lat="49.445884" lon="6.6515782"><name>Merzig Ost (Museumseisenbahn)</name><desc>name=Merzig Ost (Museumseisenbahn)
public_transport=station
railway=station
toilets:wheelchair=no
usage=tourism
wheelchair=no
id=node/1259895062</desc></wpt><wpt lat="49.2304269" lon="7.0186975"><name>node/1322023241</name><desc>id=node/1322023241</desc></wpt><wpt lat="49.3764573" lon="7.0489784"><name>Illingen (Saar)</name><desc>name=Illingen (Saar)
operator=DB Netz AG
public_transport=station
railway=station
railway:ref=SILG
railway:ref:parent=SWR
railway:station_category=6
uic_name=Illingen(Saar)
uic_ref=8003059
wheelchair=yes
id=node/1565379939</desc></wpt><wpt lat="49.2993727" lon="7.0547387"><name>Sulzbach (Saar)</name><desc>name=Sulzbach (Saar)
operator=DB Netz AG;DB Station&amp;Service AG
public_transport=station
railway=station
railway:ref=SSZ
railway:station_category=5
uic_ref=8005796
wheelchair=yes
wikidata=Q15623057
wikipedia=de:Bahnhof Sulzbach (Saar)
id=node/1586891816</desc></wpt><wpt lat="49.5334179" lon="7.2924381"><name>Schwarzerden</name><desc>name=Schwarzerden
railway=station
railway:pos=21.0
railway:ref=SSWN
usage=tourism
website=http://ostertalbahn.homepage.t-online.de/
wikidata=Q15107293
id=node/2327098766</desc></wpt><wpt lat="49.3370619" lon="6.9301629"><name>Heusweiler Markt</name><desc>name=Heusweiler Markt
name:fr=Place d'Orvault
network=saarVV
railway=station
ref:saarbahn_sms=HMA
start_date=2011-10-31
wheelchair=yes
wikidata=Q109564463
id=node/3163015226</desc></wpt><wpt lat="49.3914959" lon="6.9265803"><name>Landsweiler Nord</name><desc>name=Landsweiler Nord
network=Saarländischer Verkehrsverbund
network:short=saarVV
network:wikidata=Q2209244
public_transport=station
railway=station
ref:saarbahn_sms=LWNO
start_date=2014-10-05
train=yes
wheelchair=yes
wikidata=Q108501793
id=node/3163015228</desc></wpt><wpt lat="49.3623368" lon="6.9333645"><name>Eiweiler Nord</name><desc>name=Eiweiler Nord
network=Saarländischer Verkehrsverbund
network:short=saarVV
network:wikidata=Q2209244
public_transport=station
railway=station
railway:position=6.0
ref:saarbahn_sms=EINO
start_date=2014-10-05
train=yes
wheelchair=yes
wikidata=Q96863245
wikimedia_commons=Category:Eiweiler Nord
id=node/3170539867</desc></wpt><wpt lat="49.4732022" lon="6.3693072"><name>Perl</name><desc>alt_name=Perl-Schengen
name=Perl
old_name=Perl
operator=DB Netz AG;DB Station&amp;Service AG
public_transport=station
railway=station
railway:ref=SPE
railway:station_category=6
uic_ref=8004771
wikidata=Q20047122
wikipedia=de:Bahnhof Perl
id=node/3451720942</desc></wpt><wpt lat="49.2436247" lon="6.9450981"><name>Saarbrücken-Burbach Mitte</name><desc>internet_access=no
name=Saarbrücken-Burbach Mitte
official_name=Saarbrücken-Burbach Mitte
operator=DB InfraGO AG
public_transport=station
railway=station
railway:position=4,1
railway:ref=SSHI
railway:ref:parent=SSH
railway:station_category=6
ref:station=8279
toilets:wheelchair=no
train=yes
uic_ref=8001302
wheelchair=yes
wikidata=Q16060153
id=node/3454117600</desc></wpt><wpt lat="49.2305309" lon="7.0186823"><name>node/3944278435</name><desc>id=node/3944278435</desc></wpt><wpt lat="49.2304938" lon="7.0188027"><name>node/4017745533</name><desc>id=node/4017745533</desc></wpt><wpt lat="49.4083314" lon="6.906867"><name>Lebach</name><desc>departures_board=realtime
departures_board:speech_output=yes
name=Lebach
operator=DB Netz AG
public_transport=station
railway=station
railway:ref=SLCH
railway:station_category=6
ref:saarbahn_sms=LEBA
uic_ref=8000563
id=node/5023022151</desc></wpt><wpt lat="49.2495394" lon="6.9042635"><name>Luisenthal (Saar)</name><desc>name=Luisenthal (Saar)
operator=DB Netz AG;DB Station&amp;Service AG
public_transport=station
railway=station
railway:position=6.5
railway:ref=SLU
railway:station_category=6
train=yes
uic_name=Luisenthal(Saar)
uic_ref=8003796
wheelchair=no
wikidata=Q801131
wikipedia=de:Bahnhof Luisenthal (Saar)
id=node/5025677492</desc></wpt><wpt lat="49.3561947" lon="7.065585"><name>Merchweiler</name><desc>name=Merchweiler
operator=DB Netz AG;DB Station&amp;Service AG
public_transport=station
railway=station
railway:ref=SMER
railway:ref:parent=SWR
railway:station_category=5
train=yes
uic_ref=8003980
wheelchair=no
wikidata=Q104531634
id=node/5054383485</desc></wpt><wpt lat="49.402348" lon="7.166094"><name>Ottweiler (Saar)</name><desc>name=Ottweiler (Saar)
operator=DB Netz AG;DB Station&amp;Service AG
public_transport=station
railway=station
railway:ref=SOTW
railway:station_category=5
uic_name=Ottweiler(Saar)
uic_ref=8000875
wheelchair=no
wikidata=Q801306
wikipedia=de:Bahnhof Ottweiler (Saar)
id=node/5063028234</desc></wpt><wpt lat="49.2166594" lon="7.0287707"><name>Saarbrücken-Brebach</name><desc>name=Saarbrücken-Brebach
network=Saarländischer Verkehrsverbund
network:short=saarVV
network:wikidata=Q2209244
official_name=Brebach
operator=DB InfraGO AG
public_transport=station
railway=station
railway:ref=SBA
railway:station_category=5
ref:station=838
train=yes
tram=yes
wheelchair=limited
wikipedia=de:Bahnhof Brebach
id=node/5077291804</desc></wpt><trk><name>way/117370871</name><desc>id=way/117370871</desc><trkseg><trkpt lat="49.230211" lon="7.019055"/><trkpt lat="49.2302153" lon="7.0190613"/><trkpt lat="49.2302292" lon="7.019083"/><trkpt lat="49.2302395" lon="7.019099"/><trkpt lat="49.2302476" lon="7.019115"/><trkpt lat="49.2304861" lon="7.0187848"/><trkpt lat="49.2314113" lon="7.0175047"/><trkpt lat="49.2313735" lon="7.017436"/><trkpt lat="49.2308422" lon="7.0181629"/><trkpt lat="49.230439" lon="7.0187218"/><trkpt lat="49.230211" lon="7.019055"/></trkseg></trk></gpx>