<gpx xmlns="http://www.topografix.com/GPX/1/1" xmlns:xsi="http://www.w3.org/2001/XMLSchema-instance" xsi:schemaLocation="http://www.topografix.com/GPX/1/1 http://www.topografix.com/GPX/1/1/gpx.xsd" version="1.1" creator="OverpassTurboBatch"><metadata/><wpt lat="50.0523038" lon="8.2468814"><name>Wiesbaden-Biebrich</name><desc>TMC:cid_58:tabcd_1:Class=Point
TMC:cid_58:tabcd_1:Direction=negative
TMC:cid_58:tabcd_1:LCLversion=9.00
TMC:cid_58:tabcd_1:LocationCode=12159
TMC:cid_58:tabcd_1:NextLocationCode=12160
TMC:cid_58:tabcd_1:PrevLocationCode=12158
highway=motorway_junction
name=Wiesbaden-Biebrich
ref=4
id=node/162756</desc></wpt><wpt lat="50.1911499" lon="8.7302951"><name>Massenheim-Mitte</name><desc>highway=motorway_junction
name=Massenheim-Mitte
id=node/327046</desc></wpt><wpt lat="49.8696294" lon="8.6043425"><name>Autobahndreieck Darmstadt</name><desc>highway=motorway_junction
name=Autobahndreieck Darmstadt
ref=2
id=node/376398</desc></wpt><wpt lat="49.8706515" lon="8.5995214"><name>Autobahndreieck Darmstadt</name><desc>alt_name=Darmstädter Nordkreuz
highway=motorway_junction
name=Autobahndreieck Darmstadt
ref=2
id=node/376414</desc></wpt><wpt lat="49.9057517" lon="8.5157205"><name>Büttelborn</name><desc>TMC:cid_58:tabcd_1:Class=Point
TMC:cid_58:tabcd_1:Direction=negative
TMC:cid_58:tabcd_1:LCLversion=9.00
TMC:cid_58:tabcd_1:LocationCode=12229
TMC:cid_58:tabcd_1:NextLocationCode=12230
TMC:cid_58:tabcd_1:PrevLocationCode=12228
highway=motorway_junction
name=Büttelborn
ref=5
id=node/378765</desc></wpt><wpt lat="50.0275322" lon="8.4710704"><name>Raunheim</name><desc>TMC:cid_58:tabcd_1:Class=Point
TMC:cid_58:tabcd_1:Direction=negative
TMC:cid_58:tabcd_1:LCLversion=9.00
TMC:cid_58:tabcd_1:LocationCode=10875
TMC:cid_58:tabcd_1:NextLocationCode=59629
TMC:cid_58:tabcd_1:PrevLocationCode=10874
highway=motorway_junction
name=Raunheim
ref=48
id=node/382037</desc></wpt><wpt lat="50.4020036" lon="8.0633924"><name>Limburg-Nord</name><desc>TMC:cid_58:tabcd_1:Class=Point
TMC:cid_58:tabcd_1:Direction=negative
TMC:cid_58:tabcd_1:LCLversion=9.00
TMC:cid_58:tabcd_1:LocationCode=10884
TMC:cid_58:tabcd_1:NextLocationCode=10885
TMC:cid_58:tabcd_1:PrevLocationCode=10883
highway=motorway_junction
name=Limburg-Nord
ref=42
wikidata=Q15868732
id=node/398262</desc></wpt><wpt lat="50.3912783" lon="8.0790191"><name>Limburg-Nord</name><desc>TMC:cid_58:tabcd_1:Class=Point
TMC:cid_58:tabcd_1:Direction=positive
TMC:cid_58:tabcd_1:LCLversion=9.00
TMC:cid_58:tabcd_1:LocationCode=10884
TMC:cid_58:tabcd_1:NextLocationCode=10885
TMC:cid_58:tabcd_1:PrevLocationCode=10883
highway=motorway_junction
name=Limburg-Nord
ref=42
id=node/398265</desc></wpt><wpt lat="50.1156646" lon="8.5923375"><name>Westkreuz Frankfurt</name><desc>TMC:cid_58:tabcd_1:Class=Point
TMC:cid_58:tabcd_1:Direction=positive
TMC:cid_58:tabcd_1:LCLversion=9.00
TMC:cid_58:tabcd_1:LocationCode=12105
TMC:cid_58:tabcd_1:NextLocationCode=12106
TMC:cid_58:tabcd_1:PrevLocationCode=12104
highway=motorway_junction
name=Westkreuz Frankfurt
ref=3
id=node/407504</desc></wpt><wpt lat="50.1227679" lon="8.5811233"><name>Frankfurt-Rödelheim</name><desc>TMC:cid_58:tabcd_1:Class=Point
TMC:cid_58:tabcd_1:Direction=positive
TMC:cid_58:tabcd_1:LCLversion=9.00
TMC:cid_58:tabcd_1:LocationCode=12104
TMC:cid_58:tabcd_1:NextLocationCode=12105
TMC:cid_58:tabcd_1:PrevLocationCode=12103
highway=motorway_junction
name=Frankfurt-Rödelheim
ref=2
id=node/407775</desc></wpt><wpt lat="50.1151034" lon="8.6129658"><name>Frankfurt-Rebstock</name><desc>TMC:cid_58:tabcd_1:Class=Point
TMC:cid_58:tabcd_1:Direction=positive
TMC:cid_58:tabcd_1:LCLversion=9.00
TMC:cid_58:tabcd_1:LocationCode=12106
TMC:cid_58:tabcd_1:NextLocationCode=12107
TMC:cid_58:tabcd_1:PrevLocationCode=12105
highway=motorway_junction
name=Frankfurt-Rebstock
ref=4
id=node/410291</desc></wpt><wpt lat="50.0933454" lon="8.6163315"><name>Frankfurt-Westhafen</name><desc>highway=motorway_junction
layer=1
name=Frankfurt-Westhafen
ref=20
id=node/426433</desc></wpt><wpt lat="49.9056356" lon="8.516091"><name>Büttelborn</name><desc>TMC:cid_58:tabcd_1:Class=Point
TMC:cid_58:tabcd_1:Direction=positive
TMC:cid_58:tabcd_1:LCLversion=9.00
TMC:cid_58:tabcd_1:LocationCode=12229
TMC:cid_58:tabcd_1:NextLocationCode=12230
TMC:cid_58:tabcd_1:PrevLocationCode=12228
highway=motorway_junction
name=Büttelborn
ref=5
id=node/450233</desc></wpt><wpt lat="50.0939254" lon="8.7405471"><name>Offenbach-Taunusring</name><desc>TMC:cid_58:tabcd_1:Class=Point
TMC:cid_58:tabcd_1:Direction=positive
TMC:cid_58:tabcd_1:LCLversion=9.00
TMC:cid_58:tabcd_1:LocationCode=12203
TMC:cid_58:tabcd_1:NextLocationCode=12204
TMC:cid_58:tabcd_1:PrevLocationCode=59662
highway=motorway_junction
name=Offenbach-Taunusring
ref=16
id=node/452441</desc></wpt><wpt lat="49.7662708" lon="8.6020446"><name>Rastplatz Erlensee</name><desc>highway=motorway_junction
name=Rastplatz Erlensee
noref=yes
id=node/457267</desc></wpt><wpt lat="49.8090806" lon="8.628629"><name>Darmstadt-Eberstadt</name><desc>highway=motorway_junction
name=Darmstadt-Eberstadt
ref=27
id=node/457292</desc></wpt><wpt lat="49.8561911" lon="8.6004525"><name>Darmstädter Kreuz</name><desc>TMC:cid_58:tabcd_1:Class=Point
TMC:cid_58:tabcd_1:Direction=positive
TMC:cid_58:tabcd_1:LCLversion=11
TMC:cid_58:tabcd_1:LocationCode=12226
TMC:cid_58:tabcd_1:NextLocationCode=12227
TMC:cid_58:tabcd_1:PrevLocationCode=12224
highway=motorway_junction
name=Darmstädter Kreuz
ref=26
id=node/457327</desc></wpt><wpt lat="49.7225947" lon="8.5937316"><name>Zwingenberg</name><desc>highway=motorway_junction
name=Zwingenberg
ref=29
id=node/459828</desc></wpt><wpt lat="49.9082953" lon="8.6077601"><name>Rastplatz Brühlgraben</name><desc>highway=motorway_junction
name=Rastplatz Brühlgraben
noref=yes
id=node/462472</desc></wpt><wpt lat="49.987246" lon="8.6002071"><name>Langen / Mörfelden</name><desc>highway=motorway_junction
name=Langen / Mörfelden
ref=24
id=node/463073</desc></wpt><wpt lat="50.1190392" lon="8.5959543"><name>Westkreuz Frankfurt</name><desc>highway=motorway_junction
name=Westkreuz Frankfurt
ref=19
id=node/463085</desc></wpt><wpt lat="49.8610361" lon="8.59862"><name>Darmstädter Kreuz</name><desc>highway=motorway_junction
name=Darmstädter Kreuz
ref=26
id=node/463178</desc></wpt><wpt lat="49.8106422" lon="8.6286797"><name>Darmstadt-Eberstadt</name><desc>highway=motorway_junction
name=Darmstadt-Eberstadt
ref=27
id=node/463231</desc></wpt><wpt lat="50.7360853" lon="9.2450781"><name>Alsfeld-West</name><desc>TMC:cid_58:tabcd_1:Class=Point
TMC:cid_58:tabcd_1:Direction=negative
TMC:cid_58:tabcd_1:LCLversion=8.00
TMC:cid_58:tabcd_1:LocationCode=11646
TMC:cid_58:tabcd_1:NextLocationCode=11647
TMC:cid_58:tabcd_1:PrevLocationCode=11645
highway=motorway_junction
name=Alsfeld-West
ref=3
id=node/463536</desc></wpt><wpt lat="50.2904203" lon="8.6713205"><name>Friedberg</name><desc>TMC:cid_58:tabcd_1:Class=Point
TMC:cid_58:tabcd_1:Direction=negative
TMC:cid_58:tabcd_1:LCLversion=9.00
TMC:cid_58:tabcd_1:LocationCode=11630
TMC:cid_58:tabcd_1:NextLocationCode=11631
TMC:cid_58:tabcd_1:PrevLocationCode=59638
highway=motorway_junction
name=Friedberg
ref=16
id=node/463648</desc></wpt><wpt lat="50.0396236" lon="8.5973353"><name>Zeppelinheim</name><desc>highway=motorway_junction
name=Zeppelinheim
ref=23
wikidata=Q23978219
id=node/466026</desc></wpt><wpt lat="50.5222726" lon="8.7580784"><name>Limes-West</name><desc>TMC:cid_58:tabcd_1:Class=Point
TMC:cid_58:tabcd_1:Direction=negative
TMC:cid_58:tabcd_1:LCLversion=9.00
TMC:cid_58:tabcd_1:LocationCode=59637
TMC:cid_58:tabcd_1:NextLocationCode=11637
TMC:cid_58:tabcd_1:PrevLocationCode=11636
highway=motorway_junction
name=Limes-West
noref=yes
id=node/466368</desc></wpt><wpt lat="50.3587503" lon="8.6956362"><name>Raststätte Wetterau West</name><desc>TMC:cid_58:tabcd_1:Class=Point
TMC:cid_58:tabcd_1:Direction=negative
TMC:cid_58:tabcd_1:LCLversion=8.00
TMC:cid_58:tabcd_1:LocationCode=11631
TMC:cid_58:tabcd_1:NextLocationCode=11632
TMC:cid_58:tabcd_1:PrevLocationCode=11630
highway=motorway_junction
name=Raststätte Wetterau West
noref=yes
id=node/466510</desc></wpt><wpt lat="50.2039345" lon="8.6501214"><name>Bad Homburger Kreuz</name><desc>TMC:cid_58:tabcd_1:Class=Point
TMC:cid_58:tabcd_1:Direction=negative
TMC:cid_58:tabcd_1:LCLversion=9.00
TMC:cid_58:tabcd_1:LocationCode=11629
TMC:cid_58:tabcd_1:NextLocationCode=59639
TMC:cid_58:tabcd_1:PrevLocationCode=59640
highway=motorway_junction
name=Bad Homburger Kreuz
ref=17
id=node/466634</desc></wpt><wpt lat="50.0042142" lon="8.5962068"><name>Rastplatz Steingrund</name><desc>highway=motorway_junction
name=Rastplatz Steingrund
noref=yes
id=node/466762</desc></wpt><wpt lat="49.7487754" lon="8.5927607"><name>Raststätte Alsbach</name><desc>highway=motorway_junction
name=Raststätte Alsbach
noref=yes
id=node/467063</desc></wpt><wpt lat="49.7922319" lon="8.6191621"><name>Rastplatz Rolandshöhe</name><desc>highway=motorway_junction
name=Rastplatz Rolandshöhe
noref=yes
id=node/468562</desc></wpt><wpt lat="49.9490984" lon="8.6092947"><name>Rasthof Gräfenhausen</name><desc>highway=motorway_junction
name=Rasthof Gräfenhausen
noref=yes
id=node/469388</desc></wpt><wpt lat="49.8749091" lon="8.6015381"><name>Autobahndreieck Darmstadt</name><desc>highway=motorway_junction
name=Autobahndreieck Darmstadt
ref=26
id=node/470417</desc></wpt><wpt lat="50.1277335" lon="8.5759238"><name>Eschborner Dreieck</name><desc>highway=motorway_junction
name=Eschborner Dreieck
ref=1
id=node/470993</desc></wpt><wpt lat="50.1211518" lon="8.5830955"><name>Frankfurt-Rödelheim</name><desc>TMC:cid_58:tabcd_1:Class=Point
TMC:cid_58:tabcd_1:Direction=negative
TMC:cid_58:tabcd_1:LCLversion=9.00
TMC:cid_58:tabcd_1:LocationCode=12104
TMC:cid_58:tabcd_1:NextLocationCode=12105
TMC:cid_58:tabcd_1:PrevLocationCode=12103
highway=motorway_junction
name=Frankfurt-Rödelheim
ref=2
id=node/471003</desc></wpt><wpt lat="50.1149046" lon="8.6167075"><name>Frankfurt-Rebstock</name><desc>TMC:cid_58:tabcd_1:Class=Point
TMC:cid_58:tabcd_1:Direction=negative
TMC:cid_58:tabcd_1:LCLversion=9.00
TMC:cid_58:tabcd_1:LocationCode=12105
TMC:cid_58:tabcd_1:NextLocationCode=12106
TMC:cid_58:tabcd_1:PrevLocationCode=12104
highway=motorway_junction
name=Frankfurt-Rebstock
ref=4
traffic_sign=DE:274[100]
id=node/471013</desc></wpt><wpt lat="50.1150432" lon="8.6148291"><name>Westkreuz Frankfurt</name><desc>TMC:cid_58:tabcd_1:Class=Point
TMC:cid_58:tabcd_1:Direction=negative
TMC:cid_58:tabcd_1:LCLversion=9.00
TMC:cid_58:tabcd_1:LocationCode=12107
TMC:cid_58:tabcd_1:NextLocationCode=12108
TMC:cid_58:tabcd_1:PrevLocationCode=12106
highway=motorway_junction
name=Westkreuz Frankfurt
ref=3
id=node/471129</desc></wpt><wpt lat="50.1158411" lon="8.6222388"><name>Katharinenkreisel</name><desc>TMC:cid_58:tabcd_1:Class=Point
TMC:cid_58:tabcd_1:Direction=positive
TMC:cid_58:tabcd_1:LCLversion=9.00
TMC:cid_58:tabcd_1:LocationCode=12108
TMC:cid_58:tabcd_1:NextLocationCode=12109
TMC:cid_58:tabcd_1:PrevLocationCode=12107
highway=motorway_junction
name=Katharinenkreisel
ref=5
id=node/471276</desc></wpt><wpt lat="50.1289804" lon="8.5673956"><name>Eschborn</name><desc>highway=motorway_junction
name=Eschborn
ref=17
id=node/471349</desc></wpt><wpt lat="50.1146054" lon="8.6024558"><name>Westkreuz Frankfurt</name><desc>highway=motorway_junction
name=Westkreuz Frankfurt
ref=3
id=node/471409</desc></wpt><wpt lat="50.1131536" lon="8.599452"><name>Neufeld</name><desc>description=Bedarfsauffahrt bei Messe ohne Nummer
highway=motorway_junction
name=Neufeld
noref=yes
id=node/471522</desc></wpt><wpt lat="49.8944301" lon="8.6052854"><name>Weiterstadt</name><desc>highway=motorway_junction
name=Weiterstadt
ref=25
id=node/480479</desc></wpt><wpt lat="49.906293" lon="8.6076527"><name>Rastplatz Täubcheshöhle</name><desc>highway=motorway_junction
name=Rastplatz Täubcheshöhle
noref=yes
id=node/480496</desc></wpt><wpt lat="49.9729891" lon="8.6038838"><name>Rastplatz Bornbruch</name><desc>highway=motorway_junction
name=Rastplatz Bornbruch
noref=yes
id=node/480600</desc></wpt><wpt lat="50.0474061" lon="8.6015023"><name>Frankfurter Kreuz</name><desc>highway=motorway_junction
name=Frankfurter Kreuz
ref=22
id=node/480638</desc></wpt><wpt lat="50.108369" lon="8.6031565"><name>Rebstock</name><desc>description=Bedarfsausfahrt bei Messe ohne Nummer
highway=motorway_junction
name=Rebstock
noref=yes
id=node/480745</desc></wpt><wpt lat="50.1094012" lon="8.6024917"><name>Westkreuz Frankfurt</name><desc>highway=motorway_junction
layer=1
name=Westkreuz Frankfurt
ref=19
id=node/480748</desc></wpt><wpt lat="50.1322274" lon="8.5902786"><name>Nordwestkreuz Frankfurt</name><desc>highway=motorway_junction
name=Nordwestkreuz Frankfurt
ref=18
id=node/480764</desc></wpt><wpt lat="50.354251" lon="8.6934723"><name>Raststätte Wetterau Ost</name><desc>TMC:cid_58:tabcd_1:Class=Point
TMC:cid_58:tabcd_1:Direction=positive
TMC:cid_58:tabcd_1:LCLversion=8.00
TMC:cid_58:tabcd_1:LocationCode=11631
TMC:cid_58:tabcd_1:NextLocationCode=11632
TMC:cid_58:tabcd_1:PrevLocationCode=11630
highway=motorway_junction
name=Raststätte Wetterau Ost
noref=yes
id=node/480948</desc></wpt><wpt lat="50.3822808" lon="8.70494"><name>Ober-Mörlen</name><desc>TMC:cid_58:tabcd_1:Class=Point
TMC:cid_58:tabcd_1:Direction=positive
TMC:cid_58:tabcd_1:LCLversion=8.00
TMC:cid_58:tabcd_1:LocationCode=11632
TMC:cid_58:tabcd_1:NextLocationCode=11633
TMC:cid_58:tabcd_1:PrevLocationCode=11631
highway=motorway_junction
name=Ober-Mörlen
ref=14
id=node/480983</desc></wpt><wpt lat="50.4631195" lon="8.7210319"><name>Gambacher Kreuz</name><desc>TMC:cid_58:tabcd_1:Class=Point
TMC:cid_58:tabcd_1:Direction=positive
TMC:cid_58:tabcd_1:LCLversion=8.00
TMC:cid_58:tabcd_1:LocationCode=11635
TMC:cid_58:tabcd_1:NextLocationCode=11636
TMC:cid_58:tabcd_1:PrevLocationCode=11634
highway=motorway_junction
name=Gambacher Kreuz
ref=11
id=node/481030</desc></wpt><wpt lat="50.6109172" lon="8.8283464"><name>Reiskirchener Dreieck</name><desc>TMC:cid_58:tabcd_1:Class=Point
TMC:cid_58:tabcd_1:Direction=positive
TMC:cid_58:tabcd_1:LCLversion=8.00
TMC:cid_58:tabcd_1:LocationCode=11639
TMC:cid_58:tabcd_1:NextLocationCode=11641
TMC:cid_58:tabcd_1:PrevLocationCode=11638
highway=motorway_junction
name=Reiskirchener Dreieck
ref=8
id=node/481165</desc></wpt><wpt lat="50.7145717" lon="9.1037606"><name>Rastplatz Krachgarten</name><desc>TMC:cid_58:tabcd_1:Class=Point
TMC:cid_58:tabcd_1:Direction=positive
TMC:cid_58:tabcd_1:LCLversion=9.00
TMC:cid_58:tabcd_1:LocationCode=59636
TMC:cid_58:tabcd_1:NextLocationCode=59635
TMC:cid_58:tabcd_1:PrevLocationCode=11642
highway=motorway_junction
name=Rastplatz Krachgarten
noref=yes
id=node/481397</desc></wpt><wpt lat="50.7341305" lon="9.2378636"><name>Alsfeld-West</name><desc>TMC:cid_58:tabcd_1:Class=Point
TMC:cid_58:tabcd_1:Direction=positive
TMC:cid_58:tabcd_1:LCLversion=8.00
TMC:cid_58:tabcd_1:LocationCode=11646
TMC:cid_58:tabcd_1:NextLocationCode=11647
TMC:cid_58:tabcd_1:PrevLocationCode=11645
highway=motorway_junction
name=Alsfeld-West
ref=3
id=node/481460</desc></wpt><wpt lat="50.8001037" lon="9.4972913"><name>node/481633</name><desc>TMC:cid_58:tabcd_1:Class=Point
TMC:cid_58:tabcd_1:Direction=positive
TMC:cid_58:tabcd_1:LCLversion=9.00
TMC:cid_58:tabcd_1:LocationCode=59631
TMC:cid_58:tabcd_1:NextLocationCode=11650
TMC:cid_58:tabcd_1:PrevLocationCode=11649
highway=motorway_junction
id=node/481633</desc></wpt><wpt lat="49.9760712" lon="8.6028651"><name>Rastplatz Bornbruch</name><desc>highway=motorway_junction
name=Rastplatz Bornbruch
noref=yes
id=node/482447</desc></wpt><wpt lat="49.9996518" lon="8.5975259"><name>Rastplatz Kaiserstein</name><desc>highway=motorway_junction
name=Rastplatz Kaiserstein
noref=yes
id=node/482455</desc></wpt><wpt lat="50.1981735" lon="8.6405113"><name>Bad Homburger Kreuz</name><desc>TMC:cid_58:tabcd_1:Class=Point
TMC:cid_58:tabcd_1:Direction=positive
TMC:cid_58:tabcd_1:LCLversion=9.00
TMC:cid_58:tabcd_1:LocationCode=11629
TMC:cid_58:tabcd_1:NextLocationCode=59639
TMC:cid_58:tabcd_1:PrevLocationCode=59640
highway=motorway_junction
name=Bad Homburger Kreuz
ref=17
id=node/482636</desc></wpt><wpt lat="49.6877826" lon="8.6020767"><name>Rasthof Bergstraße</name><desc>highway=motorway_junction
name=Rasthof Bergstraße
noref=yes
id=node/482690</desc></wpt><wpt lat="50.5778237" lon="8.7093863"><name>Gießen-Licher Straße</name><desc>TMC:cid_58:tabcd_1:Class=Point
TMC:cid_58:tabcd_1:Direction=positive
TMC:cid_58:tabcd_1:LCLversion=9.00
TMC:cid_58:tabcd_1:LocationCode=11534
TMC:cid_58:tabcd_1:NextLocationCode=11535
TMC:cid_58:tabcd_1:PrevLocationCode=11533
highway=motorway_junction
name=Gießen-Licher Straße
ref=5
id=node/484582</desc></wpt><wpt lat="50.5862565" lon="8.710436"><name>Gießen-Grünberger Straße</name><desc>TMC:cid_58:tabcd_1:Class=Point
TMC:cid_58:tabcd_1:Direction=positive
TMC:cid_58:tabcd_1:LCLversion=9.00
TMC:cid_58:tabcd_1:LocationCode=11535
TMC:cid_58:tabcd_1:NextLocationCode=11536
TMC:cid_58:tabcd_1:PrevLocationCode=11534
highway=motorway_junction
name=Gießen-Grünberger Straße
ref=4
id=node/484588</desc></wpt><wpt lat="50.6086268" lon="8.7178136"><name>Gießen-Wieseck</name><desc>TMC:cid_58:tabcd_1:Class=Point
TMC:cid_58:tabcd_1:Direction=positive
TMC:cid_58:tabcd_1:LCLversion=9.00
TMC:cid_58:tabcd_1:LocationCode=11537
TMC:cid_58:tabcd_1:NextLocationCode=36572
TMC:cid_58:tabcd_1:PrevLocationCode=11536
highway=motorway_junction
name=Gießen-Wieseck
ref=2
id=node/484605</desc></wpt><wpt lat="50.6146963" lon="8.7167115"><name>Gießen-Wieseck</name><desc>TMC:cid_58:tabcd_1:Class=Point
TMC:cid_58:tabcd_1:Direction=negative
TMC:cid_58:tabcd_1:LCLversion=9.00
TMC:cid_58:tabcd_1:LocationCode=11537
TMC:cid_58:tabcd_1:NextLocationCode=36572
TMC:cid_58:tabcd_1:PrevLocationCode=11536
highway=motorway_junction
name=Gießen-Wieseck
ref=2
id=node/484629</desc></wpt><wpt lat="50.5924804" lon="8.710108"><name>Gießen-Ursulum</name><desc>TMC:cid_58:tabcd_1:Class=Point
TMC:cid_58:tabcd_1:Direction=negative
TMC:cid_58:tabcd_1:LCLversion=9.00
TMC:cid_58:tabcd_1:LocationCode=11536
TMC:cid_58:tabcd_1:NextLocationCode=11537
TMC:cid_58:tabcd_1:PrevLocationCode=11535
highway=motorway_junction
name=Gießen-Ursulum
ref=3
id=node/484645</desc></wpt><wpt lat="50.5554054" lon="8.6679733"><name>Dreieck Bergwerkswald</name><desc>TMC:cid_58:tabcd_1:Class=Point
TMC:cid_58:tabcd_1:Direction=negative
TMC:cid_58:tabcd_1:LCLversion=9.00
TMC:cid_58:tabcd_1:LocationCode=11532
TMC:cid_58:tabcd_1:NextLocationCode=11533
TMC:cid_58:tabcd_1:PrevLocationCode=11531
highway=motorway_junction
name=Dreieck Bergwerkswald
ref=7
id=node/484681</desc></wpt><wpt lat="49.5294102" lon="8.5793139"><name>Viernheim</name><desc>highway=motorway_junction
name=Viernheim
ref=3
id=node/488215</desc></wpt><wpt lat="49.5249823" lon="8.5662392"><name>Viernheimer Kreuz</name><desc>highway=motorway_junction
name=Viernheimer Kreuz
ref=4
id=node/488277</desc></wpt><wpt lat="49.9883955" lon="8.3388161"><name>Mainspitz-Dreieck</name><desc>TMC:cid_58:tabcd_1:Class=Point
TMC:cid_58:tabcd_1:Direction=negative
TMC:cid_58:tabcd_1:LCLversion=9.00
TMC:cid_58:tabcd_1:LocationCode=12235
TMC:cid_58:tabcd_1:NextLocationCode=12236
highway=motorway_junction
name=Mainspitz-Dreieck
ref=7
id=node/488499</desc></wpt><wpt lat="50.8357431" lon="9.5794081"><name>Kirchheimer Dreieck</name><desc>TMC:cid_58:tabcd_1:Class=Point
TMC:cid_58:tabcd_1:Direction=positive
TMC:cid_58:tabcd_1:LCLversion=9.00
TMC:cid_58:tabcd_1:LocationCode=12308
TMC:cid_58:tabcd_1:NextLocationCode=12309
TMC:cid_58:tabcd_1:PrevLocationCode=12307
highway=motorway_junction
name=Kirchheimer Dreieck
ref=86
id=node/491262</desc></wpt><wpt lat="51.2052257" lon="9.4682569"><name>Guxhagen</name><desc>TMC:cid_58:tabcd_1:Class=Point
TMC:cid_58:tabcd_1:Direction=positive
TMC:cid_58:tabcd_1:LCLversion=9.00
TMC:cid_58:tabcd_1:LocationCode=12313
TMC:cid_58:tabcd_1:NextLocationCode=12314
TMC:cid_58:tabcd_1:PrevLocationCode=59692
highway=motorway_junction
name=Guxhagen
ref=81
id=node/492219</desc></wpt><wpt lat="51.2620839" lon="9.5168436"><name>node/492293</name><desc>TMC:cid_58:tabcd_1:Class=Point
TMC:cid_58:tabcd_1:Direction=positive
TMC:cid_58:tabcd_1:LCLversion=14.0
TMC:cid_58:tabcd_1:LocationCode=12315
TMC:cid_58:tabcd_1:NextLocationCode=12316
TMC:cid_58:tabcd_1:PrevLocationCode=12314
highway=motorway_junction
noref=yes
id=node/492293</desc></wpt><wpt lat="51.2725851" lon="9.5233943"><name>Kreuz Kassel-Mitte</name><desc>TMC:cid_58:tabcd_1:Class=Point
TMC:cid_58:tabcd_1:Direction=positive
TMC:cid_58:tabcd_1:LCLversion=9.00
TMC:cid_58:tabcd_1:LocationCode=12316
TMC:cid_58:tabcd_1:NextLocationCode=12317
TMC:cid_58:tabcd_1:PrevLocationCode=12315
highway=motorway_junction
name=Kreuz Kassel-Mitte
ref=79
id=node/492308</desc></wpt><wpt lat="51.2939378" lon="9.5604398"><name>Kassel-Ost</name><desc>TMC:cid_58:tabcd_1:Class=Point
TMC:cid_58:tabcd_1:Direction=positive
TMC:cid_58:tabcd_1:LCLversion=9.00
TMC:cid_58:tabcd_1:LocationCode=12317
TMC:cid_58:tabcd_1:NextLocationCode=12318
TMC:cid_58:tabcd_1:PrevLocationCode=12316
highway=motorway_junction
name=Kassel-Ost
new_name=Dreieck Kassel-Ost
ref=78
id=node/492326</desc></wpt><wpt lat="51.2049917" lon="9.4678428"><name>Guxhagen</name><desc>TMC:cid_58:tabcd_1:Class=Point
TMC:cid_58:tabcd_1:Direction=negative
TMC:cid_58:tabcd_1:LCLversion=9.00
TMC:cid_58:tabcd_1:LocationCode=12313
TMC:cid_58:tabcd_1:NextLocationCode=12314
TMC:cid_58:tabcd_1:PrevLocationCode=59692
highway=motorway_junction
name=Guxhagen
ref=81
id=node/494656</desc></wpt><wpt lat="51.0029231" lon="9.4793"><name>Homberg (Efze)</name><desc>TMC:cid_58:tabcd_1:Class=Point
TMC:cid_58:tabcd_1:Direction=negative
TMC:cid_58:tabcd_1:LCLversion=9.00
TMC:cid_58:tabcd_1:LocationCode=12310
TMC:cid_58:tabcd_1:NextLocationCode=12311
TMC:cid_58:tabcd_1:PrevLocationCode=59694
highway=motorway_junction
name=Homberg (Efze)
ref=84
id=node/495177</desc></wpt><wpt lat="50.9419757" lon="9.5393403"><name>Rastplatz Am Pommer</name><desc>TMC:cid_58:tabcd_1:Class=Point
TMC:cid_58:tabcd_1:Direction=negative
TMC:cid_58:tabcd_1:LCLversion=9.00
TMC:cid_58:tabcd_1:LocationCode=59695
TMC:cid_58:tabcd_1:NextLocationCode=59694
TMC:cid_58:tabcd_1:PrevLocationCode=12309
ele=450.03
highway=motorway_junction
name=Rastplatz Am Pommer
noref=yes
id=node/495270</desc></wpt><wpt lat="49.8158067" lon="8.5804219"><name>Rastanlage Pfungstadt West</name><desc>TMC:cid_58:tabcd_1:Class=Point
TMC:cid_58:tabcd_1:Direction=negative
TMC:cid_58:tabcd_1:LCLversion=9.00
TMC:cid_58:tabcd_1:LocationCode=12224
TMC:cid_58:tabcd_1:NextLocationCode=12226
TMC:cid_58:tabcd_1:PrevLocationCode=39071
highway=motorway_junction
name=Rastanlage Pfungstadt West
noref=yes
id=node/499848</desc></wpt><wpt lat="49.6646502" lon="8.555078"><name>Lorsch</name><desc>TMC:cid_58:tabcd_1:Class=Point
TMC:cid_58:tabcd_1:Direction=negative
TMC:cid_58:tabcd_1:LCLversion=9.00
TMC:cid_58:tabcd_1:LocationCode=12222
TMC:cid_58:tabcd_1:NextLocationCode=59656
TMC:cid_58:tabcd_1:PrevLocationCode=12221
highway=motorway_junction
name=Lorsch
ref=9
id=node/499907</desc></wpt><wpt lat="49.5293854" lon="8.5595805"><name>Viernheimer Kreuz</name><desc>TMC:cid_58:tabcd_1:Class=Point
TMC:cid_58:tabcd_1:Direction=positive
TMC:cid_58:tabcd_1:LCLversion=14.0
TMC:cid_58:tabcd_1:LocationCode=11876
TMC:cid_58:tabcd_1:NextLocationCode=14226
TMC:cid_58:tabcd_1:PrevLocationCode=11875
highway=motorway_junction
name=Viernheimer Kreuz
ref=26
id=node/499985</desc></wpt><wpt lat="49.5558924" lon="8.5370442"><name>node/500041</name><desc>highway=motorway_junction
noref=yes
id=node/500041</desc></wpt><wpt lat="49.5558741" lon="8.5495011"><name>Viernheimer Dreieck</name><desc>TMC:cid_58:tabcd_1:Class=Point
TMC:cid_58:tabcd_1:Direction=positive
TMC:cid_58:tabcd_1:LCLversion=11
TMC:cid_58:tabcd_1:LocationCode=11875
TMC:cid_58:tabcd_1:NextLocationCode=11876
TMC:cid_58:tabcd_1:PrevLocationCode=59658
highway=motorway_junction
name=Viernheimer Dreieck
ref=25
id=node/501772</desc></wpt><wpt lat="49.7409267" lon="8.5433646"><name>Gernsheim</name><desc>highway=motorway_junction
name=Gernsheim
ref=8
id=node/501885</desc></wpt><wpt lat="49.8672585" lon="8.6002867"><name>Darmstädter Nordkreuz</name><desc>highway=motorway_junction
name=Darmstädter Nordkreuz
ref=26
id=node/501951</desc></wpt><wpt lat="49.5476957" lon="8.5589638"><name>Viernheimer Dreieck</name><desc>TMC:cid_58:tabcd_1:Class=Point
TMC:cid_58:tabcd_1:Direction=negative
TMC:cid_58:tabcd_1:LCLversion=9.00
TMC:cid_58:tabcd_1:LocationCode=11875
TMC:cid_58:tabcd_1:NextLocationCode=11876
TMC:cid_58:tabcd_1:PrevLocationCode=59658
highway=motorway_junction
name=Viernheimer Dreieck
ref=25
id=node/502458</desc></wpt><wpt lat="49.5615395" lon="8.5584857"><name>Viernheimer Dreieck</name><desc>highway=motorway_junction
name=Viernheimer Dreieck
ref=10
id=node/502952</desc></wpt><wpt lat="49.9289156" lon="8.4938941"><name>Groß-Gerau</name><desc>TMC:cid_58:tabcd_1:Class=Point
TMC:cid_58:tabcd_1:Direction=positive
TMC:cid_58:tabcd_1:LCLversion=9.00
TMC:cid_58:tabcd_1:LocationCode=12230
TMC:cid_58:tabcd_1:NextLocationCode=12231
TMC:cid_58:tabcd_1:PrevLocationCode=12229
highway=motorway_junction
name=Groß-Gerau
ref=4
id=node/503077</desc></wpt><wpt lat="49.9677153" lon="8.4682227"><name>Rüsselsheimer Dreieck</name><desc>TMC:cid_58:tabcd_1:Class=Point
TMC:cid_58:tabcd_1:Direction=positive
TMC:cid_58:tabcd_1:LCLversion=9.00
TMC:cid_58:tabcd_1:LocationCode=12231
TMC:cid_58:tabcd_1:NextLocationCode=12233
TMC:cid_58:tabcd_1:PrevLocationCode=12230
highway=motorway_junction
name=Rüsselsheimer Dreieck
ref=3
id=node/503086</desc></wpt><wpt lat="49.8670004" lon="8.589804"><name>Autobahndreieck Darmstadt/Griesheim</name><desc>highway=motorway_junction
name=Autobahndreieck Darmstadt/Griesheim
note=Knotenpunktsname ist nicht ausgeschildert, ist aber offiziell vergeben
ref=6
id=node/503096</desc></wpt><wpt lat="49.9872965" lon="8.4668062"><name>Rüsselsheim-Ost</name><desc>TMC:cid_58:tabcd_1:Class=Point
TMC:cid_58:tabcd_1:Direction=positive
TMC:cid_58:tabcd_1:LCLversion=9.00
TMC:cid_58:tabcd_1:LocationCode=12233
TMC:cid_58:tabcd_1:NextLocationCode=59653
TMC:cid_58:tabcd_1:PrevLocationCode=12231
highway=motorway_junction
name=Rüsselsheim-Ost
ref=2
id=node/503146</desc></wpt><wpt lat="50.021796" lon="8.4969083"><name>Mönchhof-Dreieck</name><desc>TMC:cid_58:tabcd_1:Class=Point
TMC:cid_58:tabcd_1:Direction=positive
TMC:cid_58:tabcd_1:LCLversion=9.00
TMC:cid_58:tabcd_1:LocationCode=12234
TMC:cid_58:tabcd_1:PrevLocationCode=59652
highway=motorway_junction
name=Mönchhof-Dreieck
ref=1
id=node/503153</desc></wpt><wpt lat="49.8604391" lon="8.5961109"><name>Darmstädter Kreuz</name><desc>TMC:cid_58:tabcd_1:Class=Point
TMC:cid_58:tabcd_1:Direction=negative
TMC:cid_58:tabcd_1:LCLversion=9.00
TMC:cid_58:tabcd_1:LocationCode=12226
TMC:cid_58:tabcd_1:NextLocationCode=12227
TMC:cid_58:tabcd_1:PrevLocationCode=12224
highway=motorway_junction
name=Darmstädter Kreuz
ref=6
id=node/503280</desc></wpt><wpt lat="49.9338113" lon="8.4839654"><name>Groß-Gerau</name><desc>TMC:cid_58:tabcd_1:Class=Point
TMC:cid_58:tabcd_1:Direction=negative
TMC:cid_58:tabcd_1:LCLversion=9.00
TMC:cid_58:tabcd_1:LocationCode=12230
TMC:cid_58:tabcd_1:NextLocationCode=12231
TMC:cid_58:tabcd_1:PrevLocationCode=12229
highway=motorway_junction
name=Groß-Gerau
ref=4
id=node/503352</desc></wpt><wpt lat="49.9940505" lon="8.470708"><name>Rüsselsheim-Ost</name><desc>TMC:cid_58:tabcd_1:Class=Point
TMC:cid_58:tabcd_1:Direction=negative
TMC:cid_58:tabcd_1:LCLversion=9.00
TMC:cid_58:tabcd_1:LocationCode=12233
TMC:cid_58:tabcd_1:NextLocationCode=59653
TMC:cid_58:tabcd_1:PrevLocationCode=12231
highway=motorway_junction
name=Rüsselsheim-Ost
ref=2
id=node/503364</desc></wpt><wpt lat="49.8691971" lon="8.5855299"><name>Autobahndreieck Darmstadt/Griesheim</name><desc>alt_name=Griesheimer Dreieck
highway=motorway_junction
name=Autobahndreieck Darmstadt/Griesheim
note=Knotenpunktsname ist nicht ausgeschildert, ist aber offiziell vergeben
ref=6
id=node/503387</desc></wpt><wpt lat="50.025425" lon="8.4833533"><name>Mönchhof-Dreieck</name><desc>TMC:cid_58:tabcd_1:Class=Point
TMC:cid_58:tabcd_1:Direction=negative
TMC:cid_58:tabcd_1:LCLversion=9.00
TMC:cid_58:tabcd_1:LocationCode=12234
TMC:cid_58:tabcd_1:PrevLocationCode=59652
highway=motorway_junction
name=Mönchhof-Dreieck
ref=48
id=node/503711</desc></wpt><wpt lat="49.8559218" lon="8.5976812"><name>Darmstädter Kreuz</name><desc>TMC:cid_58:tabcd_1:Class=Point
TMC:cid_58:tabcd_1:Direction=positive
TMC:cid_58:tabcd_1:LCLversion=9.00
TMC:cid_58:tabcd_1:LocationCode=12226
TMC:cid_58:tabcd_1:NextLocationCode=12227
TMC:cid_58:tabcd_1:PrevLocationCode=12224
highway=motorway_junction
name=Darmstädter Kreuz
ref=6
id=node/503717</desc></wpt><wpt lat="49.9762591" lon="8.453443"><name>Rüsselsheimer Dreieck</name><desc>highway=motorway_junction
name=Rüsselsheimer Dreieck
ref=30
id=node/503737</desc></wpt><wpt lat="49.9831115" lon="8.4653078"><name>Rüsselsheimer Dreieck</name><desc>TMC:cid_58:tabcd_1:Class=Point
TMC:cid_58:tabcd_1:Direction=negative
TMC:cid_58:tabcd_1:LCLversion=9.00
TMC:cid_58:tabcd_1:LocationCode=12231
TMC:cid_58:tabcd_1:NextLocationCode=12233
TMC:cid_58:tabcd_1:PrevLocationCode=12230
highway=motorway_junction
name=Rüsselsheimer Dreieck
ref=3
id=node/503781</desc></wpt><wpt lat="49.993413" lon="8.6889348"><name>Langen</name><desc>TMC:cid_58:tabcd_1:Class=Point
TMC:cid_58:tabcd_1:Direction=positive
TMC:cid_58:tabcd_1:LCLversion=9.00
TMC:cid_58:tabcd_1:LocationCode=12199
TMC:cid_58:tabcd_1:NextLocationCode=12200
TMC:cid_58:tabcd_1:PrevLocationCode=12198
highway=motorway_junction
name=Langen
ref=20
id=node/504081</desc></wpt><wpt lat="50.0602078" lon="8.7252012"><name>Offenbacher Kreuz</name><desc>TMC:cid_58:tabcd_1:Class=Point
TMC:cid_58:tabcd_1:Direction=positive
TMC:cid_58:tabcd_1:LCLversion=9.00
TMC:cid_58:tabcd_1:LocationCode=12202
TMC:cid_58:tabcd_1:NextLocationCode=59662
TMC:cid_58:tabcd_1:PrevLocationCode=12201
highway=motorway_junction
name=Offenbacher Kreuz
ref=17
id=node/504157</desc></wpt><wpt lat="50.1594227" lon="8.6794922"><name>Frankfurt-Eckenheim</name><desc>TMC:cid_58:tabcd_1:Class=Point
TMC:cid_58:tabcd_1:Direction=positive
TMC:cid_58:tabcd_1:LCLversion=9.00
TMC:cid_58:tabcd_1:LocationCode=12212
TMC:cid_58:tabcd_1:NextLocationCode=12213
TMC:cid_58:tabcd_1:PrevLocationCode=12211
highway=motorway_junction
name=Frankfurt-Eckenheim
ref=7
id=node/504254</desc></wpt><wpt lat="50.1940382" lon="8.6530872"><name>Nieder-Eschbach</name><desc>TMC:cid_58:tabcd_1:Class=Point
TMC:cid_58:tabcd_1:Direction=positive
TMC:cid_58:tabcd_1:LCLversion=9.00
TMC:cid_58:tabcd_1:LocationCode=36595
TMC:cid_58:tabcd_1:NextLocationCode=12215
TMC:cid_58:tabcd_1:PrevLocationCode=12213
highway=motorway_junction
name=Nieder-Eschbach
ref=5
id=node/504298</desc></wpt><wpt lat="50.1969845" lon="8.6502722"><name>Bad Homburger Kreuz</name><desc>TMC:cid_58:tabcd_1:Class=Point
TMC:cid_58:tabcd_1:Direction=positive
TMC:cid_58:tabcd_1:LCLversion=9.00
TMC:cid_58:tabcd_1:LocationCode=12215
TMC:cid_58:tabcd_1:NextLocationCode=12216
TMC:cid_58:tabcd_1:PrevLocationCode=36595
highway=motorway_junction
name=Bad Homburger Kreuz
ref=4
id=node/504300</desc></wpt><wpt lat="50.2048824" lon="8.6280597"><name>Bad Homburg</name><desc>TMC:cid_58:tabcd_1:Class=Point
TMC:cid_58:tabcd_1:Direction=positive
TMC:cid_58:tabcd_1:LCLversion=9.00
TMC:cid_58:tabcd_1:LocationCode=12216
TMC:cid_58:tabcd_1:NextLocationCode=12217
TMC:cid_58:tabcd_1:PrevLocationCode=12215
highway=motorway_junction
name=Bad Homburg
ref=3
id=node/504313</desc></wpt><wpt lat="50.2080857" lon="8.6182553"><name>node/504320</name><desc>ele=182.31
highway=motorway_junction
noref=yes
id=node/504320</desc></wpt><wpt lat="50.2146622" lon="8.5809028"><name>Oberursel-Nord</name><desc>highway=motorway_junction
name=Oberursel-Nord
ref=1
id=node/504340</desc></wpt><wpt lat="50.1935631" lon="8.6533254"><name>Nieder-Eschbach</name><desc>TMC:cid_58:tabcd_1:Class=Point
TMC:cid_58:tabcd_1:Direction=negative
TMC:cid_58:tabcd_1:LCLversion=9.00
TMC:cid_58:tabcd_1:LocationCode=36595
TMC:cid_58:tabcd_1:NextLocationCode=12215
TMC:cid_58:tabcd_1:PrevLocationCode=12213
highway=motorway_junction
name=Nieder-Eschbach
ref=5
id=node/504374</desc></wpt><wpt lat="50.1591439" lon="8.6808774"><name>Frankfurt-Eckenheim</name><desc>TMC:cid_58:tabcd_1:Class=Point
TMC:cid_58:tabcd_1:Direction=negative
TMC:cid_58:tabcd_1:LCLversion=9.00
TMC:cid_58:tabcd_1:LocationCode=12212
TMC:cid_58:tabcd_1:NextLocationCode=12213
TMC:cid_58:tabcd_1:PrevLocationCode=12211
highway=motorway_junction
name=Frankfurt-Eckenheim
ref=7
id=node/504407</desc></wpt><wpt lat="50.1597773" lon="8.69251"><name>Preungesheimer Dreieck</name><desc>TMC:cid_58:tabcd_1:Class=Point
TMC:cid_58:tabcd_1:Direction=negative
TMC:cid_58:tabcd_1:LCLversion=9.00
TMC:cid_58:tabcd_1:LocationCode=12211
TMC:cid_58:tabcd_1:NextLocationCode=12212
TMC:cid_58:tabcd_1:PrevLocationCode=12210
highway=motorway_junction
name=Preungesheimer Dreieck
ref=8
id=node/504416</desc></wpt><wpt lat="50.0714203" lon="8.7316586"><name>Offenbacher Kreuz</name><desc>TMC:cid_58:tabcd_1:Class=Point
TMC:cid_58:tabcd_1:Direction=negative
TMC:cid_58:tabcd_1:LCLversion=9.00
TMC:cid_58:tabcd_1:LocationCode=12202
TMC:cid_58:tabcd_1:NextLocationCode=59662
TMC:cid_58:tabcd_1:PrevLocationCode=12201
highway=motorway_junction
name=Offenbacher Kreuz
ref=17
id=node/504422</desc></wpt><wpt lat="50.0489607" lon="8.7218989"><name>Neu-Isenburg</name><desc>TMC:cid_58:tabcd_1:Class=Point
TMC:cid_58:tabcd_1:Direction=negative
TMC:cid_58:tabcd_1:LCLversion=9.00
TMC:cid_58:tabcd_1:LocationCode=12201
TMC:cid_58:tabcd_1:NextLocationCode=12202
TMC:cid_58:tabcd_1:PrevLocationCode=12200
highway=motorway_junction
name=Neu-Isenburg
ref=18
id=node/504437</desc></wpt><wpt lat="50.0373927" lon="8.713827"><name>Dreieich</name><desc>TMC:cid_58:tabcd_1:Class=Point
TMC:cid_58:tabcd_1:Direction=negative
TMC:cid_58:tabcd_1:LCLversion=9.00
TMC:cid_58:tabcd_1:LocationCode=12200
TMC:cid_58:tabcd_1:NextLocationCode=12201
TMC:cid_58:tabcd_1:PrevLocationCode=12199
highway=motorway_junction
name=Dreieich
ref=19
id=node/504446</desc></wpt><wpt lat="50.2154922" lon="8.5733316"><name>Oberursel-Nord</name><desc>highway=motorway_junction
name=Oberursel-Nord
ref=1
id=node/504449</desc></wpt><wpt lat="49.9971862" lon="8.6887264"><name>Langen</name><desc>TMC:cid_58:tabcd_1:Class=Point
TMC:cid_58:tabcd_1:Direction=negative
TMC:cid_58:tabcd_1:LCLversion=9.00
TMC:cid_58:tabcd_1:LocationCode=12199
TMC:cid_58:tabcd_1:NextLocationCode=12200
TMC:cid_58:tabcd_1:PrevLocationCode=12198
ele=165.96
highway=motorway_junction
name=Langen
ref=20
id=node/504524</desc></wpt><wpt lat="50.1605177" lon="8.6741817"><name>Frankfurt-Eckenheim</name><desc>highway=motorway_junction
name=Frankfurt-Eckenheim
ref=7
id=node/504558</desc></wpt><wpt lat="50.1467419" lon="8.7035806"><name>Frankfurt-Friedberger Landstraße</name><desc>TMC:cid_58:tabcd_1:Class=Point
TMC:cid_58:tabcd_1:Direction=negative
TMC:cid_58:tabcd_1:LCLversion=9.00
TMC:cid_58:tabcd_1:LocationCode=12210
TMC:cid_58:tabcd_1:NextLocationCode=12211
TMC:cid_58:tabcd_1:PrevLocationCode=12206
highway=motorway_junction
name=Frankfurt-Friedberger Landstraße
ref=9
id=node/504577</desc></wpt><wpt lat="50.1573986" lon="8.7050137"><name>Preungesheimer Dreieck</name><desc>TMC:cid_58:tabcd_1:Class=Point
TMC:cid_58:tabcd_1:Direction=positive
TMC:cid_58:tabcd_1:LCLversion=9.00
TMC:cid_58:tabcd_1:LocationCode=12211
TMC:cid_58:tabcd_1:NextLocationCode=12212
TMC:cid_58:tabcd_1:PrevLocationCode=12210
highway=motorway_junction
name=Preungesheimer Dreieck
ref=8
id=node/504605</desc></wpt><wpt lat="50.096812" lon="8.740656"><name>Offenbach-Taunusring</name><desc>TMC:cid_58:tabcd_1:Class=Point
TMC:cid_58:tabcd_1:Direction=negative
TMC:cid_58:tabcd_1:LCLversion=9.00
TMC:cid_58:tabcd_1:LocationCode=12203
TMC:cid_58:tabcd_1:NextLocationCode=12204
TMC:cid_58:tabcd_1:PrevLocationCode=59662
highway=motorway_junction
name=Offenbach-Taunusring
ref=16
id=node/504636</desc></wpt><wpt lat="50.1026515" lon="8.7390323"><name>Offenbach-Kaiserlei</name><desc>TMC:cid_58:tabcd_1:Class=Point
TMC:cid_58:tabcd_1:Direction=positive
TMC:cid_58:tabcd_1:LCLversion=9.00
TMC:cid_58:tabcd_1:LocationCode=12204
TMC:cid_58:tabcd_1:NextLocationCode=12206
TMC:cid_58:tabcd_1:PrevLocationCode=12203
highway=motorway_junction
name=Offenbach-Kaiserlei
ref=15
id=node/505080</desc></wpt><wpt lat="50.0655232" lon="8.7279646"><name>Offenbacher Kreuz</name><desc>highway=motorway_junction
name=Offenbacher Kreuz
ref=17
id=node/505116</desc></wpt><wpt lat="49.9731721" lon="8.3789015"><name>Bischofsheim</name><desc>TMC:cid_58:tabcd_1:Class=Point
TMC:cid_58:tabcd_1:Direction=positive
TMC:cid_58:tabcd_1:LCLversion=11.00
TMC:cid_58:tabcd_1:LocationCode=11949
TMC:cid_58:tabcd_1:NextLocationCode=11950
TMC:cid_58:tabcd_1:PrevLocationCode=11948
highway=motorway_junction
name=Bischofsheim
ref=27
id=node/506658</desc></wpt><wpt lat="49.974656" lon="8.4087377"><name>Rüsselsheim Mitte</name><desc>TMC:cid_58:tabcd_1:Class=Point
TMC:cid_58:tabcd_1:Direction=positive
TMC:cid_58:tabcd_1:LCLversion=11.00
TMC:cid_58:tabcd_1:LocationCode=11950
TMC:cid_58:tabcd_1:NextLocationCode=11951
TMC:cid_58:tabcd_1:PrevLocationCode=11949
highway=motorway_junction
name=Rüsselsheim Mitte
ref=28
id=node/506704</desc></wpt><wpt lat="49.9754411" lon="8.4385955"><name>Rüsselsheim Königstädten</name><desc>TMC:cid_58:tabcd_1:Class=Point
TMC:cid_58:tabcd_1:Direction=negative
TMC:cid_58:tabcd_1:LCLversion=11.00
TMC:cid_58:tabcd_1:LocationCode=11951
TMC:cid_58:tabcd_1:NextLocationCode=11952
TMC:cid_58:tabcd_1:PrevLocationCode=11950
highway=motorway_junction
name=Rüsselsheim Königstädten
ref=29
id=node/506711</desc></wpt><wpt lat="49.9748911" lon="8.4177474"><name>Rüsselsheim Mitte</name><desc>TMC:cid_58:tabcd_1:Class=Point
TMC:cid_58:tabcd_1:Direction=negative
TMC:cid_58:tabcd_1:LCLversion=11.00
TMC:cid_58:tabcd_1:LocationCode=11950
TMC:cid_58:tabcd_1:NextLocationCode=11951
TMC:cid_58:tabcd_1:PrevLocationCode=11949
highway=motorway_junction
name=Rüsselsheim Mitte
ref=28
id=node/506719</desc></wpt><wpt lat="49.9798625" lon="8.3318677"><name>Ginsheim-Gustavsburg</name><desc>TMC:cid_58:tabcd_1:Class=Point
TMC:cid_58:tabcd_1:Direction=negative
TMC:cid_58:tabcd_1:LCLversion=11.00
TMC:cid_58:tabcd_1:LocationCode=11947
TMC:cid_58:tabcd_1:NextLocationCode=11948
TMC:cid_58:tabcd_1:PrevLocationCode=11946
highway=motorway_junction
name=Ginsheim-Gustavsburg
ref=25
id=node/506756</desc></wpt><wpt lat="50.1178384" lon="8.5403538"><name>node/506997</name><desc>highway=motorway_junction
noref=yes
id=node/506997</desc></wpt><wpt lat="50.0556081" lon="8.3809066"><name>Wiesbadener Kreuz</name><desc>TMC:cid_58:tabcd_1:Class=Point
TMC:cid_58:tabcd_1:Direction=positive
TMC:cid_58:tabcd_1:LCLversion=9.00
TMC:cid_58:tabcd_1:LocationCode=12165
TMC:cid_58:tabcd_1:NextLocationCode=12166
TMC:cid_58:tabcd_1:PrevLocationCode=12164
highway=motorway_junction
name=Wiesbadener Kreuz
ref=9
id=node/507070</desc></wpt><wpt lat="50.1322791" lon="8.6515955"><name>Frankfurt-Miquelallee</name><desc>TMC:cid_58:tabcd_1:Class=Point
TMC:cid_58:tabcd_1:Direction=positive
TMC:cid_58:tabcd_1:LCLversion=9.00
TMC:cid_58:tabcd_1:LocationCode=12180
TMC:cid_58:tabcd_1:PrevLocationCode=12179
alt_name=Miquelknoten
highway=motorway_junction
loc_name=Miquel-Knoten
name=Frankfurt-Miquelallee
ref=21
id=node/507083</desc></wpt><wpt lat="50.1261473" lon="8.5614392"><name>Eschborner Dreieck</name><desc>TMC:cid_58:tabcd_1:Class=Point
TMC:cid_58:tabcd_1:Direction=positive
TMC:cid_58:tabcd_1:LCLversion=9.00
TMC:cid_58:tabcd_1:LocationCode=12177
TMC:cid_58:tabcd_1:NextLocationCode=12178
TMC:cid_58:tabcd_1:PrevLocationCode=12176
highway=motorway_junction
name=Eschborner Dreieck
ref=18
id=node/507110</desc></wpt><wpt lat="50.1333918" lon="8.5840697"><name>Nordwestkreuz Frankfurt</name><desc>TMC:cid_58:tabcd_1:Class=Point
TMC:cid_58:tabcd_1:Direction=both
TMC:cid_58:tabcd_1:LCLversion=9.00
TMC:cid_58:tabcd_1:LocationCode=12178
TMC:cid_58:tabcd_1:NextLocationCode=12179
TMC:cid_58:tabcd_1:PrevLocationCode=12177
highway=motorway_junction
name=Nordwestkreuz Frankfurt
ref=19
id=node/507123</desc></wpt><wpt lat="50.1323257" lon="8.6126264"><name>Frankfurt-Ludwig-Landmann-Straße</name><desc>TMC:cid_58:tabcd_1:Class=Point
TMC:cid_58:tabcd_1:Direction=positive
TMC:cid_58:tabcd_1:LCLversion=9.00
TMC:cid_58:tabcd_1:LocationCode=12179
TMC:cid_58:tabcd_1:NextLocationCode=12180
TMC:cid_58:tabcd_1:PrevLocationCode=12178
highway=motorway_junction
name=Frankfurt-Ludwig-Landmann-Straße
ref=20
id=node/507138</desc></wpt><wpt lat="50.0938788" lon="8.4834584"><name>Frankfurt-Zeilsheim</name><desc>TMC:cid_58:tabcd_1:Class=Point
TMC:cid_58:tabcd_1:Direction=positive
TMC:cid_58:tabcd_1:LCLversion=9.00
TMC:cid_58:tabcd_1:LocationCode=12172
TMC:cid_58:tabcd_1:NextLocationCode=12173
TMC:cid_58:tabcd_1:PrevLocationCode=12171
highway=motorway_junction
name=Frankfurt-Zeilsheim
ref=14
id=node/507140</desc></wpt><wpt lat="50.0498807" lon="8.2974679"><name>Wiesbaden-Erbenheim</name><desc>TMC:cid_58:tabcd_1:Class=Point
TMC:cid_58:tabcd_1:Direction=negative
TMC:cid_58:tabcd_1:LCLversion=9.00
TMC:cid_58:tabcd_1:LocationCode=12161
TMC:cid_58:tabcd_1:NextLocationCode=12162
TMC:cid_58:tabcd_1:PrevLocationCode=12160
highway=motorway_junction
name=Wiesbaden-Erbenheim
ref=6
id=node/507196</desc></wpt><wpt lat="50.0556087" lon="8.4079564"><name>Diedenbergen</name><desc>TMC:cid_58:tabcd_1:Class=Point
TMC:cid_58:tabcd_1:Direction=negative
TMC:cid_58:tabcd_1:LCLversion=9.00
TMC:cid_58:tabcd_1:LocationCode=12166
TMC:cid_58:tabcd_1:NextLocationCode=12167
TMC:cid_58:tabcd_1:PrevLocationCode=12165
highway=motorway_junction
name=Diedenbergen
ref=10
id=node/507246</desc></wpt><wpt lat="50.0557076" lon="8.3926649"><name>Wiesbadener Kreuz</name><desc>TMC:cid_58:tabcd_1:Class=Point
TMC:cid_58:tabcd_1:Direction=negative
TMC:cid_58:tabcd_1:LCLversion=9.00
TMC:cid_58:tabcd_1:LocationCode=12165
TMC:cid_58:tabcd_1:NextLocationCode=12166
TMC:cid_58:tabcd_1:PrevLocationCode=12164
highway=motorway_junction
name=Wiesbadener Kreuz
ref=9
id=node/507256</desc></wpt><wpt lat="50.1348299" lon="8.6199274"><name>Frankfurt-Ludwig-Landmann-Straße</name><desc>TMC:cid_58:tabcd_1:Class=Point
TMC:cid_58:tabcd_1:Direction=negative
TMC:cid_58:tabcd_1:LCLversion=9.00
TMC:cid_58:tabcd_1:LocationCode=12179
TMC:cid_58:tabcd_1:NextLocationCode=12180
TMC:cid_58:tabcd_1:PrevLocationCode=12178
highway=motorway_junction
name=Frankfurt-Ludwig-Landmann-Straße
ref=20
id=node/507361</desc></wpt><wpt lat="50.1306875" lon="8.577856"><name>Eschborner Dreieck;Eschborn</name><desc>TMC:cid_58:tabcd_1:Class=Point
TMC:cid_58:tabcd_1:Direction=negative
TMC:cid_58:tabcd_1:LCLversion=9.00
TMC:cid_58:tabcd_1:LocationCode=12177
TMC:cid_58:tabcd_1:NextLocationCode=12178
TMC:cid_58:tabcd_1:PrevLocationCode=12176
highway=motorway_junction
name=Eschborner Dreieck;Eschborn
ref=18
id=node/507380</desc></wpt><wpt lat="50.1121913" lon="8.5243538"><name>Kelkheim</name><desc>TMC:cid_58:tabcd_1:Class=Point
TMC:cid_58:tabcd_1:Direction=positive
TMC:cid_58:tabcd_1:LCLversion=9.00
TMC:cid_58:tabcd_1:LocationCode=12173
TMC:cid_58:tabcd_1:NextLocationCode=12174
TMC:cid_58:tabcd_1:PrevLocationCode=12172
highway=motorway_junction
name=Kelkheim
ref=15
id=node/507397</desc></wpt><wpt lat="50.1319155" lon="8.6583606"><name>Frankfurt-Miquelallee</name><desc>TMC:cid_58:tabcd_1:Class=Point
TMC:cid_58:tabcd_1:Direction=negative
TMC:cid_58:tabcd_1:LCLversion=9.00
TMC:cid_58:tabcd_1:LocationCode=12180
TMC:cid_58:tabcd_1:PrevLocationCode=12179
alt_name=Miquelknoten
highway=motorway_junction
loc_name=Miquel-Knoten
name=Frankfurt-Miquelallee
ref=21
id=node/507401</desc></wpt><wpt lat="50.0672345" lon="8.8264029"><name>Obertshausen</name><desc>TMC:cid_58:tabcd_1:Class=Point
TMC:cid_58:tabcd_1:Direction=negative
TMC:cid_58:tabcd_1:LCLversion=9.00
TMC:cid_58:tabcd_1:LocationCode=10867
TMC:cid_58:tabcd_1:NextLocationCode=59627
TMC:cid_58:tabcd_1:PrevLocationCode=10866
highway=motorway_junction
name=Obertshausen
ref=53
id=node/507918</desc></wpt><wpt lat="50.0563605" lon="8.9042405"><name>Rasthof Weiskirchen</name><desc>TMC:cid_58:tabcd_1:Class=Point
TMC:cid_58:tabcd_1:Direction=negative
TMC:cid_58:tabcd_1:LCLversion=9.00
TMC:cid_58:tabcd_1:LocationCode=10865
TMC:cid_58:tabcd_1:NextLocationCode=10866
TMC:cid_58:tabcd_1:PrevLocationCode=10864
highway=motorway_junction
name=Rasthof Weiskirchen
noref=yes
id=node/507944</desc></wpt><wpt lat="50.0277675" lon="8.9407746"><name>Seligenstadt</name><desc>TMC:cid_58:tabcd_1:Class=Point
TMC:cid_58:tabcd_1:Direction=negative
TMC:cid_58:tabcd_1:LCLversion=9.00
TMC:cid_58:tabcd_1:LocationCode=10864
TMC:cid_58:tabcd_1:NextLocationCode=10865
TMC:cid_58:tabcd_1:PrevLocationCode=59626
highway=motorway_junction
name=Seligenstadt
ref=55
time=2004-10-02T15:54:54Z
id=node/507959</desc></wpt><wpt lat="49.9941122" lon="9.0122737"><name>Seligenstädter Dreieck</name><desc>TMC:cid_58:tabcd_1:Class=Point
TMC:cid_58:tabcd_1:Direction=negative
TMC:cid_58:tabcd_1:LCLversion=9.00
TMC:cid_58:tabcd_1:LocationCode=10863
TMC:cid_58:tabcd_1:NextLocationCode=59626
TMC:cid_58:tabcd_1:PrevLocationCode=10862
destination=Seligenstädter Dreieck
highway=motorway_junction
name=Seligenstädter Dreieck
ref=56
id=node/507975</desc></wpt><wpt lat="50.0522894" lon="8.6212222"><name>Frankfurter Kreuz</name><desc>TMC:cid_58:tabcd_1:Class=Point
TMC:cid_58:tabcd_1:Direction=positive
TMC:cid_58:tabcd_1:LCLversion=9.00
TMC:cid_58:tabcd_1:LocationCode=10871
TMC:cid_58:tabcd_1:NextLocationCode=10872
TMC:cid_58:tabcd_1:PrevLocationCode=59628
highway=motorway_junction
name=Frankfurter Kreuz
ref=50
id=node/508109</desc></wpt><wpt lat="50.0509847" lon="8.3921276"><name>Wiesbadener Kreuz</name><desc>TMC:cid_58:tabcd_1:Class=Point
TMC:cid_58:tabcd_1:Direction=positive
TMC:cid_58:tabcd_1:LCLversion=9.00
TMC:cid_58:tabcd_1:LocationCode=10876
TMC:cid_58:tabcd_1:NextLocationCode=10877
TMC:cid_58:tabcd_1:PrevLocationCode=59629
highway=motorway_junction
name=Wiesbadener Kreuz
ref=47
id=node/508207</desc></wpt><wpt lat="50.0647629" lon="8.7473401"><name>Offenbach</name><desc>highway=motorway_junction
name=Offenbach
ref=52
id=node/508399</desc></wpt><wpt lat="50.0645472" lon="8.742782"><name>Offenbach</name><desc>highway=motorway_junction
name=Offenbach
ref=52
id=node/508400</desc></wpt><wpt lat="50.0644066" lon="8.7273881"><name>Offenbacher Kreuz</name><desc>highway=motorway_junction
name=Offenbacher Kreuz
ref=52
id=node/508408</desc></wpt><wpt lat="50.0270163" lon="8.4762145"><name>Raunheim</name><desc>TMC:cid_58:tabcd_1:Class=Point
TMC:cid_58:tabcd_1:Direction=positive
TMC:cid_58:tabcd_1:LCLversion=9.00
TMC:cid_58:tabcd_1:LocationCode=10875
TMC:cid_58:tabcd_1:NextLocationCode=59629
TMC:cid_58:tabcd_1:PrevLocationCode=10874
highway=motorway_junction
name=Raunheim
ref=48
id=node/508447</desc></wpt><wpt lat="50.0584596" lon="8.647922"><name>Frankfurt-Süd</name><desc>TMC:cid_58:tabcd_1:Class=Point
TMC:cid_58:tabcd_1:Direction=negative
TMC:cid_58:tabcd_1:LCLversion=9.00
TMC:cid_58:tabcd_1:LocationCode=10870
TMC:cid_58:tabcd_1:NextLocationCode=59628
TMC:cid_58:tabcd_1:PrevLocationCode=10869
highway=motorway_junction
name=Frankfurt-Süd
ref=51
id=node/508489</desc></wpt><wpt lat="51.0386193" lon="9.4902053"><name>Raststätte Hasselberg West</name><desc>TMC:cid_58:tabcd_1:Class=Point
TMC:cid_58:tabcd_1:Direction=negative
TMC:cid_58:tabcd_1:LCLversion=9.00
TMC:cid_58:tabcd_1:LocationCode=12311
TMC:cid_58:tabcd_1:NextLocationCode=39072
TMC:cid_58:tabcd_1:PrevLocationCode=12310
highway=motorway_junction
name=Raststätte Hasselberg West
noref=yes
id=node/510821</desc></wpt><wpt lat="51.0335583" lon="9.4859681"><name>Raststätte Hasselberg Ost</name><desc>TMC:cid_58:tabcd_1:Class=Point
TMC:cid_58:tabcd_1:Direction=positive
TMC:cid_58:tabcd_1:LCLversion=9.00
TMC:cid_58:tabcd_1:LocationCode=12311
TMC:cid_58:tabcd_1:NextLocationCode=39072
TMC:cid_58:tabcd_1:PrevLocationCode=12310
highway=motorway_junction
name=Raststätte Hasselberg Ost
noref=yes
id=node/510839</desc></wpt><wpt lat="49.871365" lon="8.5905145"><name>Autobahndreieck Darmstadt/Griesheim</name><desc>TMC:cid_58:tabcd_1:Class=Point
TMC:cid_58:tabcd_1:Direction=negative
TMC:cid_58:tabcd_1:LCLversion=9.00
TMC:cid_58:tabcd_1:LocationCode=12243
TMC:cid_58:tabcd_1:NextLocationCode=12244
highway=motorway_junction
name=Autobahndreieck Darmstadt/Griesheim
ref=1
id=node/510988</desc></wpt><wpt lat="49.8688188" lon="8.6064102"><name>Griesheim</name><desc>TMC:cid_58:tabcd_1:Class=Point
TMC:cid_58:tabcd_1:Direction=positive
TMC:cid_58:tabcd_1:LCLversion=9.00
TMC:cid_58:tabcd_1:LocationCode=12245
TMC:cid_58:tabcd_1:PrevLocationCode=12244
highway=motorway_junction
name=Griesheim
ref=3
id=node/511007</desc></wpt><wpt lat="50.0309951" lon="8.6178563"><name>Dreieich;Zeppenlinheim</name><desc>TMC:cid_58:tabcd_1:Class=Point
TMC:cid_58:tabcd_1:Direction=positive
TMC:cid_58:tabcd_1:LCLversion=9.00
TMC:cid_58:tabcd_1:LocationCode=37363
TMC:cid_58:tabcd_1:NextLocationCode=37176
TMC:cid_58:tabcd_1:PrevLocationCode=37345
highway=motorway_junction
name=Dreieich;Zeppenlinheim
id=node/512229</desc></wpt><wpt lat="50.1338338" lon="8.5970391"><name>Nordwestkreuz Frankfurt</name><desc>TMC:cid_58:tabcd_1:Class=Point
TMC:cid_58:tabcd_1:Direction=both
TMC:cid_58:tabcd_1:LCLversion=9.00
TMC:cid_58:tabcd_1:LocationCode=12178
TMC:cid_58:tabcd_1:NextLocationCode=12179
TMC:cid_58:tabcd_1:PrevLocationCode=12177
highway=motorway_junction
name=Nordwestkreuz Frankfurt
ref=19
id=node/516051</desc></wpt><wpt lat="50.1432832" lon="8.5512884"><name>Schwalbach Süd</name><desc>TMC:cid_58:tabcd_1:Class=Point
TMC:cid_58:tabcd_1:Direction=negative
TMC:cid_58:tabcd_1:LCLversion=9.00
TMC:cid_58:tabcd_1:LocationCode=37165
TMC:cid_58:tabcd_1:NextLocationCode=39075
TMC:cid_58:tabcd_1:PrevLocationCode=37166
highway=motorway_junction
name=Schwalbach Süd
id=node/516759</desc></wpt><wpt lat="50.057468" lon="8.6033232"><name>Frankfurter Kreuz</name><desc>highway=motorway_junction
name=Frankfurter Kreuz
id=node/519536</desc></wpt><wpt lat="50.0486276" lon="8.6402987"><name>Heusenstamm;Neu-Isenburg</name><desc>TMC:cid_58:tabcd_1:Class=Point
TMC:cid_58:tabcd_1:Direction=negative
TMC:cid_58:tabcd_1:LCLversion=9.00
TMC:cid_58:tabcd_1:LocationCode=37176
TMC:cid_58:tabcd_1:NextLocationCode=45031
TMC:cid_58:tabcd_1:PrevLocationCode=37363
bdouble=yes
highway=motorway_junction
name=Heusenstamm;Neu-Isenburg
id=node/519747</desc></wpt><wpt lat="50.0379582" lon="8.6258329"><name>node/519786</name><desc>highway=motorway_junction
noref=yes
id=node/519786</desc></wpt><wpt lat="50.0325768" lon="8.6192701"><name>Zeppelinheim</name><desc>highway=motorway_junction
name=Zeppelinheim
id=node/519801</desc></wpt><wpt lat="50.0293054" lon="8.6160423"><name>Dreieich;Zeppelinheim</name><desc>TMC:cid_58:tabcd_1:Class=Point
TMC:cid_58:tabcd_1:Direction=negative
TMC:cid_58:tabcd_1:LCLversion=9.00
TMC:cid_58:tabcd_1:LocationCode=37363
TMC:cid_58:tabcd_1:NextLocationCode=37176
TMC:cid_58:tabcd_1:PrevLocationCode=37345
highway=motorway_junction
name=Dreieich;Zeppelinheim
id=node/520765</desc></wpt><wpt lat="50.0778037" lon="8.5492864"><name>Schwanheimer Knoten</name><desc>bdouble=yes
highway=motorway_junction
name=Schwanheimer Knoten
id=node/521303</desc></wpt><wpt lat="50.0766919" lon="8.5349705"><name>Schwanheimer Knoten</name><desc>bdouble=yes
highway=motorway_junction
name=Schwanheimer Knoten
id=node/521316</desc></wpt><wpt lat="50.0723127" lon="8.5438779"><name>Schwanheimer Knoten</name><desc>TMC:cid_58:tabcd_1:Class=Point
TMC:cid_58:tabcd_1:Direction=positive
TMC:cid_58:tabcd_1:LCLversion=9.00
TMC:cid_58:tabcd_1:LocationCode=36580
TMC:cid_58:tabcd_1:PrevLocationCode=36579
bdouble=yes
highway=motorway_junction
name=Schwanheimer Knoten
id=node/521360</desc></wpt><wpt lat="50.0883418" lon="8.5696184"><name>node/521406</name><desc>TMC:cid_58:tabcd_1:Class=Point
TMC:cid_58:tabcd_1:Direction=positive
TMC:cid_58:tabcd_1:LCLversion=9.00
TMC:cid_58:tabcd_1:LocationCode=36576
TMC:cid_58:tabcd_1:NextLocationCode=36577
TMC:cid_58:tabcd_1:PrevLocationCode=36565
highway=motorway_junction
id=node/521406</desc></wpt><wpt lat="50.0944499" lon="8.5770348"><name>Nied</name><desc>highway=motorway_junction
name=Nied
id=node/521416</desc></wpt><wpt lat="50.0743908" lon="8.510171"><name>Frankfurt-Sindlingen</name><desc>TMC:cid_58:tabcd_1:Class=Point
TMC:cid_58:tabcd_1:Direction=negative
TMC:cid_58:tabcd_1:LCLversion=9.00
TMC:cid_58:tabcd_1:LocationCode=36575
TMC:cid_58:tabcd_1:NextLocationCode=36565
TMC:cid_58:tabcd_1:PrevLocationCode=36564
highway=motorway_junction
name=Frankfurt-Sindlingen
id=node/521435</desc></wpt><wpt lat="50.089607" lon="8.5708185"><name>Schwanheim</name><desc>TMC:cid_58:tabcd_1:Class=Point
TMC:cid_58:tabcd_1:Direction=negative
TMC:cid_58:tabcd_1:LCLversion=9.00
TMC:cid_58:tabcd_1:LocationCode=36576
TMC:cid_58:tabcd_1:NextLocationCode=36577
TMC:cid_58:tabcd_1:PrevLocationCode=36565
highway=motorway_junction
name=Schwanheim
id=node/521483</desc></wpt><wpt lat="50.0631173" lon="8.5498215"><name>Kelsterbach Ost</name><desc>TMC:cid_58:tabcd_1:Class=Point
TMC:cid_58:tabcd_1:Direction=negative
TMC:cid_58:tabcd_1:LCLversion=9.00
TMC:cid_58:tabcd_1:LocationCode=36579
TMC:cid_58:tabcd_1:NextLocationCode=36580
highway=motorway_junction
name=Kelsterbach Ost
id=node/521698</desc></wpt><wpt lat="50.1449441" lon="8.5504937"><name>Schwalbach Süd</name><desc>TMC:cid_58:tabcd_1:Class=Point
TMC:cid_58:tabcd_1:Direction=positive
TMC:cid_58:tabcd_1:LCLversion=9.00
TMC:cid_58:tabcd_1:LocationCode=37165
TMC:cid_58:tabcd_1:NextLocationCode=39075
TMC:cid_58:tabcd_1:PrevLocationCode=37166
highway=motorway_junction
name=Schwalbach Süd
id=node/522576</desc></wpt><wpt lat="50.1363553" lon="8.5634239"><name>Eschborn-Süd</name><desc>TMC:cid_58:tabcd_1:Class=Point
TMC:cid_58:tabcd_1:Direction=positive
TMC:cid_58:tabcd_1:LCLversion=9.00
TMC:cid_58:tabcd_1:LocationCode=37164
TMC:cid_58:tabcd_1:NextLocationCode=36877
TMC:cid_58:tabcd_1:PrevLocationCode=39075
highway=motorway_junction
name=Eschborn-Süd
id=node/522597</desc></wpt><wpt lat="50.0433011" lon="8.2984026"><name>node/522684</name><desc>TMC:cid_58:tabcd_1:Class=Point
TMC:cid_58:tabcd_1:Direction=negative
TMC:cid_58:tabcd_1:LCLversion=9.00
TMC:cid_58:tabcd_1:LocationCode=37087
TMC:cid_58:tabcd_1:NextLocationCode=23651
TMC:cid_58:tabcd_1:PrevLocationCode=23650
highway=motorway_junction
id=node/522684</desc></wpt><wpt lat="50.1207563" lon="8.5269928"><name>node/527511</name><desc>TMC:cid_58:tabcd_1:Class=Point
TMC:cid_58:tabcd_1:Direction=positive
TMC:cid_58:tabcd_1:LCLversion=9.00
TMC:cid_58:tabcd_1:LocationCode=25223
TMC:cid_58:tabcd_1:NextLocationCode=25224
TMC:cid_58:tabcd_1:PrevLocationCode=25222
highway=motorway_junction
id=node/527511</desc></wpt><wpt lat="50.1377838" lon="8.5587235"><name>Camp-Phönix-Park</name><desc>highway=motorway_junction
name=Camp-Phönix-Park
id=node/539190</desc></wpt><wpt lat="50.1322553" lon="8.6118379"><name>Frankfurt-Ludwig-Landmann-Straße</name><desc>highway=motorway_junction
name=Frankfurt-Ludwig-Landmann-Straße
ref=20
id=node/544291</desc></wpt><wpt lat="50.2028186" lon="8.6402773"><name>Bad Homburger Kreuz</name><desc>TMC:cid_58:tabcd_1:Class=Point
TMC:cid_58:tabcd_1:Direction=negative
TMC:cid_58:tabcd_1:LCLversion=9.00
TMC:cid_58:tabcd_1:LocationCode=12215
TMC:cid_58:tabcd_1:NextLocationCode=12216
TMC:cid_58:tabcd_1:PrevLocationCode=36595
highway=motorway_junction
name=Bad Homburger Kreuz
ref=4
id=node/544564</desc></wpt><wpt lat="50.1380925" lon="8.592525"><name>Nordwestkreuz Frankfurt</name><desc>highway=motorway_junction
name=Nordwestkreuz Frankfurt
ref=18
id=node/544599</desc></wpt><wpt lat="50.136231" lon="8.5645851"><name>Eschborn-Süd</name><desc>TMC:cid_58:tabcd_1:Class=Point
TMC:cid_58:tabcd_1:Direction=negative
TMC:cid_58:tabcd_1:LCLversion=9.00
TMC:cid_58:tabcd_1:LocationCode=37164
TMC:cid_58:tabcd_1:NextLocationCode=36877
TMC:cid_58:tabcd_1:PrevLocationCode=39075
highway=motorway_junction
name=Eschborn-Süd
id=node/544615</desc></wpt><wpt lat="50.0683134" lon="8.651408"><name>node/561305</name><desc>TMC:cid_58:tabcd_1:Class=Point
TMC:cid_58:tabcd_1:Direction=negative
TMC:cid_58:tabcd_1:LCLversion=9.00
TMC:cid_58:tabcd_1:LocationCode=36431
TMC:cid_58:tabcd_1:NextLocationCode=37057
TMC:cid_58:tabcd_1:PrevLocationCode=43477
highway=motorway_junction
id=node/561305</desc></wpt><wpt lat="49.7756368" lon="8.613795"><name>Seeheim-Jugenheim</name><desc>highway=motorway_junction
name=Seeheim-Jugenheim
ref=28
id=node/592848</desc></wpt><wpt lat="49.67305" lon="8.5999516"><name>Bensheim</name><desc>highway=motorway_junction
name=Bensheim
ref=30
id=node/592891</desc></wpt><wpt lat="49.6227627" lon="8.6188969"><name>node/592921</name><desc>highway=motorway_junction
noref=yes
id=node/592921</desc></wpt><wpt lat="49.8025306" lon="8.5715025"><name>Pfungstadt</name><desc>TMC:cid_58:tabcd_1:Class=Point
TMC:cid_58:tabcd_1:Direction=negative
TMC:cid_58:tabcd_1:LCLversion=9.00
TMC:cid_58:tabcd_1:LocationCode=39071
TMC:cid_58:tabcd_1:NextLocationCode=12224
TMC:cid_58:tabcd_1:PrevLocationCode=12223
highway=motorway_junction
name=Pfungstadt
ref=7
id=node/615945</desc></wpt><wpt lat="50.2020945" lon="8.6430505"><name>node/616200</name><desc>highway=motorway_junction
id=node/616200</desc></wpt><wpt lat="50.0640473" lon="8.742405"><name>Offenbach</name><desc>highway=motorway_junction
name=Offenbach
ref=52
id=node/633388</desc></wpt><wpt lat="50.1630595" lon="8.7020596"><name>Preungesheimer Dreieck</name><desc>TMC:cid_58:tabcd_1:Class=Point
TMC:cid_58:tabcd_1:Direction=negative
TMC:cid_58:tabcd_1:LCLversion=9.00
TMC:cid_58:tabcd_1:LocationCode=36960
TMC:cid_58:tabcd_1:NextLocationCode=45077
highway=motorway_junction
name=Preungesheimer Dreieck
id=node/634192</desc></wpt><wpt lat="50.1252646" lon="8.7261117"><name>Frankfurt-Ost</name><desc>highway=motorway_junction
name=Frankfurt-Ost
ref=14
id=node/634304</desc></wpt><wpt lat="50.1386063" lon="8.7100626"><name>Frankfurt-Friedberger Landstraße</name><desc>highway=motorway_junction
name=Frankfurt-Friedberger Landstraße
ref=9
id=node/634556</desc></wpt><wpt lat="50.0588412" lon="8.6485395"><name>Frankfurt-Süd</name><desc>TMC:cid_58:tabcd_1:Class=Point
TMC:cid_58:tabcd_1:Direction=positive
TMC:cid_58:tabcd_1:LCLversion=9.00
TMC:cid_58:tabcd_1:LocationCode=10870
TMC:cid_58:tabcd_1:NextLocationCode=59628
TMC:cid_58:tabcd_1:PrevLocationCode=10869
highway=motorway_junction
name=Frankfurt-Süd
ref=51
id=node/634720</desc></wpt><wpt lat="49.9960661" lon="8.3453586"><name>Gustavsburg</name><desc>TMC:cid_58:tabcd_1:Class=Point
TMC:cid_58:tabcd_1:Direction=positive
TMC:cid_58:tabcd_1:LCLversion=9.00
TMC:cid_58:tabcd_1:LocationCode=12236
TMC:cid_58:tabcd_1:NextLocationCode=12237
TMC:cid_58:tabcd_1:PrevLocationCode=12235
highway=motorway_junction
name=Gustavsburg
ref=6
id=node/664311</desc></wpt><wpt lat="51.4836501" lon="9.0338605"><name>Rastplatz Am Quast</name><desc>TMC:cid_58:tabcd_1:Class=Point
TMC:cid_58:tabcd_1:Direction=negative
TMC:cid_58:tabcd_1:LCLversion=9.00
TMC:cid_58:tabcd_1:LocationCode=59718
TMC:cid_58:tabcd_1:NextLocationCode=11368
TMC:cid_58:tabcd_1:PrevLocationCode=11367
highway=motorway_junction
name=Rastplatz Am Quast
noref=yes
id=node/718635</desc></wpt><wpt lat="51.4142361" lon="9.1620077"><name>Rastplatz Schoren</name><desc>TMC:cid_58:tabcd_1:Class=Point
TMC:cid_58:tabcd_1:Direction=negative
TMC:cid_58:tabcd_1:LCLversion=9.00
TMC:cid_58:tabcd_1:LocationCode=59721
TMC:cid_58:tabcd_1:NextLocationCode=11369
TMC:cid_58:tabcd_1:PrevLocationCode=59720
highway=motorway_junction
name=Rastplatz Schoren
noref=yes
id=node/719404</desc></wpt><wpt lat="51.381377" lon="9.2524101"><name>Raststätte Bühleck</name><desc>TMC:cid_58:tabcd_1:Class=Point
TMC:cid_58:tabcd_1:Direction=negative
TMC:cid_58:tabcd_1:LCLversion=9.00
TMC:cid_58:tabcd_1:LocationCode=11370
TMC:cid_58:tabcd_1:NextLocationCode=59722
TMC:cid_58:tabcd_1:PrevLocationCode=11369
highway=motorway_junction
name=Raststätte Bühleck
noref=yes
id=node/719552</desc></wpt><wpt lat="51.3407165" lon="9.2831682"><name>Rastplatz Rohrberg</name><desc>TMC:cid_58:tabcd_1:Class=Point
TMC:cid_58:tabcd_1:Direction=negative
TMC:cid_58:tabcd_1:LCLversion=9.00
TMC:cid_58:tabcd_1:LocationCode=59723
TMC:cid_58:tabcd_1:NextLocationCode=11371
TMC:cid_58:tabcd_1:PrevLocationCode=59722
highway=motorway_junction
name=Rastplatz Rohrberg
noref=yes
id=node/924074</desc></wpt><wpt lat="51.3213827" lon="9.2840692"><name>Zierenberg</name><desc>TMC:cid_58:tabcd_1:Class=Point
TMC:cid_58:tabcd_1:Direction=negative
TMC:cid_58:tabcd_1:LCLversion=9.00
TMC:cid_58:tabcd_1:LocationCode=11371
TMC:cid_58:tabcd_1:NextLocationCode=59724
TMC:cid_58:tabcd_1:PrevLocationCode=59723
highway=motorway_junction
name=Zierenberg
ref=67
id=node/925248</desc></wpt><wpt lat="51.3108677" lon="9.2963053"><name>Rastplatz Roterain</name><desc>TMC:cid_58:tabcd_1:Class=Point
TMC:cid_58:tabcd_1:Direction=negative
TMC:cid_58:tabcd_1:LCLversion=9.00
TMC:cid_58:tabcd_1:LocationCode=59725
TMC:cid_58:tabcd_1:NextLocationCode=59726
TMC:cid_58:tabcd_1:PrevLocationCode=59724
highway=motorway_junction
name=Rastplatz Roterain
noref=yes
id=node/933178</desc></wpt><wpt lat="51.2840532" lon="9.3700298"><name>Rastplatz Hirzstein</name><desc>TMC:cid_58:tabcd_1:Class=Point
TMC:cid_58:tabcd_1:Direction=negative
TMC:cid_58:tabcd_1:LCLversion=9.00
TMC:cid_58:tabcd_1:LocationCode=59727
TMC:cid_58:tabcd_1:NextLocationCode=11372
TMC:cid_58:tabcd_1:PrevLocationCode=59726
highway=motorway_junction
name=Rastplatz Hirzstein
noref=yes
id=node/935755</desc></wpt><wpt lat="51.262283" lon="9.4588148"><name>Kreuz Kassel-West</name><desc>TMC:cid_58:tabcd_1:Class=Point
TMC:cid_58:tabcd_1:Direction=negative
TMC:cid_58:tabcd_1:LCLversion=9.00
TMC:cid_58:tabcd_1:LocationCode=11373
TMC:cid_58:tabcd_1:NextLocationCode=11374
TMC:cid_58:tabcd_1:PrevLocationCode=59729
highway=motorway_junction
name=Kreuz Kassel-West
ref=69
id=node/936576</desc></wpt><wpt lat="50.0319566" lon="8.289997"><name>Mainz-Kastel</name><desc>TMC:cid_58:tabcd_1:Class=Point
TMC:cid_58:tabcd_1:Direction=negative
TMC:cid_58:tabcd_1:LCLversion=9.00
TMC:cid_58:tabcd_1:LocationCode=12239
TMC:cid_58:tabcd_1:NextLocationCode=12240
TMC:cid_58:tabcd_1:PrevLocationCode=59660
highway=motorway_junction
name=Mainz-Kastel
ref=3
id=node/2388140</desc></wpt><wpt lat="49.929912" lon="8.8445544"><name>Münster-Breitefeld</name><desc>TMC:cid_58:tabcd_1:Class=Point
TMC:cid_58:tabcd_1:Direction=negative
TMC:cid_58:tabcd_1:LCLversion=9.00
TMC:cid_58:tabcd_1:LocationCode=36556
TMC:cid_58:tabcd_1:NextLocationCode=23639
TMC:cid_58:tabcd_1:PrevLocationCode=36557
highway=motorway_junction
name=Münster-Breitefeld
id=node/2388236</desc></wpt><wpt lat="49.9140315" lon="8.8489631"><name>Münster</name><desc>TMC:cid_58:tabcd_1:Class=Point
TMC:cid_58:tabcd_1:Direction=negative
TMC:cid_58:tabcd_1:LCLversion=9.00
TMC:cid_58:tabcd_1:LocationCode=36557
TMC:cid_58:tabcd_1:NextLocationCode=36556
TMC:cid_58:tabcd_1:PrevLocationCode=23638
highway=motorway_junction
name=Münster
id=node/2388245</desc></wpt><wpt lat="49.9114376" lon="8.8550985"><name>Münster</name><desc>TMC:cid_58:tabcd_1:Class=Point
TMC:cid_58:tabcd_1:Direction=positive
TMC:cid_58:tabcd_1:LCLversion=9.00
TMC:cid_58:tabcd_1:LocationCode=36557
TMC:cid_58:tabcd_1:NextLocationCode=36556
TMC:cid_58:tabcd_1:PrevLocationCode=23638
highway=motorway_junction
name=Münster
id=node/2388255</desc></wpt><wpt lat="49.9276646" lon="8.8450732"><name>Münster-Breitefeld</name><desc>TMC:cid_58:tabcd_1:Class=Point
TMC:cid_58:tabcd_1:Direction=positive
TMC:cid_58:tabcd_1:LCLversion=9.00
TMC:cid_58:tabcd_1:LocationCode=36556
TMC:cid_58:tabcd_1:NextLocationCode=23639
TMC:cid_58:tabcd_1:PrevLocationCode=36557
highway=motorway_junction
name=Münster-Breitefeld
id=node/2388286</desc></wpt><wpt lat="49.8728819" lon="8.7598697"><name>Roßdorf-Ost</name><desc>highway=motorway_junction
name=Roßdorf-Ost
id=node/2388534</desc></wpt><wpt lat="50.0417412" lon="8.256979"><name>Wiesbaden/Mainz-Amöneburg</name><desc>TMC:cid_58:tabcd_1:Class=Point
TMC:cid_58:tabcd_1:Direction=positive
TMC:cid_58:tabcd_1:LCLversion=9.00
TMC:cid_58:tabcd_1:LocationCode=12240
TMC:cid_58:tabcd_1:NextLocationCode=12241
TMC:cid_58:tabcd_1:PrevLocationCode=12239
highway=motorway_junction
name=Wiesbaden/Mainz-Amöneburg
ref=2
id=node/2412660</desc></wpt><wpt lat="50.0110153" lon="8.3413253"><name>Hochheim-Süd</name><desc>TMC:cid_58:tabcd_1:Class=Point
TMC:cid_58:tabcd_1:Direction=positive
TMC:cid_58:tabcd_1:LCLversion=9.00
TMC:cid_58:tabcd_1:LocationCode=12237
TMC:cid_58:tabcd_1:NextLocationCode=12238
TMC:cid_58:tabcd_1:PrevLocationCode=12236
highway=motorway_junction
name=Hochheim-Süd
ref=5
id=node/2413039</desc></wpt><wpt lat="49.9974511" lon="8.3454292"><name>Gustavsburg</name><desc>TMC:cid_58:tabcd_1:Class=Point
TMC:cid_58:tabcd_1:Direction=negative
TMC:cid_58:tabcd_1:LCLversion=9.00
TMC:cid_58:tabcd_1:LocationCode=12236
TMC:cid_58:tabcd_1:NextLocationCode=12237
TMC:cid_58:tabcd_1:PrevLocationCode=12235
highway=motorway_junction
name=Gustavsburg
ref=6
id=node/2413305</desc></wpt><wpt lat="49.9733031" lon="8.3783413"><name>Bischofsheim</name><desc>TMC:cid_58:tabcd_1:Class=Point
TMC:cid_58:tabcd_1:Direction=negative
TMC:cid_58:tabcd_1:LCLversion=11.00
TMC:cid_58:tabcd_1:LocationCode=11949
TMC:cid_58:tabcd_1:NextLocationCode=11950
TMC:cid_58:tabcd_1:PrevLocationCode=11948
highway=motorway_junction
name=Bischofsheim
ref=27
id=node/2413314</desc></wpt><wpt lat="50.0524186" lon="8.2126749"><name>Schiersteiner Kreuz</name><desc>highway=motorway_junction
name=Schiersteiner Kreuz
ref=2
id=node/2413328</desc></wpt><wpt lat="49.8665867" lon="8.7170904"><name>Roßdorf-West</name><desc>TMC:cid_58:tabcd_1:Class=Point
TMC:cid_58:tabcd_1:Direction=positive
TMC:cid_58:tabcd_1:LCLversion=9.00
TMC:cid_58:tabcd_1:LocationCode=36571
TMC:cid_58:tabcd_1:NextLocationCode=22227
TMC:cid_58:tabcd_1:PrevLocationCode=36601
highway=motorway_junction
name=Roßdorf-West
wikidata=Q16740283
id=node/2448300</desc></wpt><wpt lat="49.9001968" lon="8.8675402"><name>Dreieck Dieburg</name><desc>TMC:cid_58:tabcd_1:Class=Point
TMC:cid_58:tabcd_1:Direction=positive
TMC:cid_58:tabcd_1:LCLversion=9.00
TMC:cid_58:tabcd_1:LocationCode=22228
TMC:cid_58:tabcd_1:NextLocationCode=39026
TMC:cid_58:tabcd_1:PrevLocationCode=36568
highway=motorway_junction
name=Dreieck Dieburg
id=node/2454669</desc></wpt><wpt lat="50.0037823" lon="8.990014"><name>Mainhausen</name><desc>TMC:cid_58:tabcd_1:Class=Point
TMC:cid_58:tabcd_1:Direction=negative
TMC:cid_58:tabcd_1:LCLversion=9.00
TMC:cid_58:tabcd_1:LocationCode=59626
TMC:cid_58:tabcd_1:NextLocationCode=10864
TMC:cid_58:tabcd_1:PrevLocationCode=10863
highway=motorway_junction
name=Mainhausen
noref=yes
id=node/2455371</desc></wpt><wpt lat="49.9561237" lon="8.838687"><name>Rödermark-Ober-Roden</name><desc>TMC:cid_58:tabcd_1:Class=Point
TMC:cid_58:tabcd_1:Direction=positive
TMC:cid_58:tabcd_1:LCLversion=9.00
TMC:cid_58:tabcd_1:LocationCode=36553
TMC:cid_58:tabcd_1:NextLocationCode=36554
TMC:cid_58:tabcd_1:PrevLocationCode=23639
highway=motorway_junction
name=Rödermark-Ober-Roden
id=node/2457141</desc></wpt><wpt lat="49.9834617" lon="8.8715746"><name>Rodgau-Nieder-Roden</name><desc>TMC:cid_58:tabcd_1:Class=Point
TMC:cid_58:tabcd_1:Direction=positive
TMC:cid_58:tabcd_1:LCLversion=9.00
TMC:cid_58:tabcd_1:LocationCode=36554
TMC:cid_58:tabcd_1:NextLocationCode=36555
TMC:cid_58:tabcd_1:PrevLocationCode=36553
highway=motorway_junction
name=Rodgau-Nieder-Roden
id=node/2457639</desc></wpt><wpt lat="50.0844987" lon="8.8438061"><name>Obertshausen-West</name><desc>exit_to=Mühlheim;Lämmerspiel
highway=motorway_junction
name=Obertshausen-West
id=node/2472266</desc></wpt><wpt lat="50.0703519" lon="8.8665732"><name>Obertshausen-Ost</name><desc>highway=motorway_junction
name=Obertshausen-Ost
id=node/2472290</desc></wpt><wpt lat="50.1146719" lon="8.6366589"><name>Katharinenkreisel</name><desc>TMC:cid_58:tabcd_1:Class=Point
TMC:cid_58:tabcd_1:Direction=positive
TMC:cid_58:tabcd_1:LCLversion=9.00
TMC:cid_58:tabcd_1:LocationCode=12108
TMC:cid_58:tabcd_1:NextLocationCode=12109
TMC:cid_58:tabcd_1:PrevLocationCode=12107
highway=motorway_junction
name=Katharinenkreisel
ref=5
id=node/7226837</desc></wpt><wpt lat="49.8091647" lon="8.5761284"><name>Rastanlage Pfungstadt Ost</name><desc>TMC:cid_58:tabcd_1:Class=Point
TMC:cid_58:tabcd_1:Direction=positive
TMC:cid_58:tabcd_1:LCLversion=9.00
TMC:cid_58:tabcd_1:LocationCode=12224
TMC:cid_58:tabcd_1:NextLocationCode=12226
TMC:cid_58:tabcd_1:PrevLocationCode=39071
highway=motorway_junction
name=Rastanlage Pfungstadt Ost
noref=yes
id=node/10705270</desc></wpt><wpt lat="49.6732667" lon="8.6000721"><name>Bensheim</name><desc>highway=motorway_junction
name=Bensheim
ref=30
id=node/10857354</desc></wpt><wpt lat="49.6470698" lon="8.6096779"><name>Heppenheim</name><desc>highway=motorway_junction
name=Heppenheim
ref=31
id=node/11293113</desc></wpt><wpt lat="49.6615101" lon="8.6064199"><name>node/11325154</name><desc>highway=motorway_junction
noref=yes
id=node/11325154</desc></wpt><wpt lat="49.7229779" lon="8.5938194"><name>Zwingenberg</name><desc>highway=motorway_junction
name=Zwingenberg
ref=29
id=node/11749333</desc></wpt><wpt lat="51.2729052" lon="9.4609388"><name>Kassel-Niederzwehren</name><desc>TMC:cid_58:tabcd_1:Class=Point
TMC:cid_58:tabcd_1:Direction=negative
TMC:cid_58:tabcd_1:LCLversion=9.00
TMC:cid_58:tabcd_1:LocationCode=11552
TMC:cid_58:tabcd_1:NextLocationCode=11553
TMC:cid_58:tabcd_1:PrevLocationCode=11551
highway=motorway_junction
name=Kassel-Niederzwehren
ref=6
id=node/12448317</desc></wpt><wpt lat="51.2791875" lon="9.3932095"><name>Kassel-Bad Wilhelmshöhe</name><desc>TMC:cid_58:tabcd_1:Class=Point
TMC:cid_58:tabcd_1:Direction=positive
TMC:cid_58:tabcd_1:LCLversion=9.00
TMC:cid_58:tabcd_1:LocationCode=11372
TMC:cid_58:tabcd_1:NextLocationCode=59728
TMC:cid_58:tabcd_1:PrevLocationCode=59727
highway=motorway_junction
name=Kassel-Bad Wilhelmshöhe
ref=68
id=node/12449832</desc></wpt><wpt lat="51.3210017" lon="9.2841193"><name>Zierenberg</name><desc>TMC:cid_58:tabcd_1:Class=Point
TMC:cid_58:tabcd_1:Direction=positive
TMC:cid_58:tabcd_1:LCLversion=9.00
TMC:cid_58:tabcd_1:LocationCode=11371
TMC:cid_58:tabcd_1:NextLocationCode=59724
TMC:cid_58:tabcd_1:PrevLocationCode=59723
highway=motorway_junction
name=Zierenberg
ref=67
id=node/12450203</desc></wpt><wpt lat="51.3566645" lon="9.2789814"><name>Rastplatz Bärenberg</name><desc>TMC:cid_58:tabcd_1:Class=Point
TMC:cid_58:tabcd_1:Direction=positive
TMC:cid_58:tabcd_1:LCLversion=9.00
TMC:cid_58:tabcd_1:LocationCode=59722
TMC:cid_58:tabcd_1:NextLocationCode=59723
TMC:cid_58:tabcd_1:PrevLocationCode=11370
highway=motorway_junction
name=Rastplatz Bärenberg
noref=yes
id=node/12450287</desc></wpt><wpt lat="51.3825464" lon="9.2337083"><name>Raststätte Bühleck</name><desc>highway=motorway_junction
name=Raststätte Bühleck
noref=yes
id=node/12450401</desc></wpt><wpt lat="51.417717" lon="9.159513"><name>Rastplatz Am roten Ufer</name><desc>TMC:cid_58:tabcd_1:Class=Point
TMC:cid_58:tabcd_1:Direction=positive
TMC:cid_58:tabcd_1:LCLversion=9.00
TMC:cid_58:tabcd_1:LocationCode=59720
TMC:cid_58:tabcd_1:NextLocationCode=59721
TMC:cid_58:tabcd_1:PrevLocationCode=59719
highway=motorway_junction
name=Rastplatz Am roten Ufer
noref=yes
note:de=Laut TMC-Daten liegt hier ein Parkplatz namens "Am roten Ufer".
id=node/12450843</desc></wpt><wpt lat="51.489992" lon="9.0188118"><name>Diemelstadt</name><desc>TMC:cid_58:tabcd_1:Class=Point
TMC:cid_58:tabcd_1:Direction=negative
TMC:cid_58:tabcd_1:LCLversion=9.00
TMC:cid_58:tabcd_1:LocationCode=11367
TMC:cid_58:tabcd_1:NextLocationCode=59718
TMC:cid_58:tabcd_1:PrevLocationCode=11366
highway=motorway_junction
name=Diemelstadt
ref=64
id=node/12450890</desc></wpt><wpt lat="50.2392667" lon="9.2946779"><name>Bad Orb/Wächtersbach</name><desc>TMC:cid_58:tabcd_1:Class=Point
TMC:cid_58:tabcd_1:Direction=negative
TMC:cid_58:tabcd_1:LCLversion=9.00
TMC:cid_58:tabcd_1:LocationCode=12195
TMC:cid_58:tabcd_1:NextLocationCode=12196
TMC:cid_58:tabcd_1:PrevLocationCode=12194
highway=motorway_junction
name=Bad Orb/Wächtersbach
ref=45
id=node/12455895</desc></wpt><wpt lat="50.3285529" lon="9.474359"><name>Schlüchtern-Süd</name><desc>TMC:cid_58:tabcd_1:Class=Point
TMC:cid_58:tabcd_1:Direction=negative
TMC:cid_58:tabcd_1:LCLversion=9.00
TMC:cid_58:tabcd_1:LocationCode=20108
TMC:cid_58:tabcd_1:NextLocationCode=20109
TMC:cid_58:tabcd_1:PrevLocationCode=12197
highway=motorway_junction
name=Schlüchtern-Süd
ref=48
id=node/12456168</desc></wpt><wpt lat="50.3327428" lon="8.9248138"><name>Florstadt</name><desc>TMC:cid_58:tabcd_1:Class=Point
TMC:cid_58:tabcd_1:Direction=negative
TMC:cid_58:tabcd_1:LCLversion=9.00
TMC:cid_58:tabcd_1:LocationCode=11393
TMC:cid_58:tabcd_1:NextLocationCode=59664
TMC:cid_58:tabcd_1:PrevLocationCode=11392
highway=motorway_junction
name=Florstadt
ref=38
id=node/12456589</desc></wpt><wpt lat="50.1457038" lon="8.3257157"><name>Wiesbaden / Niedernhausen</name><desc>TMC:cid_58:tabcd_1:Class=Point
TMC:cid_58:tabcd_1:Direction=positive
TMC:cid_58:tabcd_1:LCLversion=9.00
TMC:cid_58:tabcd_1:LocationCode=10878
TMC:cid_58:tabcd_1:NextLocationCode=59630
TMC:cid_58:tabcd_1:PrevLocationCode=10877
highway=motorway_junction
name=Wiesbaden / Niedernhausen
ref=46
id=node/14776161</desc></wpt><wpt lat="50.3443606" lon="8.9270313"><name>Rastplatz Hohe Berg</name><desc>TMC:cid_58:tabcd_1:Class=Point
TMC:cid_58:tabcd_1:Direction=negative
TMC:cid_58:tabcd_1:LCLversion=9.00
TMC:cid_58:tabcd_1:LocationCode=59664
TMC:cid_58:tabcd_1:NextLocationCode=59665
TMC:cid_58:tabcd_1:PrevLocationCode=11393
highway=motorway_junction
name=Rastplatz Hohe Berg
noref=yes
id=node/14790929</desc></wpt><wpt lat="50.2511589" lon="8.992532"><name>Raststätte Langen-Bergheim West</name><desc>TMC:cid_58:tabcd_1:Class=Point
TMC:cid_58:tabcd_1:Direction=negative
TMC:cid_58:tabcd_1:LCLversion=9.00
TMC:cid_58:tabcd_1:LocationCode=11389
TMC:cid_58:tabcd_1:NextLocationCode=11392
TMC:cid_58:tabcd_1:PrevLocationCode=45085
highway=motorway_junction
name=Raststätte Langen-Bergheim West
noref=yes
id=node/14790947</desc></wpt><wpt lat="50.1837053" lon="9.0118548"><name>Langenselbold-West</name><desc>TMC:cid_58:tabcd_1:Class=Point
TMC:cid_58:tabcd_1:Direction=negative
TMC:cid_58:tabcd_1:LCLversion=9.00
TMC:cid_58:tabcd_1:LocationCode=11390
TMC:cid_58:tabcd_1:NextLocationCode=59663
TMC:cid_58:tabcd_1:PrevLocationCode=11388
highway=motorway_junction
name=Langenselbold-West
ref=41
id=node/14790965</desc></wpt><wpt lat="50.1685573" lon="9.0173171"><name>Langenselbolder Dreieck</name><desc>TMC:cid_58:tabcd_1:Class=Point
TMC:cid_58:tabcd_1:Direction=negative
TMC:cid_58:tabcd_1:LCLversion=9.00
TMC:cid_58:tabcd_1:LocationCode=11388
TMC:cid_58:tabcd_1:NextLocationCode=11390
TMC:cid_58:tabcd_1:PrevLocationCode=11387
destination=Erlensee
highway=motorway_junction
name=Langenselbolder Dreieck
ref=42
id=node/14790968</desc></wpt><wpt lat="49.6526549" lon="8.5431061"><name>node/17023926</name><desc>TMC:cid_58:tabcd_1:Class=Point
TMC:cid_58:tabcd_1:LCLversion=9.00
TMC:cid_58:tabcd_1:LocationCode=45021
TMC:cid_58:tabcd_1:NextLocationCode=23773
TMC:cid_58:tabcd_1:PrevLocationCode=39146
highway=motorway_junction
id=node/17023926</desc></wpt><wpt lat="49.6581174" lon="8.5498774"><name>node/17023951</name><desc>TMC:cid_58:tabcd_1:Class=Point
TMC:cid_58:tabcd_1:Direction=positive
TMC:cid_58:tabcd_1:LCLversion=9.00
TMC:cid_58:tabcd_1:LocationCode=23773
TMC:cid_58:tabcd_1:NextLocationCode=23774
TMC:cid_58:tabcd_1:PrevLocationCode=45021
highway=motorway_junction
id=node/17023951</desc></wpt><wpt lat="51.0085108" lon="10.1721244"><name>Herleshausen</name><desc>TMC:cid_58:tabcd_1:Class=Point
TMC:cid_58:tabcd_1:Direction=positive
TMC:cid_58:tabcd_1:LCLversion=9.00
TMC:cid_58:tabcd_1:LocationCode=11143
TMC:cid_58:tabcd_1:NextLocationCode=11144
TMC:cid_58:tabcd_1:PrevLocationCode=11141
highway=motorway_junction
name=Herleshausen
ref=38
wikidata=Q24067251
id=node/17189158</desc></wpt><wpt lat="50.5763346" lon="9.5734291"><name>node/17212726</name><desc>highway=motorway_junction
id=node/17212726</desc></wpt><wpt lat="50.4862127" lon="9.6872056"><name>node/17213490</name><desc>highway=motorway_junction
id=node/17213490</desc></wpt><wpt lat="49.539941" lon="8.5994322"><name>Viernheim-Ost</name><desc>highway=motorway_junction
name=Viernheim-Ost
ref=2
id=node/18111976</desc></wpt><wpt lat="51.2607285" lon="9.5138985"><name>Dreieck Kassel-Süd</name><desc>TMC:cid_58:tabcd_1:Class=Point
TMC:cid_58:tabcd_1:Direction=positive
TMC:cid_58:tabcd_1:LCLversion=9.00
TMC:cid_58:tabcd_1:LocationCode=11374
TMC:cid_58:tabcd_1:PrevLocationCode=11373
highway=motorway_junction
name=Dreieck Kassel-Süd
ref=70
id=node/18640451</desc></wpt><wpt lat="50.829723" lon="9.5750815"><name>Kirchheim</name><desc>TMC:cid_58:tabcd_1:Class=Point
TMC:cid_58:tabcd_1:Direction=positive
TMC:cid_58:tabcd_1:LCLversion=9.00
TMC:cid_58:tabcd_1:LocationCode=12307
TMC:cid_58:tabcd_1:NextLocationCode=12308
TMC:cid_58:tabcd_1:PrevLocationCode=12306
highway=motorway_junction
name=Kirchheim
ref=87
id=node/18640825</desc></wpt><wpt lat="49.66409" lon="8.5670438"><name>node/20637548</name><desc>TMC:cid_58:tabcd_1:Class=Point
TMC:cid_58:tabcd_1:Direction=positive
TMC:cid_58:tabcd_1:LCLversion=9.00
TMC:cid_58:tabcd_1:LocationCode=23774
TMC:cid_58:tabcd_1:NextLocationCode=36551
TMC:cid_58:tabcd_1:PrevLocationCode=23773
highway=motorway_junction
id=node/20637548</desc></wpt><wpt lat="50.0604459" lon="8.8912838"><name>Hanau</name><desc>TMC:cid_58:tabcd_1:Class=Point
TMC:cid_58:tabcd_1:Direction=negative
TMC:cid_58:tabcd_1:LCLversion=9.00
TMC:cid_58:tabcd_1:LocationCode=23641
TMC:cid_58:tabcd_1:NextLocationCode=44395
TMC:cid_58:tabcd_1:PrevLocationCode=36687
highway=motorway_junction
name=Hanau
id=node/20821218</desc></wpt><wpt lat="50.2416125" lon="9.0021429"><name>Hammersbach</name><desc>TMC:cid_58:tabcd_1:Class=Point
TMC:cid_58:tabcd_1:Direction=positive
TMC:cid_58:tabcd_1:LCLversion=9.00
TMC:cid_58:tabcd_1:LocationCode=45085
TMC:cid_58:tabcd_1:NextLocationCode=11389
TMC:cid_58:tabcd_1:PrevLocationCode=59663
highway=motorway_junction
name=Hammersbach
ref=40
id=node/20865590</desc></wpt><wpt lat="50.163473" lon="9.0184812"><name>Langenselbolder Dreieck</name><desc>TMC:cid_58:tabcd_1:Class=Point
TMC:cid_58:tabcd_1:Direction=positive
TMC:cid_58:tabcd_1:LCLversion=9.00
TMC:cid_58:tabcd_1:LocationCode=12189
TMC:cid_58:tabcd_1:NextLocationCode=12190
TMC:cid_58:tabcd_1:PrevLocationCode=12188
highway=motorway_junction
name=Langenselbolder Dreieck
ref=42;39
id=node/20865737</desc></wpt><wpt lat="50.1785862" lon="9.0139232"><name>Langenselbold-West</name><desc>TMC:cid_58:tabcd_1:Class=Point
TMC:cid_58:tabcd_1:Direction=positive
TMC:cid_58:tabcd_1:LCLversion=9.00
TMC:cid_58:tabcd_1:LocationCode=11390
TMC:cid_58:tabcd_1:NextLocationCode=59663
TMC:cid_58:tabcd_1:PrevLocationCode=11388
highway=motorway_junction
name=Langenselbold-West
ref=41
id=node/20865793</desc></wpt><wpt lat="50.7422052" lon="8.2646669"><name>Dillenburg</name><desc>TMC:cid_58:tabcd_1:Class=Point
TMC:cid_58:tabcd_1:Direction=positive
TMC:cid_58:tabcd_1:LCLversion=9.00
TMC:cid_58:tabcd_1:LocationCode=11408
TMC:cid_58:tabcd_1:NextLocationCode=59680
TMC:cid_58:tabcd_1:PrevLocationCode=59679
highway=motorway_junction
name=Dillenburg
ref=25
id=node/20870682</desc></wpt><wpt lat="50.6867996" lon="8.2917996"><name>Raststätte Dollenberg</name><desc>TMC:cid_58:tabcd_1:Class=Point
TMC:cid_58:tabcd_1:Direction=positive
TMC:cid_58:tabcd_1:LCLversion=9.00
TMC:cid_58:tabcd_1:LocationCode=11407
TMC:cid_58:tabcd_1:NextLocationCode=59677
TMC:cid_58:tabcd_1:PrevLocationCode=11406
highway=motorway_junction
name=Raststätte Dollenberg
noref=yes
id=node/20870691</desc></wpt><wpt lat="50.6623645" lon="8.3121044"><name>node/20871470</name><desc>highway=motorway_junction
note:maxspeed:wet=maxspeed:wet an Einfahrt nicht wiederholt, somit aufgehoben
id=node/20871470</desc></wpt><wpt lat="50.6084506" lon="8.6572896"><name>Wettenberg</name><desc>TMC:cid_58:tabcd_1:Class=Point
TMC:cid_58:tabcd_1:Direction=negative
TMC:cid_58:tabcd_1:LCLversion=9.00
TMC:cid_58:tabcd_1:LocationCode=11525
TMC:cid_58:tabcd_1:NextLocationCode=59685
TMC:cid_58:tabcd_1:PrevLocationCode=36583
highway=motorway_junction
name=Wettenberg
ref=3
id=node/20911231</desc></wpt><wpt lat="50.6210742" lon="8.6738687"><name>Parkplatz Gleiberger Land</name><desc>TMC:cid_58:tabcd_1:Class=Point
TMC:cid_58:tabcd_1:Direction=negative
TMC:cid_58:tabcd_1:LCLversion=9.00
TMC:cid_58:tabcd_1:LocationCode=59686
TMC:cid_58:tabcd_1:NextLocationCode=11526
TMC:cid_58:tabcd_1:PrevLocationCode=59685
highway=motorway_junction
name=Parkplatz Gleiberger Land
noref=yes
id=node/20911234</desc></wpt><wpt lat="50.6104152" lon="8.8211358"><name>Reiskirchener Dreieck</name><desc>TMC:cid_58:tabcd_1:Class=Point
TMC:cid_58:tabcd_1:Direction=positive
TMC:cid_58:tabcd_1:LCLversion=9.00
TMC:cid_58:tabcd_1:LocationCode=11527
TMC:cid_58:tabcd_1:PrevLocationCode=11526
highway=motorway_junction
name=Reiskirchener Dreieck
ref=5
id=node/20911260</desc></wpt><wpt lat="50.0592972" lon="8.5491657"><name>Kelsterbach Ost</name><desc>highway=motorway_junction
name=Kelsterbach Ost
id=node/20953763</desc></wpt><wpt lat="50.0027697" lon="8.9927975"><name>Mainhausen</name><desc>TMC:cid_58:tabcd_1:Class=Point
TMC:cid_58:tabcd_1:Direction=positive
TMC:cid_58:tabcd_1:LCLversion=9.00
TMC:cid_58:tabcd_1:LocationCode=59626
TMC:cid_58:tabcd_1:NextLocationCode=10864
TMC:cid_58:tabcd_1:PrevLocationCode=10863
highway=motorway_junction
name=Mainhausen
noref=yes
id=node/20966553</desc></wpt><wpt lat="50.7069057" lon="8.2879021"><name>Rastplatz Burger Hain</name><desc>TMC:cid_58:tabcd_1:Class=Point
TMC:cid_58:tabcd_1:Direction=positive
TMC:cid_58:tabcd_1:LCLversion=9.00
TMC:cid_58:tabcd_1:LocationCode=59677
TMC:cid_58:tabcd_1:NextLocationCode=59678
TMC:cid_58:tabcd_1:PrevLocationCode=11407
highway=motorway_junction
name=Rastplatz Burger Hain
noref=yes
id=node/21097580</desc></wpt><wpt lat="49.9750999" lon="8.4364803"><name>Rüsselsheim Königstädten</name><desc>TMC:cid_58:tabcd_1:Class=Point
TMC:cid_58:tabcd_1:Direction=positive
TMC:cid_58:tabcd_1:LCLversion=11.00
TMC:cid_58:tabcd_1:LocationCode=11951
TMC:cid_58:tabcd_1:NextLocationCode=11952
TMC:cid_58:tabcd_1:PrevLocationCode=11950
highway=motorway_junction
name=Rüsselsheim Königstädten
ref=29
id=node/21119489</desc></wpt><wpt lat="50.2103397" lon="8.2513497"><name>Idstein</name><desc>TMC:cid_58:tabcd_1:Class=Point
TMC:cid_58:tabcd_1:Direction=positive
TMC:cid_58:tabcd_1:LCLversion=9.00
TMC:cid_58:tabcd_1:LocationCode=10879
TMC:cid_58:tabcd_1:NextLocationCode=10880
TMC:cid_58:tabcd_1:PrevLocationCode=59630
highway=motorway_junction
name=Idstein
ref=45
id=node/21179298</desc></wpt><wpt lat="50.3030151" lon="8.2345145"><name>Bad Camberg</name><desc>TMC:cid_58:tabcd_1:Class=Point
TMC:cid_58:tabcd_1:Direction=negative
TMC:cid_58:tabcd_1:LCLversion=9.00
TMC:cid_58:tabcd_1:LocationCode=10880
TMC:cid_58:tabcd_1:NextLocationCode=10881
TMC:cid_58:tabcd_1:PrevLocationCode=10879
highway=motorway_junction
name=Bad Camberg
ref=44
id=node/21179329</desc></wpt><wpt lat="51.4911319" lon="9.0078584"><name>Diemelstadt</name><desc>TMC:cid_58:tabcd_1:Class=Point
TMC:cid_58:tabcd_1:Direction=positive
TMC:cid_58:tabcd_1:LCLversion=9.00
TMC:cid_58:tabcd_1:LocationCode=11367
TMC:cid_58:tabcd_1:NextLocationCode=59718
TMC:cid_58:tabcd_1:PrevLocationCode=11366
highway=motorway_junction
name=Diemelstadt
ref=64
id=node/21287705</desc></wpt><wpt lat="51.2790882" lon="9.5344208"><name>Kreuz Kassel-Mitte</name><desc>TMC:cid_58:tabcd_1:Class=Point
TMC:cid_58:tabcd_1:Direction=negative
TMC:cid_58:tabcd_1:LCLversion=9.00
TMC:cid_58:tabcd_1:LocationCode=12316
TMC:cid_58:tabcd_1:NextLocationCode=12317
TMC:cid_58:tabcd_1:PrevLocationCode=12315
highway=motorway_junction
name=Kreuz Kassel-Mitte
ref=79
id=node/21538242</desc></wpt><wpt lat="50.0476704" lon="8.2952778"><name>node/21723222</name><desc>TMC:cid_58:tabcd_1:Class=Point
TMC:cid_58:tabcd_1:Direction=positive
TMC:cid_58:tabcd_1:LCLversion=9.00
TMC:cid_58:tabcd_1:LocationCode=23651
TMC:cid_58:tabcd_1:NextLocationCode=23652
TMC:cid_58:tabcd_1:PrevLocationCode=37087
highway=motorway_junction
id=node/21723222</desc></wpt><wpt lat="50.0428075" lon="8.2986574"><name>node/21723547</name><desc>TMC:cid_58:tabcd_1:Class=Point
TMC:cid_58:tabcd_1:Direction=positive
TMC:cid_58:tabcd_1:LCLversion=9.00
TMC:cid_58:tabcd_1:LocationCode=37087
TMC:cid_58:tabcd_1:NextLocationCode=23651
TMC:cid_58:tabcd_1:PrevLocationCode=23650
highway=motorway_junction
id=node/21723547</desc></wpt><wpt lat="50.0634729" lon="8.2764519"><name>node/21723561</name><desc>highway=motorway_junction
id=node/21723561</desc></wpt><wpt lat="50.0597044" lon="8.2842419"><name>node/21723719</name><desc>highway=motorway_junction
id=node/21723719</desc></wpt><wpt lat="50.0521589" lon="8.2899958"><name>node/21723768</name><desc>TMC:cid_58:tabcd_1:Class=Point
TMC:cid_58:tabcd_1:Direction=negative
TMC:cid_58:tabcd_1:LCLversion=9.00
TMC:cid_58:tabcd_1:LocationCode=23651
TMC:cid_58:tabcd_1:NextLocationCode=23652
TMC:cid_58:tabcd_1:PrevLocationCode=37087
highway=motorway_junction
id=node/21723768</desc></wpt><wpt lat="50.0550403" lon="8.2876629"><name>node/21723804</name><desc>highway=motorway_junction
id=node/21723804</desc></wpt><wpt lat="51.2948511" lon="9.5643288"><name>Kassel-Ost</name><desc>highway=motorway_junction
name=Kassel-Ost
ref=78
id=node/21992337</desc></wpt><wpt lat="49.8011864" lon="8.5707746"><name>Pfungstadt</name><desc>TMC:cid_58:tabcd_1:Class=Point
TMC:cid_58:tabcd_1:Direction=positive
TMC:cid_58:tabcd_1:LCLversion=9.00
TMC:cid_58:tabcd_1:LocationCode=39071
TMC:cid_58:tabcd_1:NextLocationCode=12224
TMC:cid_58:tabcd_1:PrevLocationCode=12223
highway=motorway_junction
name=Pfungstadt
ref=7
id=node/22322540</desc></wpt><wpt lat="50.1926299" lon="9.1097232"><name>Gründau-Rothenbergen</name><desc>TMC:cid_58:tabcd_1:Class=Point
TMC:cid_58:tabcd_1:Direction=positive
TMC:cid_58:tabcd_1:LCLversion=9.00
TMC:cid_58:tabcd_1:LocationCode=12191
TMC:cid_58:tabcd_1:NextLocationCode=12192
TMC:cid_58:tabcd_1:PrevLocationCode=12190
highway=motorway_junction
name=Gründau-Rothenbergen
ref=41
id=node/24498176</desc></wpt><wpt lat="50.1923539" lon="9.1820353"><name>Gelnhausen-West</name><desc>TMC:cid_58:tabcd_1:Class=Point
TMC:cid_58:tabcd_1:Direction=positive
TMC:cid_58:tabcd_1:LCLversion=9.00
TMC:cid_58:tabcd_1:LocationCode=12193
TMC:cid_58:tabcd_1:NextLocationCode=59661
TMC:cid_58:tabcd_1:PrevLocationCode=12192
highway=motorway_junction
name=Gelnhausen-West
ref=43
id=node/24498252</desc></wpt><wpt lat="50.2000185" lon="9.2223202"><name>Gelnhausen-Ost</name><desc>TMC:cid_58:tabcd_1:Class=Point
TMC:cid_58:tabcd_1:Direction=negative
TMC:cid_58:tabcd_1:LCLversion=9.00
TMC:cid_58:tabcd_1:LocationCode=12194
TMC:cid_58:tabcd_1:NextLocationCode=12195
TMC:cid_58:tabcd_1:PrevLocationCode=59661
highway=motorway_junction
name=Gelnhausen-Ost
ref=44
id=node/24498272</desc></wpt><wpt lat="50.7746901" lon="8.1507208"><name>Rastplatz Kalteiche</name><desc>TMC:cid_58:tabcd_1:Class=Point
TMC:cid_58:tabcd_1:Direction=negative
TMC:cid_58:tabcd_1:LCLversion=9.00
TMC:cid_58:tabcd_1:LocationCode=59684
TMC:cid_58:tabcd_1:NextLocationCode=39957
TMC:cid_58:tabcd_1:PrevLocationCode=11409
highway=motorway_junction
name=Rastplatz Kalteiche
noref=yes
id=node/25263698</desc></wpt><wpt lat="50.762903" lon="8.1530769"><name>Haiger / Burbach</name><desc>TMC:cid_58:tabcd_1:Class=Point
TMC:cid_58:tabcd_1:Direction=negative
TMC:cid_58:tabcd_1:LCLversion=9.00
TMC:cid_58:tabcd_1:LocationCode=11409
TMC:cid_58:tabcd_1:NextLocationCode=59684
TMC:cid_58:tabcd_1:PrevLocationCode=59683
highway=motorway_junction
name=Haiger / Burbach
ref=24
id=node/25263712</desc></wpt><wpt lat="50.7570004" lon="8.1784711"><name>Rastplatz Scheidskopf</name><desc>TMC:cid_58:tabcd_1:Class=Point
TMC:cid_58:tabcd_1:Direction=negative
TMC:cid_58:tabcd_1:LCLversion=9.00
TMC:cid_58:tabcd_1:LocationCode=59682
TMC:cid_58:tabcd_1:NextLocationCode=59683
TMC:cid_58:tabcd_1:PrevLocationCode=59681
highway=motorway_junction
name=Rastplatz Scheidskopf
noref=yes
id=node/25263722</desc></wpt><wpt lat="50.7263399" lon="8.2802015"><name>Rastplatz Gaulskopf</name><desc>TMC:cid_58:tabcd_1:Class=Point
TMC:cid_58:tabcd_1:Direction=negative
TMC:cid_58:tabcd_1:LCLversion=9.00
TMC:cid_58:tabcd_1:LocationCode=59679
TMC:cid_58:tabcd_1:NextLocationCode=11408
TMC:cid_58:tabcd_1:PrevLocationCode=59678
highway=motorway_junction
name=Rastplatz Gaulskopf
noref=yes
id=node/25263798</desc></wpt><wpt lat="50.6691" lon="8.2878167"><name>Rastplatz Am Rehberg</name><desc>TMC:cid_58:tabcd_1:Class=Point
TMC:cid_58:tabcd_1:Direction=negative
TMC:cid_58:tabcd_1:LCLversion=9.00
TMC:cid_58:tabcd_1:LocationCode=59676
TMC:cid_58:tabcd_1:NextLocationCode=11406
TMC:cid_58:tabcd_1:PrevLocationCode=11405
highway=motorway_junction
name=Rastplatz Am Rehberg
noref=yes
id=node/25263854</desc></wpt><wpt lat="50.6612864" lon="8.3145374"><name>node/25263871</name><desc>highway=motorway_junction
id=node/25263871</desc></wpt><wpt lat="50.6225093" lon="8.3593372"><name>Raststätte Katzenfurt</name><desc>TMC:cid_58:tabcd_1:Class=Point
TMC:cid_58:tabcd_1:Direction=negative
TMC:cid_58:tabcd_1:LCLversion=9.00
TMC:cid_58:tabcd_1:LocationCode=11404
TMC:cid_58:tabcd_1:NextLocationCode=59673
TMC:cid_58:tabcd_1:PrevLocationCode=11403
highway=motorway_junction
name=Raststätte Katzenfurt
noref=yes
id=node/25263924</desc></wpt><wpt lat="50.5989696" lon="8.4787716"><name>Wetzlarer Kreuz</name><desc>TMC:cid_58:tabcd_1:Class=Point
TMC:cid_58:tabcd_1:Direction=negative
TMC:cid_58:tabcd_1:LCLversion=9.00
TMC:cid_58:tabcd_1:LocationCode=11402
TMC:cid_58:tabcd_1:NextLocationCode=59672
TMC:cid_58:tabcd_1:PrevLocationCode=59671
highway=motorway_junction
name=Wetzlarer Kreuz
ref=29
id=node/25264693</desc></wpt><wpt lat="50.1423938" lon="8.9914521"><name>Hanauer Kreuz</name><desc>TMC:cid_58:tabcd_1:Class=Point
TMC:cid_58:tabcd_1:Direction=negative
TMC:cid_58:tabcd_1:LCLversion=9.00
TMC:cid_58:tabcd_1:LocationCode=12188
TMC:cid_58:tabcd_1:NextLocationCode=12189
TMC:cid_58:tabcd_1:PrevLocationCode=12187
highway=motorway_junction
name=Hanauer Kreuz
ref=43;38
id=node/25265113</desc></wpt><wpt lat="50.0111436" lon="9.0304258"><name>Mainhausen</name><desc>TMC:cid_58:tabcd_1:Class=Point
TMC:cid_58:tabcd_1:Direction=negative
TMC:cid_58:tabcd_1:LCLversion=9.00
TMC:cid_58:tabcd_1:LocationCode=11384
TMC:cid_58:tabcd_1:NextLocationCode=42399
TMC:cid_58:tabcd_1:PrevLocationCode=11383
highway=motorway_junction
name=Mainhausen
old_ref=46
ref=48
ref:note=Ausfahrt hat Nr. 48 im April 2012
id=node/25265261</desc></wpt><wpt lat="50.0595856" lon="8.3844667"><name>Wiesbadener Kreuz</name><desc>TMC:cid_58:tabcd_1:Class=Point
TMC:cid_58:tabcd_1:Direction=negative
TMC:cid_58:tabcd_1:LCLversion=9.00
TMC:cid_58:tabcd_1:LocationCode=10876
TMC:cid_58:tabcd_1:NextLocationCode=10877
TMC:cid_58:tabcd_1:PrevLocationCode=59629
highway=motorway_junction
name=Wiesbadener Kreuz
ref=47
id=node/25271237</desc></wpt><wpt lat="50.6271212" lon="8.7141141"><name>Gießener Nordkreuz</name><desc>TMC:cid_58:tabcd_1:Class=Point
TMC:cid_58:tabcd_1:Direction=positive
TMC:cid_58:tabcd_1:LCLversion=9.00
TMC:cid_58:tabcd_1:LocationCode=36572
TMC:cid_58:tabcd_1:NextLocationCode=11538
TMC:cid_58:tabcd_1:PrevLocationCode=11537
highway=motorway_junction
name=Gießener Nordkreuz
ref=1
id=node/25440076</desc></wpt><wpt lat="50.6234541" lon="8.7021365"><name>Gießener Nordkreuz</name><desc>TMC:cid_58:tabcd_1:Class=Point
TMC:cid_58:tabcd_1:Direction=positive
TMC:cid_58:tabcd_1:LCLversion=9.00
TMC:cid_58:tabcd_1:LocationCode=11539
TMC:cid_58:tabcd_1:PrevLocationCode=11538
highway=motorway_junction
name=Gießener Nordkreuz
ref=1
id=node/25440098</desc></wpt><wpt lat="50.6237815" lon="8.6934691"><name>Gießener Nordkreuz</name><desc>TMC:cid_58:tabcd_1:Class=Point
TMC:cid_58:tabcd_1:Direction=positive
TMC:cid_58:tabcd_1:LCLversion=9.00
TMC:cid_58:tabcd_1:LocationCode=11526
TMC:cid_58:tabcd_1:NextLocationCode=11527
TMC:cid_58:tabcd_1:PrevLocationCode=59686
highway=motorway_junction
name=Gießener Nordkreuz
ref=4
id=node/25440106</desc></wpt><wpt lat="50.0555237" lon="8.4324678"><name>Hofheim am Taunus</name><desc>TMC:cid_58:tabcd_1:Class=Point
TMC:cid_58:tabcd_1:Direction=negative
TMC:cid_58:tabcd_1:LCLversion=9.00
TMC:cid_58:tabcd_1:LocationCode=12167
TMC:cid_58:tabcd_1:NextLocationCode=12168
TMC:cid_58:tabcd_1:PrevLocationCode=12166
highway=motorway_junction
name=Hofheim am Taunus
ref=11
id=node/25609988</desc></wpt><wpt lat="50.117645" lon="8.9460664"><name>Hanau-Hauptbahnhof</name><desc>TMC:cid_58:tabcd_1:Class=Point
TMC:cid_58:tabcd_1:Direction=negative
TMC:cid_58:tabcd_1:LCLversion=10.1
TMC:cid_58:tabcd_1:LocationCode=36560
TMC:cid_58:tabcd_1:NextLocationCode=23562
TMC:cid_58:tabcd_1:PrevLocationCode=36559
exit_to=Hauptbahnhof;Zentrum
highway=motorway_junction
name=Hanau-Hauptbahnhof
id=node/25731477</desc></wpt><wpt lat="50.3159968" lon="9.4307903"><name>Steinau a.d. Straße</name><desc>TMC:cid_58:tabcd_1:Class=Point
TMC:cid_58:tabcd_1:Direction=positive
TMC:cid_58:tabcd_1:LCLversion=9.00
TMC:cid_58:tabcd_1:LocationCode=12197
TMC:cid_58:tabcd_1:NextLocationCode=20108
TMC:cid_58:tabcd_1:PrevLocationCode=12196
highway=motorway_junction
name=Steinau a.d. Straße
official_name=Steinau an der Straße
ref=47
id=node/25886271</desc></wpt><wpt lat="50.3280096" lon="9.472915"><name>Schlüchtern-Süd</name><desc>TMC:cid_58:tabcd_1:Class=Point
TMC:cid_58:tabcd_1:Direction=positive
TMC:cid_58:tabcd_1:LCLversion=9.00
TMC:cid_58:tabcd_1:LocationCode=20108
TMC:cid_58:tabcd_1:NextLocationCode=20109
TMC:cid_58:tabcd_1:PrevLocationCode=12197
highway=motorway_junction
name=Schlüchtern-Süd
ref=48
id=node/25886289</desc></wpt><wpt lat="51.274794" lon="9.5293569"><name>Kreuz Kassel-Mitte</name><desc>highway=motorway_junction
name=Kreuz Kassel-Mitte
ref=2
id=node/25932227</desc></wpt><wpt lat="51.2720605" lon="9.4601695"><name>Kassel-Niederzwehren</name><desc>TMC:cid_58:tabcd_1:Class=Point
TMC:cid_58:tabcd_1:Direction=positive
TMC:cid_58:tabcd_1:LCLversion=9.00
TMC:cid_58:tabcd_1:LocationCode=11552
TMC:cid_58:tabcd_1:NextLocationCode=11553
TMC:cid_58:tabcd_1:PrevLocationCode=11551
highway=motorway_junction
name=Kassel-Niederzwehren
ref=6
id=node/25934048</desc></wpt><wpt lat="49.635302" lon="8.4470374"><name>node/26734270</name><desc>highway=motorway_junction
id=node/26734270</desc></wpt><wpt lat="50.0525688" lon="8.2599775"><name>Wiesbaden-Mainzer Straße</name><desc>TMC:cid_58:tabcd_1:Class=Point
TMC:cid_58:tabcd_1:Direction=positive
TMC:cid_58:tabcd_1:LCLversion=9.00
TMC:cid_58:tabcd_1:LocationCode=12160
TMC:cid_58:tabcd_1:NextLocationCode=12161
TMC:cid_58:tabcd_1:PrevLocationCode=12159
highway=motorway_junction
name=Wiesbaden-Mainzer Straße
ref=5
was:highway=motorway_junction
id=node/27089727</desc></wpt><wpt lat="50.0501592" lon="8.2873182"><name>Wiesbaden-Erbenheim</name><desc>TMC:cid_58:tabcd_1:Class=Point
TMC:cid_58:tabcd_1:Direction=positive
TMC:cid_58:tabcd_1:LCLversion=9.00
TMC:cid_58:tabcd_1:LocationCode=12161
TMC:cid_58:tabcd_1:NextLocationCode=12162
TMC:cid_58:tabcd_1:PrevLocationCode=12160
highway=motorway_junction
name=Wiesbaden-Erbenheim
ref=6
id=node/27089812</desc></wpt><wpt lat="50.1776759" lon="8.9069065"><name>Mittelbuchen</name><desc>TMC:cid_58:tabcd_1:Class=Point
TMC:cid_58:tabcd_1:Direction=positive
TMC:cid_58:tabcd_1:LCLversion=9.00
TMC:cid_58:tabcd_1:LocationCode=37070
TMC:cid_58:tabcd_1:NextLocationCode=37071
TMC:cid_58:tabcd_1:PrevLocationCode=23646
highway=motorway_junction
name=Mittelbuchen
id=node/27139261</desc></wpt><wpt lat="49.9068567" lon="8.865546"><name>Dreieck Dieburg</name><desc>highway=motorway_junction
name=Dreieck Dieburg
id=node/27141281</desc></wpt><wpt lat="50.210732" lon="8.6038256"><name>Oberursel</name><desc>TMC:cid_58:tabcd_1:Class=Point
TMC:cid_58:tabcd_1:Direction=positive
TMC:cid_58:tabcd_1:LCLversion=9.00
TMC:cid_58:tabcd_1:LocationCode=12218
TMC:cid_58:tabcd_1:NextLocationCode=12219
TMC:cid_58:tabcd_1:PrevLocationCode=12217
highway=motorway_junction
name=Oberursel
ref=2
id=node/27240505</desc></wpt><wpt lat="49.6348364" lon="8.4515961"><name>node/27249598</name><desc>TMC:cid_58:tabcd_1:Class=Point
TMC:cid_58:tabcd_1:Direction=positive
TMC:cid_58:tabcd_1:LCLversion=9.00
TMC:cid_58:tabcd_1:LocationCode=23572
TMC:cid_58:tabcd_1:NextLocationCode=36725
TMC:cid_58:tabcd_1:PrevLocationCode=36723
highway=motorway_junction
id=node/27249598</desc></wpt><wpt lat="50.0754893" lon="8.4782296"><name>Hattersheim-Ost</name><desc>TMC:cid_58:tabcd_1:Class=Point
TMC:cid_58:tabcd_1:Direction=negative
TMC:cid_58:tabcd_1:LCLversion=9.00
TMC:cid_58:tabcd_1:LocationCode=12170
TMC:cid_58:tabcd_1:NextLocationCode=12171
TMC:cid_58:tabcd_1:PrevLocationCode=12168
destination=Hattersheim-Stadtmitte
highway=motorway_junction
name=Hattersheim-Ost
ref=12b
id=node/27422150</desc></wpt><wpt lat="50.2342961" lon="9.287345"><name>Bad Orb/Wächtersbach</name><desc>TMC:cid_58:tabcd_1:Class=Point
TMC:cid_58:tabcd_1:Direction=positive
TMC:cid_58:tabcd_1:LCLversion=9.00
TMC:cid_58:tabcd_1:LocationCode=12195
TMC:cid_58:tabcd_1:NextLocationCode=12196
TMC:cid_58:tabcd_1:PrevLocationCode=12194
highway=motorway_junction
name=Bad Orb/Wächtersbach
ref=45
id=node/27435468</desc></wpt><wpt lat="50.556983" lon="8.6635027"><name>node/27494747</name><desc>TMC:cid_58:tabcd_1:Class=Point
TMC:cid_58:tabcd_1:Direction=positive
TMC:cid_58:tabcd_1:LCLversion=9.00
TMC:cid_58:tabcd_1:LocationCode=23985
TMC:cid_58:tabcd_1:PrevLocationCode=23984
highway=motorway_junction
noname=yes
id=node/27494747</desc></wpt><wpt lat="50.2004063" lon="9.0034492"><name>Rastplatz Pfingstweide West</name><desc>TMC:cid_58:tabcd_1:Class=Point
TMC:cid_58:tabcd_1:Direction=negative
TMC:cid_58:tabcd_1:LCLversion=9.00
TMC:cid_58:tabcd_1:LocationCode=59663
TMC:cid_58:tabcd_1:NextLocationCode=45085
TMC:cid_58:tabcd_1:PrevLocationCode=11390
highway=motorway_junction
name=Rastplatz Pfingstweide West
noref=yes
id=node/27494779</desc></wpt><wpt lat="49.6353694" lon="8.4463601"><name>node/27592176</name><desc>highway=motorway_junction
id=node/27592176</desc></wpt><wpt lat="49.6387552" lon="8.4480548"><name>node/27592241</name><desc>TMC:cid_58:tabcd_1:Class=Point
TMC:cid_58:tabcd_1:Direction=negative
TMC:cid_58:tabcd_1:LCLversion=9.00
TMC:cid_58:tabcd_1:LocationCode=23572
TMC:cid_58:tabcd_1:NextLocationCode=36725
TMC:cid_58:tabcd_1:PrevLocationCode=36723
highway=motorway_junction
traffic_sign=DE:280
id=node/27592241</desc></wpt><wpt lat="50.5680151" lon="8.6429981"><name>node/28051540</name><desc>TMC:cid_58:tabcd_1:Class=Point
TMC:cid_58:tabcd_1:Direction=positive
TMC:cid_58:tabcd_1:LCLversion=9.00
TMC:cid_58:tabcd_1:LocationCode=23984
TMC:cid_58:tabcd_1:NextLocationCode=23985
TMC:cid_58:tabcd_1:PrevLocationCode=23983
alt_name=Lahnfelddreieck
highway=motorway_junction
noname=yes
official_name=Dreieck Lahnfeld
id=node/28051540</desc></wpt><wpt lat="50.5828059" lon="8.6510857"><name>Gießen-West</name><desc>TMC:cid_58:tabcd_1:Class=Point
TMC:cid_58:tabcd_1:Direction=positive
TMC:cid_58:tabcd_1:LCLversion=9.00
TMC:cid_58:tabcd_1:LocationCode=23476
TMC:cid_58:tabcd_1:NextLocationCode=23477
TMC:cid_58:tabcd_1:PrevLocationCode=23475
highway=motorway_junction
name=Gießen-West
source=Wikipedia
id=node/28051619</desc></wpt><wpt lat="50.6180982" lon="8.6689146"><name>Parkplatz Silbersee</name><desc>TMC:cid_58:tabcd_1:Class=Point
TMC:cid_58:tabcd_1:Direction=positive
TMC:cid_58:tabcd_1:LCLversion=9.00
TMC:cid_58:tabcd_1:LocationCode=59685
TMC:cid_58:tabcd_1:NextLocationCode=59686
TMC:cid_58:tabcd_1:PrevLocationCode=11525
highway=motorway_junction
name=Parkplatz Silbersee
noref=yes
id=node/28062010</desc></wpt><wpt lat="50.5637847" lon="8.6561154"><name>node/28070065</name><desc>highway=motorway_junction
noname=yes
id=node/28070065</desc></wpt><wpt lat="50.5678437" lon="8.7016313"><name>Gießen-Schiffenberger Tal</name><desc>TMC:cid_58:tabcd_1:Class=Point
TMC:cid_58:tabcd_1:Direction=positive
TMC:cid_58:tabcd_1:LCLversion=9.00
TMC:cid_58:tabcd_1:LocationCode=11533
TMC:cid_58:tabcd_1:NextLocationCode=11534
TMC:cid_58:tabcd_1:PrevLocationCode=11532
highway=motorway_junction
name=Gießen-Schiffenberger Tal
ref=6
id=node/28248417</desc></wpt>