<gpx xmlns="http://www.topografix.com/GPX/1/1" xmlns:xsi="http://www.w3.org/2001/XMLSchema-instance" xsi:schemaLocation="http://www.topografix.com/GPX/1/1 http://www.topografix.com/GPX/1/1/gpx.xsd" version="1.1" creator="OverpassTurboBatch"><metadata/><wpt lat="52.2759928" lon="10.5449201"><name>Mozartstraße</name><desc>local_ref=A
name=Mozartstraße
network=Verkehrsverbund Region Braunschweig
network:short=VRB
network:wikidata=Q2514431
operator=Braunschweiger Verkehrs-GmbH
operator:short=BSVG
operator:wikidata=Q901999
public_transport=stop_position
railway=tram_stop
tram=yes
id=node/26189972</desc></wpt><wpt lat="52.2361357" lon="9.8584129"><name>Sarstedt</name><desc>man_made=surveillance
name=Sarstedt
network=Großraum-Verkehr Hannover
operator=infra Infrastrukturgesellschaft Region Hannover
operator:wikidata=Q1122564
public_transport=stop_position
railway=tram_stop
ref_name=Sarstedt (GVH-Endpunkt), Sarstedt
surveillance=outdoor
tram=yes
wheelchair=yes
wikidata=Q63344387
id=node/26212864</desc></wpt><wpt lat="52.236131" lon="9.8578346"><name>Sarstedt</name><desc>man_made=surveillance
name=Sarstedt
network=Großraum-Verkehr Hannover
operator=infra Infrastrukturgesellschaft Region Hannover
operator:wikidata=Q1122564
public_transport=stop_position
railway=tram_stop
ref_name=Sarstedt (GVH-Endpunkt), Sarstedt
surveillance=outdoor
tram=yes
wheelchair=no
wikidata=Q63344387
id=node/26212871</desc></wpt><wpt lat="52.273767" lon="9.8393218"><name>Gleidingen/Thorstraße</name><desc>name=Gleidingen/Thorstraße
network=Großraum-Verkehr Hannover
network:short=GVH
network:wikidata=Q1549516
network:wikipedia=de:Großraum-Verkehr Hannover
operator=Überlandwerke und Straßenbahnen Hannover
operator:short=ÜSTRA
operator:wikidata=Q265625
operator:wikipedia=de:Üstra Hannoversche Verkehrsbetriebe
public_transport=stop_position
railway=tram_stop
ref:IFOPT=de:03241:1665:1:1665
tram=yes
wheelchair=no
wikidata=Q63345099
id=node/26264810</desc></wpt><wpt lat="52.2431944" lon="9.8566891"><name>Sarstedt/Röntgenstraße</name><desc>name=Sarstedt/Röntgenstraße
network=Großraum-Verkehr Hannover
network:short_name=GVH
network:wikidata=Q1549516
network:wikipedia=de:Großraum-Verkehr Hannover
operator=Überlandwerke und Straßenbahnen Hannover
operator:short_name=ÜSTRA
operator:wikidata=Q265625
operator:wikipedia=de:Üstra Hannoversche Verkehrsbetriebe
public_transport=stop_position
railway=tram_stop
tram=yes
wheelchair=no
wikidata=Q63345147
id=node/26879632</desc></wpt><wpt lat="52.2484139" lon="9.8567693"><name>Sarstedt/Am Boksberg</name><desc>name=Sarstedt/Am Boksberg
network=Großraum-Verkehr Hannover
network:short=GVH
network:wikidata=Q1549516
network:wikipedia=de:Großraum-Verkehr Hannover
operator=Überlandwerke und Straßenbahnen Hannover
operator:short=ÜSTRA
operator:wikidata=Q265625
operator:wikipedia=de:Üstra Hannoversche Verkehrsbetriebe
public_transport=stop_position
railway=tram_stop
tram=yes
wikidata=Q63345131
id=node/26879634</desc></wpt><wpt lat="52.3616295" lon="9.8273013"><name>Großer Hillen</name><desc>name=Großer Hillen
network=Großraum-Verkehr Hannover
network:short=GVH
network:wikidata=Q1549516
operator=Überlandwerke und Straßenbahnen Hannover
operator:short=ÜSTRA
operator:wikidata=Q265625
public_transport=stop_position
railway=tram_stop
ref:IFOPT=de:03241:3071:1:3071
tram=yes
wheelchair=yes
id=node/28419228</desc></wpt><wpt lat="52.2579468" lon="9.8558153"><name>Heisede/Langer Kamp</name><desc>name=Heisede/Langer Kamp
network=Großraum-Verkehr Hannover
network:short=GVH
network:wikidata=Q1549516
network:wikipedia=de:Großraum-Verkehr Hannover
operator=Überlandwerke und Straßenbahnen Hannover
operator:short=ÜSTRA
operator:wikidata=Q265625
operator:wikipedia=de:Üstra Hannoversche Verkehrsbetriebe
public_transport=stop_position
railway=tram_stop
tram=yes
wheelchair=no
wikidata=Q63345110
id=node/29364195</desc></wpt><wpt lat="52.2599361" lon="9.8503962"><name>Heisede/Marienburger Straße</name><desc>name=Heisede/Marienburger Straße
network=Großraum-Verkehr Hannover
network:short=GVH
network:wikidata=Q1549516
network:wikipedia=de:Großraum-Verkehr Hannover
operator=Überlandwerke und Straßenbahnen Hannover
operator:short=ÜSTRA
operator:wikidata=Q265625
operator:wikipedia=de:Üstra Hannoversche Verkehrsbetriebe
public_transport=stop_position
railway=tram_stop
tram=yes
wikidata=Q63345128
id=node/29364202</desc></wpt><wpt lat="52.2701323" lon="9.8408023"><name>Gleidingen/Am Leinkamp</name><desc>name=Gleidingen/Am Leinkamp
network=Großraum-Verkehr Hannover
network:short=GVH
network:wikidata=Q1549516
network:wikipedia=de:Großraum-Verkehr Hannover
operator=Überlandwerke und Straßenbahnen Hannover
operator:short=ÜSTRA
operator:wikidata=Q265625
operator:wikipedia=de:Üstra Hannoversche Verkehrsbetriebe
public_transport=stop_position
railway=tram_stop
ref:IFOPT=de:03241:1671:1:1671
tram=yes
wheelchair=no
wikidata=Q63345108
id=node/29364212</desc></wpt><wpt lat="52.375219" lon="9.6950869"><name>Wunstorfer Straße</name><desc>bench=yes
bin=yes
name=Wunstorfer Straße
network=Großraum-Verkehr Hannover
network:short=GVH
network:wikidata=Q1549516
operator=Überlandwerke und Straßenbahnen Hannover
operator:short=ÜSTRA
operator:wikidata=Q265625
public_transport=stop_position
railway=tram_stop
ref:IFOPT=de:03241:485
shelter=yes
tram=yes
wheelchair=yes
id=node/29364435</desc></wpt><wpt lat="52.3756537" lon="9.7316469"><name>Steintor</name><desc>name=Steintor
network=Großraum-Verkehr Hannover
network:short=GVH
network:wikidata=Q1549516
operator=Überlandwerke und Straßenbahnen Hannover
operator:short=ÜSTRA
operator:wikidata=Q265625
public_transport=stop_position
railway=tram_stop
ref:IFOPT=de:03241:121:2:122
ref_name=Steintor, Hannover
tram=yes
wheelchair=yes
id=node/29364467</desc></wpt><wpt lat="52.4337424" lon="9.7314437"><name>Langenhagen/Angerstraße</name><desc>name=Langenhagen/Angerstraße
network=Großraum-Verkehr Hannover
network:short=GVH
network:wikidata=Q1549516
network:wikipedia=de:Großraum-Verkehr Hannover
operator=ÜSTRA
operator:short=ÜSTRA
operator:wikidata=Q265625
operator:wikipedia=de:Üstra Hannoversche Verkehrsbetriebe
public_transport=stop_position
railway=tram_stop
ref:IFOPT=de:03241:2901:3:2902
tactile_paving=no
tram=yes
wheelchair=no
wheelchair:description=Tiefbahnsteig
id=node/29366399</desc></wpt><wpt lat="52.4303004" lon="9.7317453"><name>Berliner Platz</name><desc>name=Berliner Platz
network=Großraum-Verkehr Hannover
network:short=GVH
network:wikidata=Q1549516
operator=ÜSTRA
operator:short=ÜSTRA
operator:wikidata=Q265625
public_transport=stop_position
railway=tram_stop
ref:IFOPT=de:03241:6000:3:6000
tactile_paving=no
tram=yes
wheelchair=no
wheelchair:description=Tiefbahnsteig
id=node/29366402</desc></wpt><wpt lat="52.4230363" lon="9.7328376"><name>Wiesenau</name><desc>light_rail=yes
name=Wiesenau
network=Großraum-Verkehr Hannover
network:short=GVH
network:wikidata=Q1549516
operator=Überlandwerke und Straßenbahnen Hannover
operator:short=ÜSTRA
operator:wikidata=Q265625
public_transport=stop_position
railway=tram_stop
ref:IFOPT=de:03241:2551:3:2552
shelter=yes
tactile_paving=yes
tram=yes
wheelchair=yes
wheelchair:description=Tiefbahnsteig
wikidata=Q63344822
id=node/29366409</desc></wpt><wpt lat="52.4164987" lon="9.7337957"><name>Alter Flughafen</name><desc>name=Alter Flughafen
network=Großraum-Verkehr Hannover
network:short=GVH
network:wikidata=Q1549516
old_name=Wasserturm
operator=Überlandwerke und Straßenbahnen Hannover
operator:short=ÜSTRA
operator:wikidata=Q265625
public_transport=stop_position
railway=tram_stop
ref=2542
ref:IFOPT=de:03241:2541:3:2542
tactile_paving=no
tram=yes
wheelchair=no
wheelchair:description=Tiefbahnsteig
wikidata=Q63344832
id=node/29366414</desc></wpt><wpt lat="52.4118411" lon="9.7343168"><name>Kabelkamp</name><desc>name=Kabelkamp
network=Großraum-Verkehr Hannover
network:short=GVH
network:wikidata=Q1549516
operator=Überlandwerke und Straßenbahnen Hannover
operator:short=ÜSTRA
operator:wikidata=Q265625
public_transport=stop_position
railway=tram_stop
ref=2532
ref:IFOPT=de:03241:2531:3:2532
tactile_paving=no
tram=yes
wheelchair=no
wheelchair:description=Tiefbahnsteig
wikidata=Q63344858
id=node/29366417</desc></wpt><wpt lat="52.4077682" lon="9.7349098"><name>Windausstraße</name><desc>name=Windausstraße
network=Großraum-Verkehr Hannover
network:short=GVH
network:wikidata=Q1549516
old_name=Kanalbrücke
operator=Überlandwerke und Straßenbahnen Hannover
operator:short=ÜSTRA
operator:wikidata=Q265625
public_transport=stop_position
railway=tram_stop
ref=2522
ref:IFOPT=de:03241:2521:2:2522
tactile_paving=no
tram=yes
wheelchair=no
wheelchair:description=Tiefbahnsteig
wikidata=Q63344863
id=node/29366420</desc></wpt><wpt lat="52.4026216" lon="9.7355221"><name>Büttnerstraße</name><desc>name=Büttnerstraße
network=Großraum-Verkehr Hannover
network:short=GVH
network:wikidata=Q1549516
operator=Überlandwerke und Straßenbahnen Hannover
operator:short=ÜSTRA
operator:wikidata=Q265625
public_transport=stop_position
railway=tram_stop
ref:IFOPT=de:03241:2511:2:2512
tactile_paving=yes
tram=yes
wheelchair=yes
wheelchair:description=Hochbahnsteig
id=node/29366425</desc></wpt><wpt lat="52.3986332" lon="9.7360964"><name>Niedersachsenring</name><desc>name=Niedersachsenring
network=Großraum-Verkehr Hannover
network:short=GVH
network:wikidata=Q1549516
operator=Überlandwerke und Straßenbahnen Hannover
operator:short=ÜSTRA
operator:wikidata=Q265625
public_transport=stop_position
railway=tram_stop
ref:IFOPT=de:03241:371:5:372
tactile_paving=yes
tram=yes
wheelchair=yes
wheelchair:description=Hochbahnsteig
id=node/29366426</desc></wpt><wpt lat="52.3940257" lon="9.7353184"><name>Dragonerstraße</name><desc>name=Dragonerstraße
network=Großraum-Verkehr Hannover
network:short=GVH
network:wikidata=Q1549516
operator=Überlandwerke und Straßenbahnen Hannover
operator:short=ÜSTRA
operator:wikidata=Q265625
public_transport=stop_position
railway=tram_stop
ref:IFOPT=de:03241:361:7:362
tactile_paving=yes
tram=yes
wheelchair=yes
wheelchair:description=Hochbahnsteig
id=node/29366428</desc></wpt><wpt lat="52.3901397" lon="9.8190928"><name>Roderbruch</name><desc>name=Roderbruch
network=Großraum-Verkehr Hannover
network:short=GVH
network:wikidata=Q1549516
operator=Überlandwerke und Straßenbahnen Hannover
operator:short=ÜSTRA
operator:wikidata=Q265625
public_transport=stop_position
railway=tram_stop
ref:IFOPT=de:03241:2881:1:2881
ref_name=Roderbruch
tram=yes
wheelchair=yes
id=node/29366432</desc></wpt><wpt lat="52.388677" lon="9.8133979"><name>Roderbruchmarkt</name><desc>name=Roderbruchmarkt
network=Großraum-Verkehr Hannover
network:short=GVH
network:wikidata=Q1549516
operator=Überlandwerke und Straßenbahnen Hannover
operator:short=ÜSTRA
operator:wikidata=Q265625
public_transport=stop_position
railway=tram_stop
ref:IFOPT=de:03241:2871:1:2871
toilets:wheelchair=yes
tram=yes
wheelchair=yes
id=node/29366433</desc></wpt><wpt lat="52.3841336" lon="9.8085778"><name>Medizinische Hochschule</name><desc>name=Medizinische Hochschule
network=Großraum-Verkehr Hannover
network:short=GVH
network:wikidata=Q1549516
operator=Überlandwerke und Straßenbahnen Hannover
operator:short=ÜSTRA
operator:wikidata=Q265625
public_transport=stop_position
railway=tram_stop
ref:IFOPT=de:03241:2461:1:2461
tactile_paving=yes
tram=yes
wheelchair=yes
id=node/29366440</desc></wpt><wpt lat="52.3790965" lon="9.8088463"><name>Misburger Straße</name><desc>name=Misburger Straße
network=Großraum-Verkehr Hannover
network:short=GVH
network:wikidata=Q1549516
operator=Überlandwerke und Straßenbahnen Hannover
operator:short=ÜSTRA
operator:wikidata=Q265625
public_transport=stop_position
railway=tram_stop
ref:IFOPT=de:03241:3221:1:3221
tactile_paving=yes
tram=yes
wheelchair=yes
id=node/29366447</desc></wpt><wpt lat="52.3751035" lon="9.807928"><name>Bahnhof Karl-Wiechert-Allee</name><desc>name=Bahnhof Karl-Wiechert-Allee
network=Großraum-Verkehr Hannover
network:short=GVH
network:wikidata=Q1549516
old_name=Karl-Wiechert-Allee
operator=Überlandwerke und Straßenbahnen Hannover
operator:short=ÜSTRA
operator:wikidata=Q265625
public_transport=stop_position
railway=tram_stop
ref:IFOPT=de:03241:3017:1:3017
tram=yes
wheelchair=yes
id=node/29366454</desc></wpt><wpt lat="52.3715981" lon="9.7929568"><name>Uhlhornstraße</name><desc>name=Uhlhornstraße
network=Großraum-Verkehr Hannover
network:short=GVH
network:wikidata=Q1549516
operator=Überlandwerke und Straßenbahnen Hannover
operator:short=ÜSTRA
operator:wikidata=Q265625
public_transport=stop_position
railway=tram_stop
ref:IFOPT=de:03241:3001:1:3002
ref_name=Uhlhornstraße, Hannover
tactile_paving=yes
tram=yes
wheelchair=yes
wheelchair:description=Hochbahnsteig
id=node/29366475</desc></wpt><wpt lat="52.3722816" lon="9.7860224"><name>Kantplatz</name><desc>name=Kantplatz
network=Großraum-Verkehr Hannover
network:short=GVH
network:wikidata=Q1549516
operator=Überlandwerke und Straßenbahnen Hannover
operator:short=ÜSTRA
operator:wikidata=Q265625
public_transport=stop_position
railway=tram_stop
ref:IFOPT=de:03241:2851:1:2852
ref_name=Kantplatz, Hannover
tactile_paving=yes
tram=yes
wheelchair=yes
wheelchair:description=Hochbahnsteig
id=node/29366477</desc></wpt><wpt lat="52.2858333" lon="9.8210288"><name>Rethen/Bahnhof</name><desc>name=Rethen/Bahnhof
network=Großraum-Verkehr Hannover
network:short=GVH
network:wikidata=Q1549516
operator=Überlandwerke und Straßenbahnen Hannover
operator:short=ÜSTRA
operator:wikidata=Q265625
public_transport=stop_position
railway=tram_stop
ref:IFOPT=de:03241:1641:2:1641
tram=yes
wheelchair=yes
id=node/29366795</desc></wpt><wpt lat="52.3066125" lon="9.8095674"><name>Laatzen/Zentrum</name><desc>name=Laatzen/Zentrum
network=Großraum-Verkehr Hannover
network:short=GVH
network:wikidata=Q1549516
network:wikipedia=de:Großraum-Verkehr Hannover
operator=Überlandwerke und Straßenbahnen Hannover
operator:short=ÜSTRA
operator:wikidata=Q265625
public_transport=stop_position
railway=tram_stop
ref:IFOPT=de:03241:1601:1:1601
tram=yes
wheelchair=yes
id=node/29366873</desc></wpt><wpt lat="52.3110834" lon="9.8026913"><name>Laatzen/Park der Sinne</name><desc>name=Laatzen/Park der Sinne
network=Großraum-Verkehr Hannover
network:short=GVH
network:wikidata=Q1549516
network:wikipedia=de:Großraum-Verkehr Hannover
operator=Überlandwerke und Straßenbahnen Hannover
operator:short=ÜSTRA
operator:wikidata=Q265625
operator:wikipedia=de:Üstra Hannoversche Verkehrsbetriebe
public_transport=stop_position
railway=tram_stop
ref:IFOPT=de:03241:1561:1:1561
tactile_paving=no
tram=yes
wheelchair=no
id=node/29366967</desc></wpt><wpt lat="52.3146952" lon="9.7921909"><name>Laatzen/Eichstraße</name><desc>name=Laatzen/Eichstraße
network=Großraum-Verkehr Hannover
network:short=GVH
network:wikidata=Q1549516
operator=Überlandwerke und Straßenbahnen Hannover
operator:short=ÜSTRA
operator:wikidata=Q265625
public_transport=stop_position
railway=tram_stop
ref:IFOPT=de:03241:1471:5:1472
tram=yes
wheelchair=yes
id=node/29366979</desc></wpt><wpt lat="52.3192276" lon="9.786942"><name>Laatzen/Birkenstraße</name><desc>name=Laatzen/Birkenstraße
network=Großraum-Verkehr Hannover
network:short=GVH
network:wikidata=Q1549516
network:wikipedia=de:Großraum-Verkehr Hannover
operator=Überlandwerke und Straßenbahnen Hannover
operator:short=ÜSTRA
operator:wikidata=Q265625
operator:wikipedia=de:Üstra Hannoversche Verkehrsbetriebe
public_transport=stop_position
railway=tram_stop
ref:IFOPT=de:03241:1451:5:1452
tram=yes
wheelchair=yes
id=node/29367399</desc></wpt><wpt lat="52.3237482" lon="9.7831223"><name>Am Brabrinke</name><desc>name=Am Brabrinke
network=Großraum-Verkehr Hannover
network:short=GVH
network:wikidata=Q1549516
operator=Überlandwerke und Straßenbahnen Hannover
operator:short=ÜSTRA
operator:wikidata=Q265625
public_transport=stop_position
railway=tram_stop
ref:IFOPT=de:03241:1441:5:1442
tram=yes
wheelchair=yes
id=node/29367411</desc></wpt><wpt lat="52.3375292" lon="9.7691479"><name>Peiner Straße</name><desc>name=Peiner Straße
network=Großraum-Verkehr Hannover
network:short=GVH
network:wikidata=Q1549516
network:wikipedia=de:Großraum-Verkehr Hannover
operator=Überlandwerke und Straßenbahnen Hannover
operator:short=ÜSTRA
operator:wikidata=Q265625
operator:wikipedia=de:Üstra Hannoversche Verkehrsbetriebe
public_transport=stop_position
railway=tram_stop
ref:IFOPT=de:03241:1381:1:1381
tram=yes
wheelchair=yes
id=node/29367425</desc></wpt><wpt lat="52.3411364" lon="9.7659979"><name>Fiedelerstraße</name><desc>name=Fiedelerstraße
network=Großraum-Verkehr Hannover
network:short=GVH
network:wikidata=Q1549516
operator=Überlandwerke und Straßenbahnen Hannover
operator:short=ÜSTRA
operator:wikidata=Q265625
public_transport=stop_position
railway=tram_stop
ref:IFOPT=de:03241:1361:1:1371
tram=yes
wheelchair=yes
id=node/29367426</desc></wpt><wpt lat="52.3452785" lon="9.762146"><name>Döhrener Turm</name><desc>name=Döhrener Turm
network=Großraum-Verkehr Hannover
network:short=GVH
network:wikidata=Q1549516
operator=Überlandwerke und Straßenbahnen Hannover
operator:short=ÜSTRA
operator:wikidata=Q265625
public_transport=stop_position
railway=tram_stop
ref:IFOPT=de:03241:1351:1:1351
tram=yes
wheelchair=yes
id=node/29367427</desc></wpt><wpt lat="52.4132689" lon="9.648135"><name>Auf der Klappenburg</name><desc>name=Auf der Klappenburg
network=Großraum-Verkehr Hannover
network:short=GVH
network:wikidata=Q1549516
operator=Überlandwerke und Straßenbahnen Hannover
operator:short=ÜSTRA
operator:wikidata=Q265625
public_transport=stop_position
railway=tram_stop
ref:IFOPT=de:03241:4395:5:4396
tram=yes
wheelchair=yes
id=node/32637867</desc></wpt><wpt lat="52.3921897" lon="9.6941413"><name>Schaumburgstraße</name><desc>name=Schaumburgstraße
network=Großraum-Verkehr Hannover
network:short=GVH
network:wikidata=Q1549516
operator=Überlandwerke und Straßenbahnen Hannover
operator:short=ÜSTRA
operator:wikidata=Q265625
public_transport=stop_position
railway=tram_stop
ref=4311;4312
ref:IFOPT=de:03241:4311:1:4311
tram=yes
wheelchair=yes
wikidata=Q63364169
id=node/32689836</desc></wpt><wpt lat="52.3914545" lon="9.7000305"><name>Herrenhäuser Gärten</name><desc>name=Herrenhäuser Gärten
network=Großraum-Verkehr Hannover
network:short=GVH
network:wikidata=Q1549516
operator=Überlandwerke und Straßenbahnen Hannover
operator:short=ÜSTRA
operator:wikidata=Q265625
public_transport=stop_position
railway=tram_stop
ref:IFOPT=de:03241:201:1:201
tram=yes
wheelchair=yes
id=node/32689838</desc></wpt><wpt lat="52.385161" lon="9.7122319"><name>Schneiderberg / Wilhelm-Busch-Museum</name><desc>name=Schneiderberg / Wilhelm-Busch-Museum
network=Großraum-Verkehr Hannover
network:short=GVH
network:wikidata=Q1549516
operator=Überlandwerke und Straßenbahnen Hannover
operator:short=ÜSTRA
operator:wikidata=Q265625
public_transport=stop_position
railway=tram_stop
ref:IFOPT=de:03241:181:2:182
tram=yes
wheelchair=yes
id=node/32689845</desc></wpt><wpt lat="52.381282" lon="9.7178122"><name>Leibniz Universität</name><desc>name=Leibniz Universität
network=Großraum-Verkehr Hannover
network:short=GVH
network:wikidata=Q1549516
operator=Überlandwerke und Straßenbahnen Hannover
operator:short=ÜSTRA
operator:wikidata=Q265625
public_transport=stop_position
railway=tram_stop
ref:IFOPT=de:03241:171:1:171
tactile_paving=no
tram=yes
wheelchair=yes
wheelchair:note=Hochbahnsteig
id=node/32689849</desc></wpt><wpt lat="52.4157002" lon="9.6429099"><name>Jädekamp</name><desc>name=Jädekamp
network=Großraum-Verkehr Hannover
network:short=GVH
network:wikidata=Q1549516
operator=ÜSTRA
operator:wikidata=Q265625
public_transport=stop_position
railway=tram_stop
ref:IFOPT=de:03241:4397:5:4398
tram=yes
wheelchair=yes
id=node/32893592</desc></wpt><wpt lat="52.4003247" lon="9.66903"><name>Stadtfriedhof Stöcken</name><desc>name=Stadtfriedhof Stöcken
network=Großraum-Verkehr Hannover
network:short=GVH
network:wikidata=Q1549516
operator=ÜSTRA
operator:wikidata=Q265625
public_transport=stop_position
railway=tram_stop
ref:IFOPT=de:03241:4341:4:4342
tram=yes
wheelchair=yes
id=node/32893602</desc></wpt><wpt lat="52.3752519" lon="9.7015927"><name>Freizeitheim Linden</name><desc>bench=no
bin=yes
name=Freizeitheim Linden
network=Großraum-Verkehr Hannover
network:short=GVH
network:wikidata=Q1549516
operator=Überlandwerke und Straßenbahnen Hannover
operator:short=ÜSTRA
operator:wikidata=Q265625
public_transport=stop_position
railway=tram_stop
ref:IFOPT=de:03241:501
shelter=no
tactile_paving=no
tram=yes
wheelchair=yes
id=node/34193131</desc></wpt><wpt lat="52.2610702" lon="10.5329926"><name>Am Magnitor</name><desc>local_ref=B
name=Am Magnitor
network=Verkehrsverbund Region Braunschweig
network:short=VRB
network:wikidata=Q2514431
operator=Braunschweiger Verkehrs-GmbH
operator:short=BSVG
operator:wikidata=Q901999
public_transport=stop_position
railway=tram_stop
tram=yes
id=node/34672434</desc></wpt><wpt lat="52.2864195" lon="10.5426463"><name>Ottenroder Straße</name><desc>local_ref=A
name=Ottenroder Straße
network=Verkehrsverbund Region Braunschweig
network:short=VRB
network:wikidata=Q2514431
operator=Braunschweiger Verkehrs-GmbH
operator:short=BSVG
operator:wikidata=Q901999
public_transport=stop_position
railway=tram_stop
tram=yes
wheelchair=yes
id=node/50844245</desc></wpt><wpt lat="52.2866865" lon="10.5395019"><name>Siegfriedstraße</name><desc>local_ref=B
name=Siegfriedstraße
network=Verkehrsverbund Region Braunschweig
network:short=VRB
network:wikidata=Q2514431
operator=Braunschweiger Verkehrs-GmbH
operator:short=BSVG
operator:wikidata=Q901999
public_transport=stop_position
railway=tram_stop
tactile_paving=yes
tram=yes
wheelchair=yes
id=node/50844293</desc></wpt><wpt lat="52.2866391" lon="10.5190634"><name>Gesundheitsamt (Wasserwelt)</name><desc>local_ref=B
name=Gesundheitsamt (Wasserwelt)
network=Verkehrsverbund Region Braunschweig
network:short=VRB
network:wikidata=Q2514431
operator=Braunschweiger Verkehrs-GmbH
operator:short=BSVG
operator:wikidata=Q901999
public_transport=stop_position
railway=tram_stop
tram=yes
wheelchair=yes
id=node/50844297</desc></wpt><wpt lat="52.2619775" lon="10.5258048"><name>Schloss</name><desc>local_ref=B
name=Schloss
network=Verkehrsverbund Region Braunschweig
network:short=VRB
network:wikidata=Q2514431
operator=Braunschweiger Verkehrs-GmbH
operator:short=BSVG
operator:wikidata=Q901999
public_transport=stop_position
railway=tram_stop
tram=yes
wheelchair=yes
id=node/50917710</desc></wpt><wpt lat="52.2588494" lon="10.5273985"><name>John-F.-Kennedy-Platz</name><desc>local_ref=A
name=John-F.-Kennedy-Platz
network=Verkehrsverbund Region Braunschweig
network:short=VRB
network:wikidata=Q2514431
operator=Braunschweiger Verkehrs-GmbH
operator:short=BSVG
operator:wikidata=Q901999
public_transport=stop_position
railway=tram_stop
tram=yes
id=node/50917747</desc></wpt><wpt lat="52.258197" lon="10.528441"><name>John-F.-Kennedy-Platz</name><desc>disused:public_transport=stop_position
local_ref=J
name=John-F.-Kennedy-Platz
network=Verkehrsverbund Region Braunschweig
network:short=VRB
network:wikidata=Q2514431
operator=Braunschweiger Verkehrs-GmbH
operator:short=BSVG
operator:wikidata=Q901999
public_transport=stop_position
railway=tram_stop
tram=yes
id=node/50917766</desc></wpt><wpt lat="52.2541879" lon="10.5390835"><name>Braunschweig, Hauptbahnhof</name><desc>local_ref=G
name=Braunschweig, Hauptbahnhof
network=Verkehrsverbund Region Braunschweig
network:short=VRB
network:wikidata=Q2514431
operator=Braunschweiger Verkehrs-GmbH
operator:short=BSVG
operator:wikidata=Q901999
public_transport=stop_position
railway=tram_stop
tram=yes
id=node/50918001</desc></wpt><wpt lat="52.2526713" lon="10.5385971"><name>Braunschweig, Hauptbahnhof</name><desc>local_ref=C
name=Braunschweig, Hauptbahnhof
network=Verkehrsverbund Region Braunschweig
network:short=VRB
network:wikidata=Q2514431
operator=Braunschweiger Verkehrs-GmbH
operator:short=BSVG
operator:wikidata=Q901999
passenger_information_display=yes
passenger_information_display:speech_output=yes
public_transport=stop_position
railway=tram_stop
toilets:wheelchair=yes
tram=yes
wheelchair=yes
id=node/50918015</desc></wpt><wpt lat="52.2565087" lon="10.5401255"><name>Willy-Brandt-Platz</name><desc>local_ref=A
name=Willy-Brandt-Platz
network=Verkehrsverbund Region Braunschweig
network:short=VRB
network:wikidata=Q2514431
operator=Braunschweiger Verkehrs-GmbH
operator:short=BSVG
operator:wikidata=Q901999
public_transport=stop_position
railway=tram_stop
ref=A
tram=yes
id=node/50918024</desc></wpt><wpt lat="52.2587999" lon="10.5407183"><name>St. Leonhard (Stadthalle)</name><desc>local_ref=C
name=St. Leonhard (Stadthalle)
network=Verkehrsverbund Region Braunschweig
network:short=VRB
network:wikidata=Q2514431
operator=Braunschweiger Verkehrs-GmbH
operator:short=BSVG
operator:wikidata=Q901999
public_transport=stop_position
railway=tram_stop
tram=yes
id=node/50918028</desc></wpt><wpt lat="52.2552449" lon="10.5621427"><name>Helmstedter Straße</name><desc>local_ref=B
name=Helmstedter Straße
network=Verkehrsverbund Region Braunschweig
network:short=VRB
network:wikidata=Q2514431
operator=Braunschweiger Verkehrs-GmbH
operator:short=BSVG
operator:wikidata=Q901999
public_transport=stop_position
railway=tram_stop
tram=yes
id=node/50926835</desc></wpt><wpt lat="52.2551793" lon="10.5616472"><name>Helmstedter Straße</name><desc>local_ref=A
name=Helmstedter Straße
network=Verkehrsverbund Region Braunschweig
network:short=VRB
network:wikidata=Q2514431
operator=Braunschweiger Verkehrs-GmbH
operator:short=BSVG
operator:wikidata=Q901999
public_transport=stop_position
railway=tram_stop
tram=yes
id=node/50926856</desc></wpt><wpt lat="52.2045617" lon="10.5255693"><name>Salzdahlumer Weg</name><desc>local_ref=A
name=Salzdahlumer Weg
network=Verkehrsverbund Region Braunschweig
operator=Braunschweiger Verkehrs-GmbH
public_transport=stop_position
railway=tram_stop
tram=yes
id=node/51468635</desc></wpt><wpt lat="52.215223" lon="10.5205783"><name>Siedlerstraße</name><desc>local_ref=A
name=Siedlerstraße
network=Verkehrsverbund Region Braunschweig
operator=Braunschweiger Verkehrs-GmbH
public_transport=stop_position
railway=tram_stop
tram=yes
id=node/51519533</desc></wpt><wpt lat="52.2187317" lon="10.5201603"><name>Siekgraben</name><desc>local_ref=A
name=Siekgraben
network=Verkehrsverbund Region Braunschweig
network:short=VRB
network:wikidata=Q2514431
operator=Braunschweiger Verkehrs-GmbH
operator:short=BSVG
operator:wikidata=Q901999
public_transport=stop_position
railway=tram_stop
tram=yes
id=node/51519700</desc></wpt><wpt lat="52.2260206" lon="10.5261921"><name>Militschstraße</name><desc>local_ref=B
name=Militschstraße
network=Verkehrsverbund Region Braunschweig
network:short=VRB
network:wikidata=Q2514431
operator=Braunschweiger Verkehrs-GmbH
operator:short=BSVG
operator:wikidata=Q901999
public_transport=stop_position
railway=tram_stop
tram=yes
id=node/51519782</desc></wpt><wpt lat="52.2330504" lon="10.5292054"><name>HEH-Kliniken</name><desc>bench=yes
local_ref=B
name=HEH-Kliniken
network=Verkehrsverbund Region Braunschweig
network:short=VRB
network:wikidata=Q2514431
operator=Braunschweiger Verkehrs-GmbH
operator:short=BSVG
operator:wikidata=Q901999
public_transport=stop_position
railway=tram_stop
toilets:wheelchair=no
tram=yes
wheelchair=yes
id=node/51519846</desc></wpt><wpt lat="52.2406126" lon="10.5277564"><name>Richmondweg</name><desc>local_ref=A
name=Richmondweg
network=Verkehrsverbund Region Braunschweig
network:short=VRB
network:wikidata=Q2514431
operator=Braunschweiger Verkehrs-GmbH
operator:short=BSVG
operator:wikidata=Q901999
public_transport=stop_position
railway=tram_stop
tram=yes
wheelchair=yes
id=node/51519879</desc></wpt><wpt lat="52.2505765" lon="10.529498"><name>Bürgerpark</name><desc>local_ref=A
name=Bürgerpark
network=Verkehrsverbund Region Braunschweig
network:short=VRB
network:wikidata=Q2514431
operator=Braunschweiger Verkehrs-GmbH
operator:short=BSVG
operator:wikidata=Q901999
public_transport=stop_position
railway=tram_stop
tram=yes
wheelchair=no
id=node/51519930</desc></wpt><wpt lat="52.2599333" lon="10.5194032"><name>Friedrich-Wilhelm-Platz</name><desc>local_ref=B
name=Friedrich-Wilhelm-Platz
network=Verkehrsverbund Region Braunschweig
network:short=VRB
network:wikidata=Q2514431
operator=Braunschweiger Verkehrs-GmbH
operator:short=BSVG
operator:wikidata=Q901999
public_transport=stop_position
railway=tram_stop
tram=yes
wheelchair=yes
id=node/52768325</desc></wpt><wpt lat="52.2613381" lon="10.5215983"><name>Friedrich-Wilhelm-Straße</name><desc>bench=yes
lit=yes
local_ref=A
name=Friedrich-Wilhelm-Straße
network=Verkehrsverbund Region Braunschweig
network:short=VRB
network:wikidata=Q2514431
operator=Braunschweiger Verkehrs-GmbH
operator:short=BSVG
operator:wikidata=Q901999
public_transport=stop_position
railway=tram_stop
shelter=yes
tram=yes
wheelchair=yes
id=node/52768346</desc></wpt><wpt lat="52.2573295" lon="10.5157639"><name>Europaplatz</name><desc>local_ref=B
name=Europaplatz
network=Verkehrsverbund Region Braunschweig
network:short=VRB
network:wikidata=Q2514431
operator=Braunschweiger Verkehrs-GmbH
operator:short=BSVG
operator:wikidata=Q901999
public_transport=stop_position
railway=tram_stop
tram=yes
wheelchair=yes
id=node/52780750</desc></wpt><wpt lat="52.256041" lon="10.5103086"><name>Luisenstraße</name><desc>local_ref=B
name=Luisenstraße
network=Verkehrsverbund Region Braunschweig
network:short=VRB
network:wikidata=Q2514431
operator=Braunschweiger Verkehrs-GmbH
operator:short=BSVG
operator:wikidata=Q901999
public_transport=stop_position
railway=tram_stop
tram=yes
wheelchair=yes
id=node/52780772</desc></wpt><wpt lat="52.3262097" lon="10.508541"><name>Heideblick</name><desc>name=Heideblick
network=Verkehrsverbund Region Braunschweig
operator=Braunschweiger Verkehrs-GmbH
public_transport=stop_position
railway=tram_stop
ref=A
ref_name=Heideblick, Braunschweig
tram=yes
wheelchair=yes
id=node/54142977</desc></wpt><wpt lat="52.3227931" lon="10.5091121"><name>Veltenhöfer Straße</name><desc>local_ref=A
name=Veltenhöfer Straße
network=Verkehrsverbund Region Braunschweig
operator=Braunschweiger Verkehrs-GmbH
public_transport=stop_position
railway=tram_stop
tram=yes
wheelchair=yes
id=node/54143009</desc></wpt><wpt lat="52.322446" lon="10.5092062"><name>Veltenhöfer Straße</name><desc>local_ref=B
name=Veltenhöfer Straße
network=Verkehrsverbund Region Braunschweig
operator=Braunschweiger Verkehrs-GmbH
public_transport=stop_position
railway=tram_stop
tram=yes
wheelchair=yes
id=node/54143012</desc></wpt><wpt lat="52.319451" lon="10.5095338"><name>Geibelstraße</name><desc>local_ref=B
name=Geibelstraße
network=Verkehrsverbund Region Braunschweig
operator=Braunschweiger Verkehrs-GmbH
public_transport=stop_position
railway=tram_stop
tram=yes
wheelchair=yes
id=node/54143015</desc></wpt><wpt lat="52.3113763" lon="10.5151377"><name>Lincolnsiedlung</name><desc>local_ref=B
name=Lincolnsiedlung
network=Verkehrsverbund Region Braunschweig
operator=Braunschweiger Verkehrs-GmbH
public_transport=stop_position
railway=tram_stop
tram=yes
wheelchair=yes
wheelchair:description=Abflachung nur parallel zu den Schienen
id=node/54143083</desc></wpt><wpt lat="52.3041406" lon="10.5157699"><name>Nordhoffstraße</name><desc>local_ref=B
name=Nordhoffstraße
network=Verkehrsverbund Region Braunschweig
operator=Braunschweiger Verkehrs-GmbH
public_transport=stop_position
railway=tram_stop
tram=yes
wheelchair=yes
id=node/54143135</desc></wpt><wpt lat="52.2978821" lon="10.5171333"><name>Schmalbachstraße</name><desc>local_ref=A
name=Schmalbachstraße
network=Verkehrsverbund Region Braunschweig
network:short=VRB
network:wikidata=Q2514431
operator=Braunschweiger Verkehrs-GmbH
operator:short=BSVG
operator:wikidata=Q901999
public_transport=stop_position
railway=tram_stop
tram=yes
wheelchair=yes
id=node/54143138</desc></wpt><wpt lat="52.2972441" lon="10.5173329"><name>Schmalbachstraße</name><desc>local_ref=B
name=Schmalbachstraße
network=Verkehrsverbund Region Braunschweig
network:short=VRB
network:wikidata=Q2514431
operator=Braunschweiger Verkehrs-GmbH
operator:short=BSVG
operator:wikidata=Q901999
public_transport=stop_position
railway=tram_stop
tram=yes
wheelchair=yes
id=node/54143139</desc></wpt><wpt lat="52.3140977" lon="10.5099007"><name>Carl-Miele-Straße</name><desc>local_ref=B
name=Carl-Miele-Straße
network=Verkehrsverbund Region Braunschweig
operator=Braunschweiger Verkehrs-GmbH
public_transport=stop_position
railway=tram_stop
tram=yes
wheelchair=yes
id=node/54153340</desc></wpt><wpt lat="52.2287221" lon="10.540673"><name>Anklamstraße</name><desc>local_ref=A
name=Anklamstraße
network=Verkehrsverbund Region Braunschweig
network:short=VRB
network:wikidata=Q2514431
operator=Braunschweiger Verkehrs-GmbH
operator:short=BSVG
operator:wikidata=Q901999
public_transport=stop_position
railway=tram_stop
shelter=yes
tram=yes
wheelchair=yes
id=node/57860355</desc></wpt><wpt lat="52.2299731" lon="10.5362879"><name>Erfurtplatz</name><desc>local_ref=A
name=Erfurtplatz
network=Verkehrsverbund Region Braunschweig
network:short=VRB
network:wikidata=Q2514431
operator=Braunschweiger Verkehrs-GmbH
operator:short=BSVG
operator:wikidata=Q901999
public_transport=stop_position
railway=tram_stop
tram=yes
id=node/57860395</desc></wpt><wpt lat="52.2296469" lon="10.535941"><name>Erfurtplatz</name><desc>local_ref=B
name=Erfurtplatz
network=Verkehrsverbund Region Braunschweig
network:short=VRB
network:wikidata=Q2514431
operator=Braunschweiger Verkehrs-GmbH
operator:short=BSVG
operator:wikidata=Q901999
public_transport=stop_position
railway=tram_stop
tram=yes
id=node/57860399</desc></wpt><wpt lat="52.2788872" lon="10.5678139"><name>Messeweg</name><desc>local_ref=A
name=Messeweg
network=Verkehrsverbund Region Braunschweig
network:short=VRB
network:wikidata=Q2514431
operator=Braunschweiger Verkehrs-GmbH
operator:short=BSVG
operator:wikidata=Q901999
public_transport=stop_position
railway=tram_stop
tram=yes
wheelchair=yes
id=node/59706423</desc></wpt><wpt lat="52.281562" lon="10.5761352"><name>Petzvalstraße</name><desc>local_ref=A
name=Petzvalstraße
network=Verkehrsverbund Region Braunschweig
network:short=VRB
network:wikidata=Q2514431
operator=Braunschweiger Verkehrs-GmbH
operator:short=BSVG
operator:wikidata=Q901999
public_transport=stop_position
railway=tram_stop
tactile_paving=yes
tram=yes
wheelchair=yes
id=node/59706429</desc></wpt><wpt lat="52.2820432" lon="10.577693"><name>Petzvalstraße</name><desc>local_ref=B
name=Petzvalstraße
network=Verkehrsverbund Region Braunschweig
network:short=VRB
network:wikidata=Q2514431
operator=Braunschweiger Verkehrs-GmbH
operator:short=BSVG
operator:wikidata=Q901999
public_transport=stop_position
railway=tram_stop
tactile_paving=yes
tram=yes
wheelchair=yes
id=node/59706430</desc></wpt><wpt lat="52.2836296" lon="10.5823721"><name>Moorhüttenweg</name><desc>local_ref=B
name=Moorhüttenweg
network=Verkehrsverbund Region Braunschweig
operator=Braunschweiger Verkehrs-GmbH
public_transport=stop_position
railway=tram_stop
tram=yes
id=node/59706434</desc></wpt><wpt lat="52.2839266" lon="10.5833272"><name>Moorhüttenweg</name><desc>local_ref=A
name=Moorhüttenweg
network=Verkehrsverbund Region Braunschweig
operator=Braunschweiger Verkehrs-GmbH
public_transport=stop_position
railway=tram_stop
tram=yes
wheelchair=yes
id=node/59706435</desc></wpt><wpt lat="52.2849829" lon="10.5838089"><name>Grenzweg</name><desc>name=Grenzweg
network=Verkehrsverbund Region Braunschweig
operator=Braunschweiger Verkehrs-GmbH
public_transport=stop_position
railway=tram_stop
tram=yes
id=node/59706442</desc></wpt><wpt lat="52.2854104" lon="10.5835636"><name>Grenzweg</name><desc>name=Grenzweg
network=Verkehrsverbund Region Braunschweig
network:short=VRB
network:wikidata=Q2514431
operator=Braunschweiger Verkehrs-GmbH
operator:short=BSVG
operator:wikidata=Q901999
public_transport=stop_position
railway=tram_stop
tram=yes
id=node/59706444</desc></wpt><wpt lat="52.2553442" lon="10.5069926"><name>Cyriaksring</name><desc>local_ref=B
name=Cyriaksring
network=Verkehrsverbund Region Braunschweig
network:short=VRB
network:wikidata=Q2514431
operator=Braunschweiger Verkehrs-GmbH
operator:short=BSVG
operator:wikidata=Q901999
public_transport=stop_position
railway=tram_stop
tram=yes
wheelchair=yes
id=node/59708112</desc></wpt><wpt lat="52.2538153" lon="10.495752"><name>Am Jödebrunnen</name><desc>name=Am Jödebrunnen
network=Verkehrsverbund Region Braunschweig
network:short=VRB
network:wikidata=Q2514431
operator=Braunschweiger Verkehrs-GmbH
operator:short=BSVG
operator:wikidata=Q901999
public_transport=stop_position
railway=tram_stop
tram=yes
wheelchair=yes
id=node/59708124</desc></wpt><wpt lat="52.2511475" lon="10.491244"><name>Emsstraße</name><desc>name=Emsstraße
network=Verkehrsverbund Region Braunschweig
network:short=VRB
network:wikidata=Q2514431
operator=Braunschweiger Verkehrs-GmbH
operator:short=BSVG
operator:wikidata=Q901999
public_transport=stop_position
railway=tram_stop
tram=yes
wheelchair=yes
id=node/59708130</desc></wpt><wpt lat="52.250604" lon="10.4902157"><name>Emsstraße</name><desc>name=Emsstraße
network=Verkehrsverbund Region Braunschweig
network:short=VRB
network:wikidata=Q2514431
operator=Braunschweiger Verkehrs-GmbH
operator:short=BSVG
operator:wikidata=Q901999
public_transport=stop_position
railway=tram_stop
tram=yes
wheelchair=yes
id=node/59708131</desc></wpt><wpt lat="52.2489643" lon="10.4866301"><name>Donauknoten</name><desc>fee_zone=40
local_ref=C
name=Donauknoten
network=Verkehrsverbund Region Braunschweig
network:guid=DE-NDS-VRB
network:short=VRB
network:wikidata=Q2514431
network:wikipedia=de:Verkehrsverbund Region Braunschweig
operator=Braunschweiger Verkehrs-GmbH
operator:short=BSVG
operator:wikidata=Q901999
public_transport=stop_position
railway=tram_stop
ref=C
ref:IFOPT=de:03101:109
ref_name=Braunschweig, Donauknoten
tram=yes
wheelchair=limited
id=node/59708136</desc></wpt><wpt lat="52.2491289" lon="10.477984"><name>Alsterplatz</name><desc>fee_zone=40
local_ref=B
name=Alsterplatz
network=Verkehrsverbund Region Braunschweig
network:guid=DE-NDS-VRB
network:short=VRB
network:wikidata=Q2514431
network:wikipedia=de:Verkehrsverbund Region Braunschweig
operator=Braunschweiger Verkehrs-GmbH
public_transport=stop_position
railway=tram_stop
ref:IFOPT=de:03101:8
ref_name=Braunschweig, Alsterplatz
tram=yes
id=node/59708144</desc></wpt><wpt lat="52.2486493" lon="10.4725557"><name>Rheinring</name><desc>fee_zone=40
local_ref=B
name=Rheinring
network=Verkehrsverbund Region Braunschweig
network:guid=DE-NDS-VRB
network:short=VRB
network:wikidata=Q2514431
network:wikipedia=de:Verkehrsverbund Region Braunschweig
operator=Braunschweiger Verkehrs-GmbH
operator:short=BSVG
operator:wikidata=Q901999
public_transport=stop_position
railway=tram_stop
ref:IFOPT=de:03101:350
ref_name=Braunschweig, Rheinring
tram=yes
wheelchair=limited
id=node/59708150</desc></wpt><wpt lat="52.2447377" lon="10.4710907"><name>Saalestraße</name><desc>fee_zone=40
local_ref=B
name=Saalestraße
network=Verkehrsverbund Region Braunschweig
network:guid=DE-NDS-VRB
network:short=VRB
network:wikidata=Q2514431
network:wikipedia=de:Verkehrsverbund Region Braunschweig
operator=Braunschweiger Verkehrs-GmbH
operator:short=BSVG
operator:wikidata=Q901999
public_transport=stop_position
railway=tram_stop
ref:IFOPT=de:03101:359
ref_name=Braunschweig, Saalestraße
tram=yes
id=node/59708156</desc></wpt><wpt lat="52.2427737" lon="10.4710375"><name>Weserstraße</name><desc>fee_zone=40
local_ref=A
name=Weserstraße
network=Verkehrsverbund Region Braunschweig
network:guid=DE-NDS-VRB
network:short=VRB
network:wikidata=Q2514431
network:wikipedia=de:Verkehrsverbund Region Braunschweig
operator=Braunschweiger Verkehrs-GmbH
operator:short=BSVG
operator:wikidata=Q901999
public_transport=stop_position
railway=tram_stop
ref:IFOPT=de:03101:455
ref_name=Braunschweig, Weserstraße
tram=yes
id=node/59708160</desc></wpt><wpt lat="52.2425481" lon="10.4703029"><name>Weserstraße</name><desc>fee_zone=40
local_ref=B
name=Weserstraße
network=Verkehrsverbund Region Braunschweig
network:guid=DE-NDS-VRB
network:short=VRB
network:wikidata=Q2514431
network:wikipedia=de:Verkehrsverbund Region Braunschweig
operator=Braunschweiger Verkehrs-GmbH
operator:short=BSVG
operator:wikidata=Q901999
public_transport=stop_position
railway=tram_stop
ref:IFOPT=de:03101:455
ref_name=Braunschweig, Weserstraße
tram=yes
id=node/59708171</desc></wpt><wpt lat="52.2489763" lon="10.487237"><name>Donauknoten</name><desc>fee_zone=40
local_ref=A
name=Donauknoten
network=Verkehrsverbund Region Braunschweig
network:guid=DE-NDS-VRB
network:short=VRB
network:wikidata=Q2514431
network:wikipedia=de:Verkehrsverbund Region Braunschweig
operator=Braunschweiger Verkehrs-GmbH
operator:short=BSVG
operator:wikidata=Q901999
public_transport=stop_position
railway=tram_stop
ref=A
ref:IFOPT=de:03101:109
ref_name=Braunschweig, Donauknoten
tram=yes
wheelchair=yes
id=node/59708192</desc></wpt><wpt lat="52.2457397" lon="10.489176"><name>Am Queckenberg</name><desc>name=Am Queckenberg
network=Verkehrsverbund Region Braunschweig
network:short=VRB
network:wikidata=Q2514431
operator=Braunschweiger Verkehrs-GmbH
operator:short=BSVG
operator:wikidata=Q901999
public_transport=stop_position
railway=tram_stop
tram=yes
id=node/59708206</desc></wpt><wpt lat="52.2418561" lon="10.4886081"><name>Am Lehmanger</name><desc>local_ref=A
name=Am Lehmanger
network=Verkehrsverbund Region Braunschweig
network:short=VRB
network:wikidata=Q2514431
operator=Braunschweiger Verkehrs-GmbH
operator:short=BSVG
operator:wikidata=Q901999
public_transport=stop_position
railway=tram_stop
tram=yes
wheelchair=limited
id=node/59708214</desc></wpt><wpt lat="52.2374727" lon="10.4882984"><name>An der Rothenburg</name><desc>name=An der Rothenburg
network=Verkehrsverbund Region Braunschweig
network:short=VRB
network:wikidata=Q2514431
operator=Braunschweiger Verkehrs-GmbH
operator:short=BSVG
operator:wikidata=Q901999
public_transport=stop_position
railway=tram_stop
tram=yes
id=node/59708221</desc></wpt><wpt lat="52.2337656" lon="10.4872757"><name>Kruckweg</name><desc>local_ref=A
name=Kruckweg
network=Verkehrsverbund Region Braunschweig
network:short=VRB
network:wikidata=Q2514431
operator=Braunschweiger Verkehrs-GmbH
operator:short=BSVG
operator:wikidata=Q901999
public_transport=stop_position
railway=tram_stop
tram=yes
id=node/59708233</desc></wpt><wpt lat="52.2342254" lon="10.4818824"><name>Turmstraße</name><desc>name=Turmstraße
network=Verkehrsverbund Region Braunschweig
network:short=VRB
network:wikidata=Q2514431
operator=Braunschweiger Verkehrs-GmbH
operator:short=BSVG
operator:wikidata=Q901999
public_transport=stop_position
railway=tram_stop
tram=yes
wheelchair=yes
id=node/59708243</desc></wpt><wpt lat="52.27311" lon="10.537658"><name>Gliesmaroder Straße</name><desc>local_ref=A
name=Gliesmaroder Straße
network=Verkehrsverbund Region Braunschweig
network:short=VRB
network:wikidata=Q2514431
operator=Braunschweiger Verkehrs-GmbH
operator:short=BSVG
operator:wikidata=Q901999
public_transport=stop_position
railway=tram_stop
tram=yes
id=node/59824154</desc></wpt><wpt lat="52.274268" lon="10.540031"><name>Bindestraße</name><desc>local_ref=A
name=Bindestraße
network=Verkehrsverbund Region Braunschweig
network:short=VRB
network:wikidata=Q2514431
operator=Braunschweiger Verkehrs-GmbH
operator:short=BSVG
operator:wikidata=Q901999
public_transport=stop_position
railway=tram_stop
tram=yes
id=node/59824195</desc></wpt><wpt lat="52.278738" lon="10.5670663"><name>Messeweg</name><desc>local_ref=B
name=Messeweg
network=Verkehrsverbund Region Braunschweig
network:short=VRB
network:wikidata=Q2514431
operator=Braunschweiger Verkehrs-GmbH
operator:short=BSVG
operator:wikidata=Q901999
public_transport=stop_position
railway=tram_stop
tram=yes
wheelchair=yes
id=node/59824217</desc></wpt><wpt lat="52.4117695" lon="9.7061838"><name>Friedenauer Straße</name><desc>name=Friedenauer Straße
network=Großraum-Verkehr Hannover
network:short=GVH
network:wikidata=Q1549516
operator=Überlandwerke und Straßenbahnen Hannover
operator:short=ÜSTRA
operator:wikidata=Q265625
public_transport=stop_position
railway=tram_stop
ref:IFOPT=de:03241:4021:3:4022
tram=yes
wheelchair=yes
id=node/60406297</desc></wpt><wpt lat="52.3930802" lon="9.7134465"><name>Haltenhoffstraße</name><desc>name=Haltenhoffstraße
network=Großraum-Verkehr Hannover
network:short=GVH
network:wikidata=Q1549516
operator=Überlandwerke und Straßenbahnen Hannover
operator:short=ÜSTRA
operator:wikidata=Q265625
public_transport=stop_position
railway=tram_stop
ref:IFOPT=de:03241:261:1:262
ref_name=Haltenhoffstraße, Hannover
tram=yes
wheelchair=yes
wheelchair:description=Hochbahnsteig
id=node/61093964</desc></wpt><wpt lat="52.3902073" lon="9.7061337"><name>Appelstraße</name><desc>name=Appelstraße
network=Großraum-Verkehr Hannover
network:short=GVH
network:wikidata=Q1549516
old_name=Parkhaus
operator=Überlandwerke und Straßenbahnen Hannover
operator:short=ÜSTRA
operator:wikidata=Q265625
public_transport=stop_position
railway=tram_stop
ref:IFOPT=de:03241:191:1:191
tram=yes
wheelchair=yes
id=node/78565933</desc></wpt><wpt lat="52.4035269" lon="9.6728079"><name>Betriebshof Fuhsestraße</name><desc>name=Betriebshof Fuhsestraße
network=Großraum-Verkehr Hannover
network:short=GVH
network:wikidata=Q1549516
operator=Überlandwerke und Straßenbahnen Hannover
operator:short=ÜSTRA
operator:wikidata=Q265625
public_transport=stop_position
railway=tram_stop
tram=yes
wheelchair=no
id=node/83224938</desc></wpt><wpt lat="52.2649277" lon="10.5263764"><name>Rathaus</name><desc>local_ref=A
name=Rathaus
network=Verkehrsverbund Region Braunschweig
network:short=VRB
network:wikidata=Q2514431
operator=Braunschweiger Verkehrs-GmbH
operator:short=BSVG
operator:wikidata=Q901999
public_transport=stop_position
railway=tram_stop
tram=yes
wheelchair=yes
id=node/89228269</desc></wpt><wpt lat="52.3576656" lon="9.7228379"><name>Stadionbrücke</name><desc>name=Stadionbrücke
network=Großraum-Verkehr Hannover
network:short=GVH
network:wikidata=Q1549516
operator=Überlandwerke und Straßenbahnen Hannover
operator:short=ÜSTRA
operator:wikidata=Q265625
public_transport=stop_position
railway=tram_stop
ref:IFOPT=de:03241:881:1:882
shelter=yes
tactile_paving=yes
tram=yes
wheelchair=yes
id=node/100173825</desc></wpt><wpt lat="52.3439242" lon="9.667168"><name>Empelde</name><desc>name=Empelde
network=Großraum-Verkehr Hannover
network:short=GVH
network:wikidata=Q1549516
operator=Überlandwerke und Straßenbahnen Hannover
operator:short=ÜSTRA
operator:wikidata=Q265625
public_transport=stop_position
railway=tram_stop
ref:IFOPT=de:03241:5001
tactile_paving=yes
tram=yes
wheelchair=yes
id=node/102068193</desc></wpt><wpt lat="52.3512904" lon="9.6693583"><name>Safariweg</name><desc>name=Safariweg
network=Großraum-Verkehr Hannover
network:short=GVH
network:wikidata=Q1549516
operator=Überlandwerke und Straßenbahnen Hannover
operator:short=ÜSTRA
operator:wikidata=Q265625
public_transport=stop_position
railway=tram_stop
ref:IFOPT=de:03241:701:2
tram=yes
wheelchair=no
wheelchair:description=Tiefbahnsteig
id=node/102068215</desc></wpt><wpt lat="52.3577944" lon="9.677137"><name>Am Soltekampe</name><desc>bus=no
name=Am Soltekampe
network=Großraum-Verkehr Hannover
network:short=GVH
network:wikidata=Q1549516
operator=Überlandwerke und Straßenbahnen Hannover
operator:short=ÜSTRA
operator:wikidata=Q265625
public_transport=stop_position
railway=tram_stop
ref:IFOPT=de:03241:671:3:672
tram=yes
wheelchair=yes
wheelchair:description=Hochbahnsteig
id=node/102068218</desc></wpt><wpt lat="52.3648167" lon="9.6932933"><name>Am Lindener Hafen</name><desc>name=Am Lindener Hafen
network=Großraum-Verkehr Hannover
network:short=GVH
network:wikidata=Q1549516
operator=Überlandwerke und Straßenbahnen Hannover
operator:short=ÜSTRA
operator:wikidata=Q265625
public_transport=stop_position
railway=tram_stop
ref:IFOPT=de:03241:641
tram=yes
wheelchair=no
wheelchair:description=Tiefbahnsteig
id=node/102068232</desc></wpt><wpt lat="52.3661952" lon="9.6997912"><name>Bernhard-Caspar-Straße</name><desc>bus=yes
highway=bus_stop
name=Bernhard-Caspar-Straße
network=Großraum-Verkehr Hannover
network:short=GVH
network:wikidata=Q1549516
operator=Überlandwerke und Straßenbahnen Hannover
operator:short=ÜSTRA
operator:wikidata=Q265625
public_transport=stop_position
railway=tram_stop
ref:IFOPT=de:03241:631:5
tactile_paving=no
tram=yes
wheelchair=no
wheelchair:description=Tiefbahnsteig
id=node/102068237</desc></wpt><wpt lat="52.3672032" lon="9.7093523"><name>Nieschlagstraße</name><desc>bus=yes
highway=bus_stop
name=Nieschlagstraße
network=Großraum-Verkehr Hannover
network:short=GVH
network:wikidata=Q1549516
network:wikipedia=de:Großraum-Verkehr Hannover
operator=Überlandwerke und Straßenbahnen Hannover
operator:short=ÜSTRA
operator:wikidata=Q265625
public_transport=stop_position
railway=tram_stop
ref:IFOPT=de:03241:623:1
tram=yes
wheelchair=no
wheelchair:description=Tiefbahnsteig
id=node/102068244</desc></wpt><wpt lat="52.3704425" lon="9.7232041"><name>Humboldtstraße</name><desc>name=Humboldtstraße
network=Großraum-Verkehr Hannover
network:short=GVH
network:wikidata=Q1549516
operator=Überlandwerke und Straßenbahnen Hannover
operator:short=ÜSTRA
operator:wikidata=Q265625
public_transport=stop_position
railway=tram_stop
ref:IFOPT=de:03241:431:1:434
tram=yes
wheelchair=yes
wheelchair:description=Hochbahnsteig
id=node/105475161</desc></wpt><wpt lat="52.4028066" lon="9.7909397"><name>Klingerstraße</name><desc>name=Klingerstraße
network=Großraum-Verkehr Hannover
network:short=GVH
network:wikidata=Q1549516
operator=Überlandwerke und Straßenbahnen Hannover
operator:short=ÜSTRA
operator:wikidata=Q265625
public_transport=stop_position
railway=tram_stop
ref:IFOPT=de:03241:2161:3:2162
tram=yes
wheelchair=yes
id=node/130553985</desc></wpt><wpt lat="52.408871" lon="9.8083561"><name>In den Sieben Stücken</name><desc>name=In den Sieben Stücken
network=Großraum-Verkehr Hannover
network:short=GVH
network:wikidata=Q1549516
operator=Überlandwerke und Straßenbahnen Hannover
operator:short=ÜSTRA
operator:wikidata=Q265625
public_transport=stop_position
railway=tram_stop
ref:IFOPT=de:03241:2231:1:2231
tram=yes
wheelchair=yes
id=node/130554048</desc></wpt><wpt lat="52.4139918" lon="9.8244318"><name>Stadtfriedhof Lahe</name><desc>name=Stadtfriedhof Lahe
network=Großraum-Verkehr Hannover
network:short=GVH
network:wikidata=Q1549516
operator=Überlandwerke und Straßenbahnen Hannover
operator:short=ÜSTRA
operator:wikidata=Q265625
public_transport=stop_position
railway=tram_stop
ref:IFOPT=de:03241:2321:1:2321
tram=yes
wheelchair=yes
id=node/130554129</desc></wpt><wpt lat="52.4059101" lon="9.7994387"><name>Noltemeyerbrücke</name><desc>name=Noltemeyerbrücke
network=Großraum-Verkehr Hannover
network:short=GVH
network:wikidata=Q1549516
operator=Überlandwerke und Straßenbahnen Hannover
operator:short=ÜSTRA
operator:wikidata=Q265625
public_transport=stop_position
railway=tram_stop
ref:IFOPT=de:03241:2171:5:2172
tram=yes
wheelchair=limited
id=node/130554148</desc></wpt><wpt lat="52.4003189" lon="9.7819852"><name>Spannhagengarten</name><desc>name=Spannhagengarten
network=Großraum-Verkehr Hannover
network:short=GVH
network:wikidata=Q1549516
operator=Überlandwerke und Straßenbahnen Hannover
operator:short=ÜSTRA
operator:wikidata=Q265625
public_transport=stop_position
railway=tram_stop
ref:IFOPT=de:03241:2151:4:2152
tram=yes
wheelchair=yes
id=node/130554165</desc></wpt><wpt lat="52.4092084" lon="9.8167563"><name>Paracelsusweg</name><desc>name=Paracelsusweg
network=Großraum-Verkehr Hannover
network:short=GVH
network:wikidata=Q1549516
old_name=Lahe
operator=Überlandwerke und Straßenbahnen Hannover
operator:short=ÜSTRA
operator:wikidata=Q265625
public_transport=stop_position
railway=tram_stop
ref:IFOPT=de:03241:2301:1:2301
tram=yes
wheelchair=yes
id=node/130554168</desc></wpt><wpt lat="52.3977174" lon="9.7723344"><name>Pelikanstraße</name><desc>name=Pelikanstraße
network=Großraum-Verkehr Hannover
network:short=GVH
network:wikidata=Q1549516
operator=Überlandwerke und Straßenbahnen Hannover
operator:short=ÜSTRA
operator:wikidata=Q265625
public_transport=stop_position
railway=tram_stop
ref:IFOPT=de:03241:2141:1:2142
tram=yes
wheelchair=yes
id=node/131992780</desc></wpt><wpt lat="52.3954323" lon="9.7638029"><name>Vier Grenzen</name><desc>name=Vier Grenzen
network=Großraum-Verkehr Hannover
network:short=GVH
network:wikidata=Q1549516
operator=Überlandwerke und Straßenbahnen Hannover
operator:short=ÜSTRA
operator:wikidata=Q265625
public_transport=stop_position
railway=tram_stop
ref:IFOPT=de:03241:2131:7:2132
route_ref=3,7,9
surveillance=outdoor
tram=yes
wheelchair=yes
id=node/131992798</desc></wpt><wpt lat="52.392787" lon="9.7580877"><name>Lortzingstraße</name><desc>name=Lortzingstraße
network=Großraum-Verkehr Hannover
network:short=GVH
network:wikidata=Q1549516
operator=Überlandwerke und Straßenbahnen Hannover
operator:short=ÜSTRA
operator:wikidata=Q265625
public_transport=stop_position
railway=tram_stop
ref:IFOPT=de:03241:2121:6:2122
tram=yes
wheelchair=yes
id=node/131999658</desc></wpt><wpt lat="52.4151955" lon="9.7960672"><name>Bothfeld</name><desc>name=Bothfeld
network=Großraum-Verkehr Hannover
network:short=GVH
network:wikidata=Q1549516
operator=Überlandwerke und Straßenbahnen Hannover
operator:short=ÜSTRA
operator:wikidata=Q265625
public_transport=stop_position
railway=tram_stop
ref:IFOPT=de:03241:2191:1:2191
tactile_paving=no
tram=yes
wheelchair=limited
id=node/132121375</desc></wpt><wpt lat="52.3694348" lon="9.7717911"><name>Freundallee</name><desc>name=Freundallee
network=Großraum-Verkehr Hannover
network:short=GVH
network:wikidata=Q1549516
operator=Überlandwerke und Straßenbahnen Hannover
operator:short=ÜSTRA
operator:wikidata=Q265625
public_transport=stop_position
railway=tram_stop
ref:IFOPT=de:03241:1078:1:1079
tram=yes
wheelchair=yes
id=node/135600425</desc></wpt><wpt lat="52.3811781" lon="9.7667066"><name>Zoo</name><desc>name=Zoo
network=Großraum-Verkehr Hannover
network:short=GVH
network:wikidata=Q1549516
operator=Überlandwerke und Straßenbahnen Hannover
operator:short=ÜSTRA
operator:wikidata=Q265625
public_transport=stop_position
railway=tram_stop
ref:IFOPT=de:03241:2821:1:2821
ref_name=Zoo, Hannover
tram=yes
wheelchair=yes
wheelchair:description=Hochbahnsteig
id=node/137703451</desc></wpt><wpt lat="52.3773201" lon="9.7691802"><name>Hannover Congress Centrum</name><desc>name=Hannover Congress Centrum
network=Großraum-Verkehr Hannover
network:short=GVH
network:wikidata=Q1549516
operator=Überlandwerke und Straßenbahnen Hannover
operator:short=ÜSTRA
operator:wikidata=Q265625
public_transport=stop_position
railway=tram_stop
ref:IFOPT=de:03241:2830:1:2832
ref_name=Congress Centrum, Hannover
shelter=yes
tactile_paving=no
tram=yes
wheelchair=yes
wikidata=Q63351180
id=node/140379513</desc></wpt><wpt lat="52.4310943" lon="9.8462963"><name>Altwarmbüchen / Zentrum</name><desc>name=Altwarmbüchen / Zentrum
network=Großraum-Verkehr Hannover
network:short=GVH
network:wikidata=Q1549516
operator=Überlandwerke und Straßenbahnen Hannover
operator:short=ÜSTRA
operator:wikidata=Q265625
public_transport=stop_position
railway=tram_stop
ref:IFOPT=de:03241:6637:1:6637
short_name=Awb./Zentrum
tram=yes
wheelchair=yes
id=node/140398222</desc></wpt><wpt lat="52.4377783" lon="9.8474104"><name>Altwarmbüchen</name><desc>name=Altwarmbüchen
network=Großraum-Verkehr Hannover
network:short=GVH
network:wikidata=Q1549516
operator=Überlandwerke und Straßenbahnen Hannover
operator:short=ÜSTRA
operator:wikidata=Q265625
public_transport=stop_position
railway=tram_stop
ref:IFOPT=de:03241:6641:1:6641
tram=yes
wheelchair=yes
id=node/140398246</desc></wpt><wpt lat="52.4264539" lon="9.8462978"><name>Altwarmbüchen/Ernst-Grote-Straße</name><desc>name=Altwarmbüchen/Ernst-Grote-Straße
network=Großraum-Verkehr Hannover
network:short=GVH
network:wikidata=Q1549516
operator=Überlandwerke und Straßenbahnen Hannover
operator:short=ÜSTRA
operator:wikidata=Q265625
public_transport=stop_position
railway=tram_stop
ref:IFOPT=de:03241:6689:1:6689
short_name=Awb./Ernst-Grote-Straße
tram=yes
wheelchair=yes
id=node/140400651</desc></wpt><wpt lat="52.4170614" lon="9.8297911"><name>Oldenburger Allee</name><desc>name=Oldenburger Allee
network=Großraum-Verkehr Hannover
network:short=GVH
network:wikidata=Q1549516
operator=Überlandwerke und Straßenbahnen Hannover
operator:short=ÜSTRA
operator:wikidata=Q265625
public_transport=stop_position
railway=tram_stop
ref:IFOPT=de:03241:2325:1:2325
tram=yes
wheelchair=no
id=node/142400255</desc></wpt><wpt lat="52.4170479" lon="9.7726454"><name>Bahnstrift</name><desc>name=Bahnstrift
network=Großraum-Verkehr Hannover
network:short=GVH
network:wikidata=Q1549516
operator=Überlandwerke und Straßenbahnen Hannover
operator:short=ÜSTRA
operator:wikidata=Q265625
public_transport=stop_position
railway=tram_stop
ref:IFOPT=de:03241:2631:5:2632
tram=yes
wheelchair=yes
id=node/142455005</desc></wpt><wpt lat="52.4184978" lon="9.764848"><name>Tempelhofweg</name><desc>name=Tempelhofweg
network=Großraum-Verkehr Hannover
network:short=GVH
network:wikidata=Q1549516
operator=Überlandwerke und Straßenbahnen Hannover
operator:short=ÜSTRA
operator:wikidata=Q265625
public_transport=stop_position
railway=tram_stop
ref:IFOPT=de:03241:2621:6:2622
tram=yes
wheelchair=yes
id=node/142455032</desc></wpt><wpt lat="52.4111048" lon="9.7432475"><name>Reiterstadion</name><desc>name=Reiterstadion
network=Großraum-Verkehr Hannover
network:short=GVH
network:wikidata=Q1549516
operator=Überlandwerke und Straßenbahnen Hannover
operator:short=ÜSTRA
operator:wikidata=Q265625
public_transport=stop_position
railway=tram_stop
ref:IFOPT=de:03241:2581:5:2582
survey:date=2023-09-09
tram=yes
wheelchair=yes
wheelchair:description=Hochbahnsteig
id=node/142455093</desc></wpt><wpt lat="52.4076946" lon="9.800796"><name>Buchholz/Betriebshof</name><desc>description=Betriebshaltestelle
name=Buchholz/Betriebshof
network=Großraum-Verkehr Hannover
network:short=GVH
network:wikidata=Q1549516
operator=Überlandwerke und Straßenbahnen Hannover
operator:short=ÜSTRA
operator:wikidata=Q265625
public_transport=stop_position
railway=tram_stop
ref=2078
tram=yes
wheelchair=no
id=node/146792298</desc></wpt><wpt lat="52.3644713" lon="9.7730571"><name>Kerstingstraße</name><desc>name=Kerstingstraße
network=Großraum-Verkehr Hannover
network:short=GVH
network:wikidata=Q1549516
operator=Überlandwerke und Straßenbahnen Hannover
operator:short=ÜSTRA
operator:wikidata=Q265625
public_transport=stop_position
railway=tram_stop
ref:IFOPT=de:03241:1091:1:1093
tram=yes
wheelchair=yes
id=node/243056167</desc></wpt><wpt lat="52.3626206" lon="9.7774876"><name>Kinderkrankenhaus auf der Bult</name><desc>name=Kinderkrankenhaus auf der Bult
network=Großraum-Verkehr Hannover
network:short=GVH
network:wikidata=Q1549516
operator=Überlandwerke und Straßenbahnen Hannover
operator:short=ÜSTRA
operator:wikidata=Q265625
public_transport=stop_position
railway=tram_stop
ref:IFOPT=de:03241:1761:1:1763
tram=yes
wheelchair=yes
id=node/243056169</desc></wpt><wpt lat="52.3568231" lon="9.792595"><name>Zuschlagstraße</name><desc>name=Zuschlagstraße
network=Großraum-Verkehr Hannover
network:short=GVH
network:wikidata=Q1549516
operator=Überlandwerke und Straßenbahnen Hannover
operator:short=ÜSTRA
operator:wikidata=Q265625
public_transport=stop_position
railway=tram_stop
ref:IFOPT=de:03241:3800:5:1772
tram=yes
wheelchair=yes
id=node/243056543</desc></wpt><wpt lat="52.3541282" lon="9.7967896"><name>Bünteweg/Tierärztliche Hochschule</name><desc>name=Bünteweg/Tierärztliche Hochschule
network=Großraum-Verkehr Hannover
network:short=GVH
network:wikidata=Q1549516
operator=Überlandwerke und Straßenbahnen Hannover
operator:short=ÜSTRA
operator:wikidata=Q265625
public_transport=stop_position
railway=tram_stop
ref:IFOPT=de:03241:3741:5:1776
tram=yes
wheelchair=yes
id=node/243058062</desc></wpt><wpt lat="52.3506022" lon="9.8048019"><name>August-Madsack-Straße</name><desc>name=August-Madsack-Straße
network=Großraum-Verkehr Hannover
network:short=GVH
network:wikidata=Q1549516
operator=Überlandwerke und Straßenbahnen Hannover
operator:short=ÜSTRA
operator:wikidata=Q265625
public_transport=stop_position
railway=tram_stop
ref:IFOPT=de:03241:1779:4:1780
tram=yes
wheelchair=yes
id=node/243058065</desc></wpt><wpt lat="52.4145033" lon="9.7024408"><name>Beneckeallee</name><desc>name=Beneckeallee
network=Großraum-Verkehr Hannover
network:short=GVH
network:wikidata=Q1549516
operator=Überlandwerke und Straßenbahnen Hannover
operator:short=ÜSTRA
operator:wikidata=Q265625
public_transport=stop_position
railway=tram_stop
ref:IFOPT=de:03241:4061:4:4062
tram=yes
wheelchair=yes
id=node/247080322</desc></wpt><wpt lat="52.4197613" lon="9.694165"><name>Mecklenheidestraße</name><desc>name=Mecklenheidestraße
network=Großraum-Verkehr Hannover
network:short=GVH
network:wikidata=Q1549516
operator=Überlandwerke und Straßenbahnen Hannover
operator:short=ÜSTRA
operator:wikidata=Q265625
public_transport=stop_position
railway=tram_stop
ref:IFOPT=de:03241:4091:5:4092
tram=yes
wheelchair=yes
id=node/247080937</desc></wpt><wpt lat="52.4223987" lon="9.6900553"><name>Nordhafen</name><desc>name=Nordhafen
network=Großraum-Verkehr Hannover
network:short=GVH
network:wikidata=Q1549516
operator=Überlandwerke und Straßenbahnen Hannover
operator:short=ÜSTRA
operator:wikidata=Q265625
public_transport=stop_position
railway=tram_stop
ref:IFOPT=de:03241:4101:7:4102
tram=yes
wheelchair=yes
id=node/247081101</desc></wpt><wpt lat="52.419669" lon="9.7586298"><name>Zehlendorfweg</name><desc>name=Zehlendorfweg
network=Großraum-Verkehr Hannover
network:short=GVH
network:wikidata=Q1549516
operator=Überlandwerke und Straßenbahnen Hannover
operator:short=ÜSTRA
operator:wikidata=Q265625
public_transport=stop_position
railway=tram_stop
ref:IFOPT=de:03241:2611:4:2612
tram=yes
wheelchair=yes
id=node/248004234</desc></wpt><wpt lat="52.26791" lon="10.5150388"><name>Inselwall</name><desc>bench=yes
bin=yes
lit=yes
name=Inselwall
network=Verkehrsverbund Region Braunschweig
network:short=VRB
network:wikidata=Q2514431
operator=Braunschweiger Verkehrs-GmbH
operator:short=BSVG
operator:wikidata=Q901999
public_transport=stop_position
railway=tram_stop
tactile_paving=yes
tram=yes
wheelchair=yes
id=node/251043373</desc></wpt><wpt lat="52.3364345" lon="9.6905377"><name>Tresckowstraße</name><desc>name=Tresckowstraße
network=Großraum-Verkehr Hannover
network:short=GVH
network:wikidata=Q1549516
operator=Überlandwerke und Straßenbahnen Hannover
operator:short=ÜSTRA
operator:wikidata=Q265625
public_transport=stop_position
railway=tram_stop
ref:IFOPT=de:03241:5177:1:5177
tram=yes
wheelchair=yes
id=node/251113071</desc></wpt><wpt lat="52.3419922" lon="9.7183932"><name>Wallensteinstraße</name><desc>name=Wallensteinstraße
network=Großraum-Verkehr Hannover
network:short=GVH
network:wikidata=Q1549516
operator=Überlandwerke und Straßenbahnen Hannover
operator:short=ÜSTRA
operator:wikidata=Q265625
public_transport=stop_position
railway=tram_stop
ref:IFOPT=de:03241:971:5:972
tactile_paving=yes
tram=yes
wheelchair=yes
id=node/251113084</desc></wpt><wpt lat="52.4149165" lon="9.7520291"><name>Papenwinkel</name><desc>name=Papenwinkel
network=Großraum-Verkehr Hannover
network:short=GVH
network:wikidata=Q1549516
operator=Überlandwerke und Straßenbahnen Hannover
operator:short=ÜSTRA
operator:wikidata=Q265625
public_transport=stop_position
railway=tram_stop
ref:IFOPT=de:03241:2601:3:2602
tactile_paving=yes
tram=yes
wheelchair=yes
wheelchair:description=Hochbahnsteig
id=node/251113101</desc></wpt><wpt lat="52.3770793" lon="9.6897188"><name>Harenberger Straße</name><desc>name=Harenberger Straße
network=Großraum-Verkehr Hannover
network:short=GVH
network:wikidata=Q1549516
operator=Überlandwerke und Straßenbahnen Hannover
operator:short=ÜSTRA
operator:wikidata=Q265625
public_transport=stop_position
railway=tram_stop
ref:IFOPT=de:03241:521
shelter=yes
tactile_paving=no
tram=yes
wheelchair=no
wheelchair:description=Tiefbahnsteig
id=node/252850676</desc></wpt><wpt lat="52.3609113" lon="9.6928463"><name>Bauweg</name><desc>name=Bauweg
network=Großraum-Verkehr Hannover
network:short=GVH
network:wikidata=Q1549516
operator=Überlandwerke und Straßenbahnen Hannover
operator:short=ÜSTRA
operator:wikidata=Q265625
public_transport=stop_position
railway=tram_stop
ref:IFOPT=de:03241:651:4:652
tram=yes
wheelchair=yes
wheelchair:description=Hochbahnsteig
id=node/252973791</desc></wpt><wpt lat="52.360181" lon="9.6860499"><name>Körtingsdorfer Weg</name><desc>name=Körtingsdorfer Weg
network=Großraum-Verkehr Hannover
network:short=GVH
network:wikidata=Q1549516
operator=Überlandwerke und Straßenbahnen Hannover
operator:short=ÜSTRA
operator:wikidata=Q265625
public_transport=stop_position
railway=tram_stop
ref:IFOPT=de:03241:661:4:662
tram=yes
wheelchair=yes
wheelchair:description=Hochbahnsteig
id=node/252973802</desc></wpt><wpt lat="52.3583936" lon="9.8584326"><name>Anderten</name><desc>name=Anderten
network=Großraum-Verkehr Hannover
operator=ÜSTRA Hannoversche Verkehrsbetriebe AG
operator:wikidata=Q265625
public_transport=station
railway=tram_stop
tram=yes
wheelchair=yes
wikidata=Q63350545
id=node/253290836</desc></wpt><wpt lat="52.3695409" lon="9.8080071"><name>Annastift</name><desc>name=Annastift
network=Großraum-Verkehr Hannover
network:short=GVH
network:wikidata=Q1549516
operator=Überlandwerke und Straßenbahnen Hannover
operator:short=ÜSTRA
operator:wikidata=Q265625
public_transport=stop_position
railway=tram_stop
ref:IFOPT=de:03241:3023:1:3023
tactile_paving=yes
tram=yes
wheelchair=yes
id=node/253336329</desc></wpt><wpt lat="52.3656013" lon="9.8131973"><name>Bleekstraße</name><desc>name=Bleekstraße
network=Großraum-Verkehr Hannover
network:short=GVH
network:wikidata=Q1549516
operator=Überlandwerke und Straßenbahnen Hannover
operator:short=ÜSTRA
operator:wikidata=Q265625
public_transport=stop_position
railway=tram_stop
ref:IFOPT=de:03241:3033:1
tram=yes
wheelchair=yes
id=node/253338049</desc></wpt><wpt lat="52.3605508" lon="9.8443911"><name>Ostfeldstraße</name><desc>name=Ostfeldstraße
network=Großraum-Verkehr Hannover
network:short=GVH
network:wikidata=Q1549516
operator=Überlandwerke und Straßenbahnen Hannover
operator:short=ÜSTRA
operator:wikidata=Q265625
public_transport=stop_position
railway=tram_stop
ref:IFOPT=de:03241:3091:1:3092
ref_name=Hannover, Ostfeldstr.
tram=yes
wheelchair=yes
id=node/253339004</desc></wpt><wpt lat="52.3594633" lon="9.8515476"><name>Königsberger Ring</name><desc>designation=Linie 5
name=Königsberger Ring
network=Großraum-Verkehr Hannover
network:short=GVH
network:wikidata=Q1549516
operator=Überlandwerke und Straßenbahnen Hannover
operator:short=ÜSTRA
operator:wikidata=Q265625
public_transport=stop_position
railway=tram_stop
ref:IFOPT=de:03241:3471:1:3474
tactile_paving=yes
tram=yes
wheelchair=yes
id=node/253339391</desc></wpt><wpt lat="52.3477625" lon="9.8121045"><name>Seelhorster Allee</name><desc>name=Seelhorster Allee
network=Großraum-Verkehr Hannover
network:short=GVH
network:wikidata=Q1549516
operator=Überlandwerke und Straßenbahnen Hannover
operator:short=ÜSTRA
operator:wikidata=Q265625
public_transport=stop_position
railway=tram_stop
ref:IFOPT=de:03241:1783:4:1784
tram=yes
wheelchair=yes
id=node/253348397</desc></wpt><wpt lat="52.3456238" lon="9.8201855"><name>Emslandstraße</name><desc>name=Emslandstraße
network=Großraum-Verkehr Hannover
network:short=GVH
network:wikidata=Q1549516
operator=Überlandwerke und Straßenbahnen Hannover
operator:short=ÜSTRA
operator:wikidata=Q265625
public_transport=stop_position
railway=tram_stop
ref:IFOPT=de:03241:1787:5:1788
tram=yes
wheelchair=yes
id=node/253348400</desc></wpt><wpt lat="52.3421724" lon="9.8361974"><name>Feldbuschwende</name><desc>name=Feldbuschwende
network=Großraum-Verkehr Hannover
network:short=GVH
network:wikidata=Q1549516
operator=Überlandwerke und Straßenbahnen Hannover
operator:short=ÜSTRA
operator:wikidata=Q265625
public_transport=stop_position
railway=tram_stop
ref:IFOPT=de:03241:1795:1:1795
tram=yes
wheelchair=yes
id=node/253348634</desc></wpt><wpt lat="52.3387008" lon="9.8334018"><name>Kronsberg</name><desc>name=Kronsberg
network=Großraum-Verkehr Hannover
network:short=GVH
network:wikidata=Q1549516
operator=Überlandwerke und Straßenbahnen Hannover
operator:short=ÜSTRA
operator:wikidata=Q265625
public_transport=stop_position
railway=tram_stop
ref:IFOPT=de:03241:3818:1:1799
tram=yes
wheelchair=yes
id=node/253349368</desc></wpt><wpt lat="52.3342611" lon="9.829959"><name>Krügerskamp</name><desc>name=Krügerskamp
network=Großraum-Verkehr Hannover
network:short=GVH
network:wikidata=Q1549516
operator=Überlandwerke und Straßenbahnen Hannover
operator:short=ÜSTRA
operator:wikidata=Q265625
public_transport=stop_position
railway=tram_stop
ref:IFOPT=de:03241:1803:1:1803
tram=yes
wheelchair=yes
id=node/253349369</desc></wpt><wpt lat="52.3269091" lon="9.8246889"><name>Stockholmer Allee</name><desc>name=Stockholmer Allee
network=Großraum-Verkehr Hannover
network:short=GVH
network:wikidata=Q1549516
operator=Überlandwerke und Straßenbahnen Hannover
operator:short=ÜSTRA
operator:wikidata=Q265625
public_transport=stop_position
railway=tram_stop
ref:IFOPT=de:03241:1807:1:1807
tram=yes
wheelchair=yes
wikidata=Q63351210
id=node/253349373</desc></wpt><wpt lat="52.3220622" lon="9.8218079"><name>Messe/Ost (EXPO-Plaza)</name><desc>name=Messe/Ost (EXPO-Plaza)
network=Großraum-Verkehr Hannover
network:short=GVH
network:wikidata=Q1549516
operator=Überlandwerke und Straßenbahnen Hannover
operator:short=ÜSTRA
operator:wikidata=Q265625
public_transport=stop_position
railway=tram_stop
ref:IFOPT=de:03241:1811:1:1811
tram=yes
wheelchair=yes
id=node/253349377</desc></wpt><wpt lat="52.3420271" lon="9.7100686"><name>Bartold-Knaust-Straße</name><desc>name=Bartold-Knaust-Straße
network=Großraum-Verkehr Hannover
network:short=GVH
network:wikidata=Q1549516
operator=Überlandwerke und Straßenbahnen Hannover
operator:short=ÜSTRA
operator:wikidata=Q265625
public_transport=stop_position
railway=tram_stop
ref:IFOPT=de:03241:981:3:982
tram=yes
wheelchair=yes
id=node/255320650</desc></wpt><wpt lat="52.3469798" lon="9.6695979"><name>Hermann-Ehlers-Allee</name><desc>name=Hermann-Ehlers-Allee
network=Großraum-Verkehr Hannover
network:short=GVH
network:wikidata=Q1549516
operator=Überlandwerke und Straßenbahnen Hannover
operator:short=ÜSTRA
operator:wikidata=Q265625
public_transport=stop_position
railway=tram_stop
ref:IFOPT=de:03241:711:1:711
tram=yes
wheelchair=no
wheelchair:description=Tiefbahnsteig
id=node/255541134</desc></wpt><wpt lat="52.3522946" lon="9.7223481"><name>Bahnhof Linden/Fischerhof</name><desc>name=Bahnhof Linden/Fischerhof
network=Großraum-Verkehr Hannover
network:short=GVH
network:wikidata=Q1549516
operator=Überlandwerke und Straßenbahnen Hannover
operator:short=ÜSTRA
operator:wikidata=Q265625
public_transport=stop_position
railway=tram_stop
ref:IFOPT=de:03241:841:2:844
tactile_paving=yes
tram=yes
wheelchair=yes
id=node/256838758</desc></wpt><wpt lat="52.3665511" lon="9.7143055"><name>Lindener Marktplatz</name><desc>name=Lindener Marktplatz
network=Großraum-Verkehr Hannover
network:short=GVH
network:wikidata=Q1549516
operator=Überlandwerke und Straßenbahnen Hannover
operator:short=ÜSTRA
operator:wikidata=Q265625
public_transport=stop_position
railway=tram_stop
ref:IFOPT=de:03241:571:4:572
tactile_paving=no
tram=yes
wheelchair=no
id=node/256872003</desc></wpt><wpt lat="52.3277889" lon="9.8045"><name>Messe / Nord</name><desc>name=Messe / Nord
network=Großraum-Verkehr Hannover
network:short=GVH
network:wikidata=Q1549516
operator=Überlandwerke und Straßenbahnen Hannover
operator:short=ÜSTRA
operator:wikidata=Q265625
public_transport=stop_position
railway=tram_stop
ref:IFOPT=de:03241:1421:1:1421
tram=yes
wheelchair=yes
wikidata=Q63345434
id=node/258646609</desc></wpt><wpt lat="52.3351857" lon="9.7915229"><name>Stadtfriedhof Seelhorst</name><desc>name=Stadtfriedhof Seelhorst
network=Großraum-Verkehr Hannover
network:short=GVH
network:wikidata=Q1549516
operator=Überlandwerke und Straßenbahnen Hannover
operator:short=ÜSTRA
operator:wikidata=Q265625
public_transport=stop_position
railway=tram_stop
ref:IFOPT=de:03241:1401:5:1402
tram=yes
wheelchair=yes
wikidata=Q63345420
id=node/258646697</desc></wpt><wpt lat="52.3348746" lon="9.7974362"><name>Am Mittelfelde</name><desc>name=Am Mittelfelde
network=Großraum-Verkehr Hannover
network:short=GVH
network:wikidata=Q1549516
operator=Überlandwerke und Straßenbahnen Hannover
operator:short=ÜSTRA
operator:wikidata=Q265625
public_transport=stop_position
railway=tram_stop
ref:IFOPT=de:03241:1411:6:1412
tram=yes
wheelchair=yes
wikidata=Q63345433
id=node/258646701</desc></wpt><wpt lat="52.3111055" lon="9.7965918"><name>Laatzen/aquaLaatzium</name><desc>name=Laatzen/aquaLaatzium
network=Großraum-Verkehr Hannover
network:short=GVH
network:wikidata=Q1549516
operator=Überlandwerke und Straßenbahnen Hannover
operator:short=ÜSTRA
operator:wikidata=Q265625
public_transport=stop_position
railway=tram_stop
ref:IFOPT=de:03241:1501:1:1502
tram=yes
wheelchair=yes
id=node/259032026</desc></wpt><wpt lat="52.3069514" lon="9.7998654"><name>Laatzen/Krankenhaus</name><desc>name=Laatzen/Krankenhaus
network=Großraum-Verkehr Hannover
network:short=GVH
network:wikidata=Q1549516
network:wikipedia=de:Großraum-Verkehr Hannover
operator=Überlandwerke und Straßenbahnen Hannover
operator:short=ÜSTRA
operator:wikidata=Q265625
operator:wikipedia=de:Üstra Hannoversche Verkehrsbetriebe
public_transport=stop_position
railway=tram_stop
ref:IFOPT=de:03241:1511:1:1512
tram=yes
wheelchair=yes
id=node/259032028</desc></wpt><wpt lat="52.2997337" lon="9.8081683"><name>Laatzen/Ginsterweg</name><desc>name=Laatzen/Ginsterweg
network=Großraum-Verkehr Hannover
network:short=GVH
network:wikidata=Q1549516
operator=Überlandwerke und Straßenbahnen Hannover
operator:short=ÜSTRA
operator:wikidata=Q265625
public_transport=stop_position
railway=tram_stop
ref:IFOPT=de:03241:1531:1:1532
tram=yes
wheelchair=yes
id=node/259032300</desc></wpt><wpt lat="52.3028022" lon="9.8160765"><name>Laatzen</name><desc>name=Laatzen
network=Großraum-Verkehr Hannover
network:short=GVH
network:wikidata=Q1549516
network:wikipedia=de:Großraum-Verkehr Hannover
operator=Überlandwerke und Straßenbahnen Hannover
operator:short=ÜSTRA
operator:wikidata=Q265625
public_transport=stop_position
railway=tram_stop
ref:IFOPT=de:03241:1611:4:1612
tram=yes
wheelchair=yes
id=node/259585190</desc></wpt><wpt lat="52.2975221" lon="9.8176357"><name>Laatzen/Rethener Winkel</name><desc>name=Laatzen/Rethener Winkel
network=Großraum-Verkehr Hannover
network:short=GVH
network:wikidata=Q1549516
operator=Überlandwerke und Straßenbahnen Hannover
operator:short=ÜSTRA
operator:wikidata=Q265625
public_transport=stop_position
railway=tram_stop
ref:IFOPT=de:03241:1621:1:1621
tram=yes
wheelchair=no
id=node/259585221</desc></wpt><wpt lat="52.257006" lon="10.5331244"><name>Campestraße</name><desc>local_ref=B
name=Campestraße
network=Verkehrsverbund Region Braunschweig
operator=Braunschweiger Verkehrs-GmbH;Reisebüro Schmidt
public_transport=stop_position
railway=tram_stop
tram=yes
id=node/269928558</desc></wpt><wpt lat="52.416208" lon="9.6336948"><name>Wissenschaftspark Marienwerder</name><desc>name=Wissenschaftspark Marienwerder
network=Großraum-Verkehr Hannover
network:short=GVH
network:wikidata=Q1549516
operator=ÜSTRA
operator:wikidata=Q265625
public_transport=stop_position
railway=tram_stop
ref:IFOPT=de:03241:4399:6:4400
tram=yes
wheelchair=yes
id=node/287015667</desc></wpt><wpt lat="52.2665611" lon="10.5195725"><name>Alte Waage</name><desc>local_ref=A
name=Alte Waage
network=Verkehrsverbund Region Braunschweig
network:short=VRB
network:wikidata=Q2514431
operator=Braunschweiger Verkehrs-GmbH
operator:short=BSVG
operator:wikidata=Q901999
public_transport=stop_position
railway=tram_stop
tram=yes
wheelchair=yes
id=node/293898731</desc></wpt><wpt lat="52.2691077" lon="10.5292695"><name>Theaterwall</name><desc>local_ref=A
name=Theaterwall
network=Verkehrsverbund Region Braunschweig
network:short=VRB
network:wikidata=Q2514431
operator=Braunschweiger Verkehrs-GmbH
operator:short=BSVG
operator:wikidata=Q901999
public_transport=stop_position
railway=tram_stop
tram=yes
wheelchair=limited
id=node/294609120</desc></wpt><wpt lat="52.4140365" lon="9.6249073"><name>Pascalstraße</name><desc>name=Pascalstraße
network=Großraum-Verkehr Hannover
network:short=GVH
network:wikidata=Q1549516
operator=Überlandwerke und Straßenbahnen Hannover
operator:short=ÜSTRA
operator:wikidata=Q265625
public_transport=stop_position
railway=tram_stop
ref:IFOPT=de:03241:4403:4:4404
tram=yes
wheelchair=yes
id=node/297578913</desc></wpt><wpt lat="52.4146688" lon="9.6672537"><name>Stöcken</name><desc>name=Stöcken
network=Großraum-Verkehr Hannover
network:short=GVH
network:wikidata=Q1549516
operator=Überlandwerke und Straßenbahnen Hannover
operator:short=ÜSTRA
operator:wikidata=Q265625
public_transport=stop_position
railway=tram_stop
ref:IFOPT=de:03241:4380:1:4381
tram=yes
wheelchair=yes
id=node/297600769</desc></wpt><wpt lat="52.2665054" lon="10.5207703"><name>Alte Waage</name><desc>local_ref=B
name=Alte Waage
network=Verkehrsverbund Region Braunschweig
network:short=VRB
network:wikidata=Q2514431
operator=Braunschweiger Verkehrs-GmbH
operator:short=BSVG
operator:wikidata=Q901999
public_transport=stop_position
railway=tram_stop
tram=yes
wheelchair=yes
id=node/297653552</desc></wpt><wpt lat="52.2287719" lon="10.5314151"><name>Sachsendamm</name><desc>local_ref=B
name=Sachsendamm
network=Verkehrsverbund Region Braunschweig
network:short=VRB
network:wikidata=Q2514431
operator=Braunschweiger Verkehrs-GmbH
operator:short=BSVG
operator:wikidata=Q901999
public_transport=stop_position
railway=tram_stop
tram=yes
id=node/306507753</desc></wpt><wpt lat="52.3067408" lon="10.5136057"><name>Hansestraße Ost</name><desc>local_ref=A
name=Hansestraße Ost
network=Verkehrsverbund Region Braunschweig
operator=Braunschweiger Verkehrs-GmbH
public_transport=stop_position
railway=tram_stop
tram=yes
wheelchair=yes
id=node/333148448</desc></wpt><wpt lat="52.3078233" lon="10.5133277"><name>Hansestraße Ost</name><desc>local_ref=B
name=Hansestraße Ost
network=Verkehrsverbund Region Braunschweig
operator=Braunschweiger Verkehrs-GmbH
public_transport=stop_position
railway=tram_stop
tram=yes
wheelchair=yes
id=node/333148451</desc></wpt><wpt lat="52.4128096" lon="9.7981378"><name>Bothfelder Kirchweg</name><desc>name=Bothfelder Kirchweg
network=Großraum-Verkehr Hannover
network:short=GVH
network:wikidata=Q1549516
old_name=Bothfeld/Kirche
operator=Überlandwerke und Straßenbahnen Hannover
operator:short=ÜSTRA
operator:wikidata=Q265625
public_transport=stop_position
railway=tram_stop
ref:IFOPT=de:03241:2181:1
tactile_paving=no
tram=yes
wheelchair=no
id=node/334736164</desc></wpt><wpt lat="52.40994" lon="9.6525828"><name>Lauckerthof</name><desc>name=Lauckerthof
network=Großraum-Verkehr Hannover
network:short=GVH
network:wikidata=Q1549516
operator=Überlandwerke und Straßenbahnen Hannover
operator:short=ÜSTRA
operator:wikidata=Q265625
public_transport=stop_position
railway=tram_stop
ref:IFOPT=de:03241:4393:3:4394
tram=yes
wheelchair=yes
id=node/370139534</desc></wpt><wpt lat="52.4180447" lon="9.6151038"><name>Schönebecker Allee</name><desc>name=Schönebecker Allee
network=Großraum-Verkehr Hannover
network:short=GVH
network:wikidata=Q1549516
operator=Überlandwerke und Straßenbahnen Hannover
operator:short=ÜSTRA
operator:wikidata=Q265625
public_transport=stop_position
railway=tram_stop
ref:IFOPT=de:03241:4773:4:4774
tram=yes
wheelchair=yes
id=node/370790720</desc></wpt><wpt lat="52.4167143" lon="9.6032947"><name>Auf der Horst/Marshof</name><desc>name=Auf der Horst/Marshof
network=Großraum-Verkehr Hannover
network:short=GVH
network:wikidata=Q1549516
network:wikipedia=de:Großraum-Verkehr Hannover
operator=Überlandwerke und Straßenbahnen Hannover
operator:short=ÜSTRA
operator:wikidata=Q265625
operator:wikipedia=de:Üstra Hannoversche Verkehrsbetriebe
public_transport=stop_position
railway=tram_stop
ref:IFOPT=de:03241:4777:4:4778
tram=yes
wheelchair=yes
id=node/370790721</desc></wpt><wpt lat="52.4175629" lon="9.5966316"><name>Garbsen</name><desc>name=Garbsen
network=Großraum-Verkehr Hannover
network:short=GVH
network:wikidata=Q1549516
operator=Überlandwerke und Straßenbahnen Hannover
operator:short=ÜSTRA
operator:wikidata=Q265625
public_transport=stop_position
railway=tram_stop
ref:IFOPT=de:03241:4779:5:4780
tram=yes
wheelchair=yes
id=node/370790722</desc></wpt><wpt lat="52.3928036" lon="9.848419"><name>Am Forstkamp</name><desc>name=Am Forstkamp
network=Großraum-Verkehr Hannover
network:short=GVH
network:wikidata=Q1549516
operator=Überlandwerke und Straßenbahnen Hannover
operator:short=ÜSTRA
operator:wikidata=Q265625
public_transport=stop_position
railway=tram_stop
ref:IFOPT=de:03241:2431:1:2431
start_date=2014-12-14
tram=yes
wheelchair=yes
id=node/372970386</desc></wpt><wpt lat="52.4120706" lon="9.7495629"><name>Vahrenheider Markt</name><desc>name=Vahrenheider Markt
network=Großraum-Verkehr Hannover
network:short=GVH
network:wikidata=Q1549516
operator=Überlandwerke und Straßenbahnen Hannover
operator:short=ÜSTRA
operator:wikidata=Q265625
public_transport=stop_position
railway=tram_stop
ref:IFOPT=de:03241:2591:4:2592
survey:date=2023-09-09
tactile_paving=yes
tram=yes
wheelchair=yes
id=node/373362282</desc></wpt><wpt lat="52.3474391" lon="9.7239171"><name>Schünemannplatz</name><desc>name=Schünemannplatz
network=Großraum-Verkehr Hannover
network:short=GVH
network:wikidata=Q1549516
operator=Überlandwerke und Straßenbahnen Hannover
operator:short=ÜSTRA
operator:wikidata=Q265625
public_transport=stop_position
railway=tram_stop
ref:IFOPT=de:03241:951:1:952
tactile_paving=yes
tram=yes
wheelchair=yes
id=node/391083820</desc></wpt><wpt lat="52.4374568" lon="9.7469367"><name>Langenhagen/Kurt-Schumacher-Allee</name><desc>name=Langenhagen/Kurt-Schumacher-Allee
network=Großraum-Verkehr Hannover
network:short=GVH
network:wikidata=Q1549516
operator=Überlandwerke und Straßenbahnen Hannover
operator:short=ÜSTRA
operator:wikidata=Q265625
public_transport=stop_position
railway=tram_stop
ref:IFOPT=de:03241:2931:4:2932
tactile_paving=yes
tram=yes
wheelchair=yes
wheelchair:description=Hochbahnsteig
id=node/546972114</desc></wpt><wpt lat="52.3773092" lon="9.769085"><name>Hannover Congress Centrum</name><desc>name=Hannover Congress Centrum
network=Großraum-Verkehr Hannover
network:short=GVH
network:wikidata=Q1549516
operator=Überlandwerke und Straßenbahnen Hannover
operator:short=ÜSTRA
operator:wikidata=Q265625
public_transport=stop_position
railway=tram_stop
ref:IFOPT=de:03241:2830:4:2831
ref_name=Congress Centrum, Hannover
shelter=yes
tactile_paving=no
tram=yes
wheelchair=yes
id=node/551403983</desc></wpt><wpt lat="52.390193" lon="9.8190522"><name>Roderbruch</name><desc>name=Roderbruch
network=Großraum-Verkehr Hannover
network:short=GVH
network:wikidata=Q1549516
operator=Überlandwerke und Straßenbahnen Hannover
operator:short=ÜSTRA
operator:wikidata=Q265625
public_transport=stop_position
railway=tram_stop
ref:IFOPT=de:03241:2881:1:2882
tram=yes
wheelchair=yes
id=node/571268294</desc></wpt><wpt lat="52.3995454" lon="9.8305714"><name>Schierholzstraße</name><desc>name=Schierholzstraße
network=Großraum-Verkehr Hannover
network:short=GVH
network:wikidata=Q1549516
operator=Überlandwerke und Straßenbahnen Hannover
operator:short=ÜSTRA
operator:wikidata=Q265625
public_transport=stop_position
railway=tram_stop
ref:IFOPT=de:03241:2425:1:2425
start_date=2010-12-12
tram=yes
wheelchair=yes
id=node/583231207</desc></wpt><wpt lat="52.3287204" lon="9.7766682"><name>Wiehbergstraße</name><desc>name=Wiehbergstraße
network=Großraum-Verkehr Hannover
network:short=GVH
network:wikidata=Q1549516
operator=Überlandwerke und Straßenbahnen Hannover
operator:short=ÜSTRA
operator:wikidata=Q265625
public_transport=stop_position
railway=tram_stop
ref:IFOPT=de:03241:1431:1:1432
tactile_paving=yes
tram=yes
wheelchair=yes
id=node/585212987</desc></wpt><wpt lat="52.2944985" lon="9.813346"><name>Rethen/Steinfeld</name><desc>name=Rethen/Steinfeld
network=Großraum-Verkehr Hannover
network:short=GVH
network:wikidata=Q1549516
operator=Überlandwerke und Straßenbahnen Hannover
operator:short=ÜSTRA
operator:wikidata=Q265625
public_transport=stop_position
railway=tram_stop
ref:IFOPT=de:03241:1541:1:1541
tram=yes
wheelchair=no
id=node/599513554</desc></wpt><wpt lat="52.274834" lon="10.5217413"><name>Hamburger Straße</name><desc>local_ref=B
name=Hamburger Straße
network=Verkehrsverbund Region Braunschweig
network:short=VRB
network:wikidata=Q2514431
operator=Braunschweiger Verkehrs-GmbH
operator:short=BSVG
operator:wikidata=Q901999
public_transport=stop_position
railway=tram_stop
tram=yes
id=node/655300197</desc></wpt><wpt lat="52.4229357" lon="9.8403334"><name>Altwarmbüchen/Opelstraße</name><desc>name=Altwarmbüchen/Opelstraße
network=Großraum-Verkehr Hannover
network:short=GVH
network:wikidata=Q1549516
operator=Überlandwerke und Straßenbahnen Hannover
operator:short=ÜSTRA
operator:wikidata=Q265625
public_transport=stop_position
railway=tram_stop
ref:IFOPT=de:03241:6683:1:6683
short_name=Awb./Opelstraße
tram=yes
wheelchair=yes
id=node/656341500</desc></wpt><wpt lat="52.4050389" lon="9.6604069"><name>Freudenthalstraße</name><desc>name=Freudenthalstraße
network=Großraum-Verkehr Hannover
network:short=GVH
not:network:wikidata=Q1549516
operator=ÜSTRA
operator:wikidata=Q265625
public_transport=stop_position
railway=tram_stop
ref:IFOPT=de:03241:4353:4:4354
tram=yes
wheelchair=yes
id=node/665663249</desc></wpt><wpt lat="52.4139828" lon="9.6673668"><name>Stöcken</name><desc>name=Stöcken
network=Großraum-Verkehr Hannover
network:short=GVH
network:wikidata=Q1549516
operator=ÜSTRA
operator:wikidata=Q265625
public_transport=stop_position
railway=tram_stop
ref:IFOPT=de:03241:4380:7:4380
tram=yes
wheelchair=yes
id=node/706531707</desc></wpt><wpt lat="52.2551376" lon="10.5563439"><name>Hauptfriedhof</name><desc>bus=yes
local_ref=B
name=Hauptfriedhof
network=Verkehrsverbund Region Braunschweig
network:short=VRB
network:wikidata=Q2514431
operator=Braunschweiger Verkehrs-GmbH
operator:short=BSVG
operator:wikidata=Q901999
public_transport=stop_position
railway=tram_stop
tram=yes
id=node/765824928</desc></wpt><wpt lat="52.2668989" lon="10.5153269"><name>Radeklint</name><desc>local_ref=B
name=Radeklint
network=Verkehrsverbund Region Braunschweig
network:short=VRB
network:wikidata=Q2514431
operator=Braunschweiger Verkehrs-GmbH
operator:short=BSVG
operator:wikidata=Q901999
public_transport=stop_position
railway=tram_stop
tram=yes
wheelchair=yes
id=node/813301343</desc></wpt><wpt lat="52.3949943" lon="9.8424952"><name>Kafkastraße</name><desc>name=Kafkastraße
network=Großraum-Verkehr Hannover
network:short=GVH
network:wikidata=Q1549516
operator=Überlandwerke und Straßenbahnen Hannover
operator:short=ÜSTRA
operator:wikidata=Q265625
public_transport=stop_position
railway=tram_stop
ref:IFOPT=de:03241:2487:1:1
start_date=2014-12-14
tram=yes
wheelchair=yes
id=node/920384818</desc></wpt><wpt lat="52.3916081" lon="9.8532502"><name>Misburg</name><desc>name=Misburg
network=Großraum-Verkehr Hannover
network:short=GVH
network:wikidata=Q1549516
operator=Überlandwerke und Straßenbahnen Hannover
operator:short=ÜSTRA
operator:wikidata=Q265625
public_transport=stop_position
railway=tram_stop
ref:IFOPT=de:03241:2501:1:2501
start_date=2014-12-14
tram=yes
wheelchair=yes
wikidata=Q63348801
id=node/920384841</desc></wpt><wpt lat="52.3612419" lon="9.8345367"><name>Tiergarten</name><desc>name=Tiergarten
network=Großraum-Verkehr Hannover
network:short=GVH
network:wikidata=Q1549516
operator=Überlandwerke und Straßenbahnen Hannover
operator:short=ÜSTRA
operator:wikidata=Q265625
public_transport=stop_position
railway=tram_stop
ref:IFOPT=de:03241:3081:1:3081
tram=yes
wheelchair=yes
id=node/945055360</desc></wpt><wpt lat="52.2909322" lon="10.5187828"><name>Stadion (Schwarzer Berg)</name><desc>bin=yes
local_ref=B
name=Stadion (Schwarzer Berg)
network=Verkehrsverbund Region Braunschweig
network:short=VRB
network:wikidata=Q2514431
operator=Braunschweiger Verkehrs-GmbH
operator:short=BSVG
operator:wikidata=Q901999
public_transport=stop_position
railway=tram_stop
shelter=yes
tactile_paving=yes
tram=yes
wheelchair=yes
id=node/1010529119</desc></wpt><wpt lat="52.3735886" lon="9.7195082"><name>Glocksee</name><desc>name=Glocksee
network=Großraum-Verkehr Hannover
network:short=GVH
network:wikidata=Q1549516
operator=Überlandwerke und Straßenbahnen Hannover
operator:short=ÜSTRA
operator:wikidata=Q265625
public_transport=stop_position
railway=tram_stop
ref:IFOPT=de:03241:461:1:461
tram=yes
wheelchair=yes
id=node/1029492783</desc></wpt><wpt lat="52.2825015" lon="9.8290237"><name>Rethen/Galgenbergweg</name><desc>name=Rethen/Galgenbergweg
network=Großraum-Verkehr Hannover
network:short=GVH
network:wikidata=Q1549516
operator=Überlandwerke und Straßenbahnen Hannover
operator:short=ÜSTRA
operator:wikidata=Q265625
public_transport=stop_position
railway=tram_stop
ref:IFOPT=de:03241:1651:2:1652
tram=yes
wheelchair=yes
id=node/1041185061</desc></wpt><wpt lat="52.3026822" lon="9.8041251"><name>Laatzen/Neuer Schlag</name><desc>name=Laatzen/Neuer Schlag
network=Großraum-Verkehr Hannover
network:short=GVH
network:wikidata=Q1549516
network:wikipedia=de:Großraum-Verkehr Hannover
operator=Überlandwerke und Straßenbahnen Hannover
operator:short=ÜSTRA
operator:wikidata=Q265625
operator:wikipedia=de:Üstra Hannoversche Verkehrsbetriebe
public_transport=stop_position
railway=tram_stop
ref:IFOPT=de:03241:1521:1:1522
tram=yes
wheelchair=yes
id=node/1105781203</desc></wpt><wpt lat="52.3279977" lon="9.8027966"><name>Messe / Nord</name><desc>name=Messe / Nord
network=Großraum-Verkehr Hannover
network:short=GVH
network:wikidata=Q1549516
operator=Überlandwerke und Straßenbahnen Hannover
operator:short=ÜSTRA
operator:wikidata=Q265625
public_transport=stop_position
railway=tram_stop
tram=yes
wheelchair=yes
wikidata=Q63345434
id=node/1112949251</desc></wpt><wpt lat="52.3220455" lon="9.8218603"><name>Messe/Ost (EXPO-Plaza)</name><desc>name=Messe/Ost (EXPO-Plaza)
network=Großraum-Verkehr Hannover
network:short=GVH
network:wikidata=Q1549516
operator=Überlandwerke und Straßenbahnen Hannover
operator:short=ÜSTRA
operator:wikidata=Q265625
public_transport=stop_position
railway=tram_stop
tram=yes
wheelchair=yes
id=node/1128266014</desc></wpt><wpt lat="52.3386905" lon="9.833461"><name>Kronsberg</name><desc>name=Kronsberg
network=Großraum-Verkehr Hannover
network:short=GVH
network:wikidata=Q1549516
operator=Überlandwerke und Straßenbahnen Hannover
operator:short=ÜSTRA
operator:wikidata=Q265625
public_transport=stop_position
railway=tram_stop
ref:IFOPT=de:03241:3818:6:1800
tram=yes
wheelchair=yes
id=node/1128323477</desc></wpt><wpt lat="52.3435493" lon="9.7251785"><name>Beekestraße</name><desc>name=Beekestraße
network=Großraum-Verkehr Hannover
network:short=GVH
network:wikidata=Q1549516
operator=Überlandwerke und Straßenbahnen Hannover
operator:short=ÜSTRA
operator:wikidata=Q265625
public_transport=stop_position
railway=tram_stop
ref:IFOPT=de:03241:961:1:962
tactile_paving=yes
tram=yes
wheelchair=yes
id=node/1161699391</desc></wpt><wpt lat="52.3378294" lon="9.7712076"><name>Döhren/Bhf</name><desc>local_ref=1379
name=Döhren/Bhf
network=Großraum-Verkehr Hannover
network:short=GVH
network:wikidata=Q1549516
operator=Überlandwerke und Straßenbahnen Hannover
operator:short=ÜSTRA
operator:wikidata=Q265625
public_transport=stop_position
railway=tram_stop
tram=yes
wheelchair=no
id=node/1171983199</desc></wpt><wpt lat="52.4155669" lon="9.7808292"><name>Alte Heide</name><desc>name=Alte Heide
network=Großraum-Verkehr Hannover
network:short=GVH
network:wikidata=Q1549516
operator=Überlandwerke und Straßenbahnen Hannover
operator:short=ÜSTRA
operator:wikidata=Q265625
public_transport=stop_position
railway=tram_stop
ref:IFOPT=de:03241:2641:1:2641
survey:date=2023-09-02
tram=yes
wheelchair=yes
id=node/1343306077</desc></wpt><wpt lat="52.2457226" lon="10.489143"><name>Am Queckenberg</name><desc>name=Am Queckenberg
network=Verkehrsverbund Region Braunschweig
network:short=VRB
network:wikidata=Q2514431
operator=Braunschweiger Verkehrs-GmbH
operator:short=BSVG
operator:wikidata=Q901999
public_transport=stop_position
railway=tram_stop
tram=yes
wheelchair=yes
id=node/1360994525</desc></wpt><wpt lat="52.4315791" lon="9.8007653"><name>Fasanenkrug</name><desc>name=Fasanenkrug
network=Großraum-Verkehr Hannover
network:short=GVH
network:wikidata=Q1549516
operator=Überlandwerke und Straßenbahnen Hannover
operator:short=ÜSTRA
operator:wikidata=Q265625
public_transport=stop_position
railway=tram_stop
ref:IFOPT=de:03241:2221:3:2222
tram=yes
wheelchair=no
id=node/1390113073</desc></wpt><wpt lat="52.431533" lon="9.8010214"><name>Fasanenkrug</name><desc>name=Fasanenkrug
network=Großraum-Verkehr Hannover
network:short=GVH
network:wikidata=Q1549516
operator=Überlandwerke und Straßenbahnen Hannover
operator:short=ÜSTRA
operator:wikidata=Q265625
public_transport=stop_position
railway=tram_stop
ref:IFOPT=de:03241:2221:1:2221
tram=yes
wheelchair=no
id=node/1390113087</desc></wpt><wpt lat="52.397372" lon="9.6747809"><name>Bahnhof Leinhausen</name><desc>name=Bahnhof Leinhausen
network=Großraum-Verkehr Hannover
network:short=GVH
network:wikidata=Q1549516
old_name=Leinhausen / Bahnhof
operator=Überlandwerke und Straßenbahnen Hannover
operator:short=ÜSTRA
operator:wikidata=Q265625
public_transport=stop_position
railway=tram_stop
ref:IFOPT=de:03241:4331:2:4332
tactile_paving=yes
tram=yes
wheelchair=yes
id=node/1501169264</desc></wpt><wpt lat="52.4038664" lon="9.8252274"><name>Pappelwiese</name><desc>name=Pappelwiese
network=Großraum-Verkehr Hannover
network:short=GVH
network:wikidata=Q1549516
operator=Überlandwerke und Straßenbahnen Hannover
operator:short=ÜSTRA
operator:wikidata=Q265625
public_transport=stop_position
railway=tram_stop
ref:IFOPT=de:03241:2311:1:2313
start_date=2010-12-12
tram=yes
wheelchair=yes
id=node/1562735268</desc></wpt><wpt lat="52.4379344" lon="9.7410733"><name>Langenhagen/Zentrum</name><desc>name=Langenhagen/Zentrum
network=Großraum-Verkehr Hannover
network:short=GVH
network:wikidata=Q1549516
operator=Überlandwerke und Straßenbahnen Hannover
operator:short=ÜSTRA
operator:wikidata=Q265625
public_transport=stop_position
railway=tram_stop
ref:IFOPT=de:03241:2921
tram=yes
wheelchair=yes
wheelchair:description=Hochbahnsteig
id=node/1614245161</desc></wpt><wpt lat="52.4380857" lon="9.7339417"><name>Langenhagen/Langenforther Platz</name><desc>name=Langenhagen/Langenforther Platz
network=Großraum-Verkehr Hannover
network:short=GVH
network:wikidata=Q1549516
network:wikipedia=de:Großraum-Verkehr Hannover
operator=Überlandwerke und Straßenbahnen Hannover
operator:short=ÜSTRA
operator:wikidata=Q265625
operator:wikipedia=de:Üstra Hannoversche Verkehrsbetriebe
public_transport=stop_position
railway=tram_stop
ref:IFOPT=de:03241:2911:8:2912
tram=yes
wheelchair=yes
wheelchair:description=Hochbahnsteig
id=node/1614249114</desc></wpt><wpt lat="52.3909968" lon="9.7347117"><name>Vahrenwalder Platz</name><desc>name=Vahrenwalder Platz
network=Großraum-Verkehr Hannover
network:short=GVH
network:wikidata=Q1549516
operator=Überlandwerke und Straßenbahnen Hannover
operator:short=ÜSTRA
operator:wikidata=Q265625
public_transport=stop_position
railway=tram_stop
ref:IFOPT=de:03241:341:5:342
tactile_paving=yes
tram=yes
wheelchair=yes
wheelchair:description=Hochbahnsteig
id=node/1635598534</desc></wpt><wpt lat="52.3730926" lon="9.7247286"><name>Goetheplatz</name><desc>name=Goetheplatz
network=Großraum-Verkehr Hannover
network:short=GVH
network:wikidata=Q1549516
operator=Überlandwerke und Straßenbahnen Hannover
operator:short=ÜSTRA
operator:wikidata=Q265625
public_transport=stop_position
railway=tram_stop
ref:IFOPT=de:03241:421:3:422
route_ref=10;17
tram=yes
wheelchair=yes
id=node/1635648466</desc></wpt><wpt lat="52.3771083" lon="9.664763"><name>Ahlem</name><desc>name=Ahlem
network=Großraum-Verkehr Hannover
network:short=GVH
network:wikidata=Q1549516
operator=Überlandwerke und Straßenbahnen Hannover
operator:short=ÜSTRA
operator:wikidata=Q265625
public_transport=stop_position
railway=tram_stop
ref:IFOPT=de:03241:537
tram=yes
wheelchair=yes
id=node/1635653139</desc></wpt><wpt lat="52.3773111" lon="9.6841787"><name>Brunnenstraße</name><desc>name=Brunnenstraße
network=Großraum-Verkehr Hannover
network:short=GVH
network:wikidata=Q1549516
old_name=Limmer / Schleuse
operator=Überlandwerke und Straßenbahnen Hannover
operator:short=ÜSTRA
operator:wikidata=Q265625
public_transport=stop_position
railway=tram_stop
ref:IFOPT=de:03241:531
tram=yes
wheelchair=yes
id=node/1635712745</desc></wpt><wpt lat="52.377414" lon="9.6735719"><name>Ehrhartstraße</name><desc>name=Ehrhartstraße
network=Großraum-Verkehr Hannover
network:short=GVH
network:wikidata=Q1549516
operator=Überlandwerke und Straßenbahnen Hannover
operator:short=ÜSTRA
operator:wikidata=Q265625
public_transport=stop_position
railway=tram_stop
ref:IFOPT=de:03241:535
tram=yes
wheelchair=yes
wheelchair:description=Hochbahnsteig
id=node/1635712806</desc></wpt><wpt lat="52.3936262" lon="9.6839956"><name>Herrenhäuser Markt</name><desc>name=Herrenhäuser Markt
network=Großraum-Verkehr Hannover
network:short=GVH
network:wikidata=Q1549516
operator=Überlandwerke und Straßenbahnen Hannover
operator:short=ÜSTRA
operator:wikidata=Q265625
public_transport=stop_position
railway=tram_stop
ref:IFOPT=de:03241:4321:1:4322
tram=yes
wheelchair=yes
id=node/1760435070</desc></wpt><wpt lat="52.2525139" lon="10.5571713"><name>BSVG Tram-Depot</name><desc>lit=yes
name=BSVG Tram-Depot
network=Verkehrsverbund Region Braunschweig
network:short=VRB
network:wikidata=Q2514431
old_name=Braunschweiger Verkehrs-GmbH
operator=Braunschweiger Verkehrs-GmbH
operator:short=BSVG
operator:wikidata=Q901999
public_transport=stop_position
railway=tram_stop
shelter=yes
tactile_paving=yes
tram=yes
wheelchair=yes
id=node/1778343306</desc></wpt><wpt lat="52.3413809" lon="9.7020529"><name>Am Sauerwinkel</name><desc>name=Am Sauerwinkel
network=Großraum-Verkehr Hannover
network:short=GVH
network:wikidata=Q1549516
operator=Überlandwerke und Straßenbahnen Hannover
operator:short=ÜSTRA
operator:wikidata=Q265625
public_transport=stop_position
railway=tram_stop
ref:IFOPT=de:03241:991:2:992
tram=yes
wheelchair=yes
id=node/1805284646</desc></wpt><wpt lat="52.400302" lon="9.6690007"><name>Stadtfriedhof Stöcken</name><desc>name=Stadtfriedhof Stöcken
network=Großraum-Verkehr Hannover
network:short=GVH
network:wikidata=Q1549516
operator=ÜSTRA
operator:wikidata=Q265625
public_transport=stop_position
railway=tram_stop
ref:IFOPT=de:03241:4341:1:4341
tram=yes
wheelchair=yes
id=node/1828926022</desc></wpt><wpt lat="52.4050192" lon="9.6603735"><name>Freudenthalstraße</name><desc>name=Freudenthalstraße
network=Großraum-Verkehr Hannover
network:short=GVH
network:wikidata=Q1549516
operator=ÜSTRA
operator:wikidata=Q265625
public_transport=stop_position
railway=tram_stop
ref:IFOPT=de:03241:4353:1:4353
tram=yes
wheelchair=yes
id=node/1828926090</desc></wpt><wpt lat="52.3973254" lon="9.6747215"><name>Bahnhof Leinhausen</name><desc>name=Bahnhof Leinhausen
network=Großraum-Verkehr Hannover
network:short=GVH
network:wikidata=Q1549516
old_name=Leinhausen / Bahnhof
operator=Überlandwerke und Straßenbahnen Hannover
operator:short=ÜSTRA
operator:wikidata=Q265625
public_transport=stop_position
railway=tram_stop
ref:IFOPT=de:03241:4331:2:4331
tactile_paving=yes
tram=yes
wheelchair=yes
id=node/1828974205</desc></wpt><wpt lat="52.4166812" lon="9.6032823"><name>Auf der Horst/Marshof</name><desc>name=Auf der Horst/Marshof
network=Großraum-Verkehr Hannover
network:short=GVH
network:wikidata=Q1549516
network:wikipedia=de:Großraum-Verkehr Hannover
operator=Überlandwerke und Straßenbahnen Hannover
operator:short=ÜSTRA
operator:wikidata=Q265625
operator:wikipedia=de:Üstra Hannoversche Verkehrsbetriebe
public_transport=stop_position
railway=tram_stop
ref:IFOPT=de:03241:4777:1:4777
tram=yes
wheelchair=yes
id=node/1829047815</desc></wpt>