<gpx xmlns="http://www.topografix.com/GPX/1/1" xmlns:xsi="http://www.w3.org/2001/XMLSchema-instance" xsi:schemaLocation="http://www.topografix.com/GPX/1/1 http://www.topografix.com/GPX/1/1/gpx.xsd" version="1.1" creator="OverpassTurboBatch"><metadata/><wpt lat="52.3944579" lon="13.1272716"><name>Griebnitzsee</name><desc>contact:phone=+49 30 297 43333
departures_board=timetable
light_rail=yes
name=Griebnitzsee
network=Verkehrsverbund Berlin-Brandenburg
network:short=VBB
network:wikidata=Q315451
official_name=Potsdam Griebnitzsee S-Bahn
operator=DB InfraGO
public_transport=station
railway=station
railway:ref=BGRI
railway:station_category=4
station=light_rail
train=yes
uic_name=Potsdam Griebnitzsee
uic_ref=8080530
website=https://sbahn.berlin/fahren/bahnhofsuebersicht/griebnitzsee/
wheelchair=yes
wikidata=Q315133
wikipedia=de:Bahnhof Potsdam Griebnitzsee
id=node/27318370</desc></wpt><wpt lat="52.3825232" lon="13.1220475"><name>Potsdam Medienstadt Babelsberg</name><desc>departures_board=timetable
name=Potsdam Medienstadt Babelsberg
network=Verkehrsverbund Berlin-Brandenburg
network:short=VBB
network:wikidata=Q315451
old_name:1879-2000=Drewitz
operator=DB InfraGO
public_transport=station
railway=station
railway:ref=BDW
railway:ref:parent=BRC
railway:station_category=6
start_date=1879-05-15
train=yes
uic_ref=8011430
website=https://www.bahnhof.de/potsdam-medienstadt-babelsberg
wheelchair=yes
wikidata=Q801327
wikipedia=de:Bahnhof Potsdam Medienstadt Babelsberg
id=node/27396840</desc></wpt><wpt lat="52.6753854" lon="13.5919415"><name>Bernau (bei Berlin)</name><desc>departures_board=realtime
departures_board:speech_output=yes
name=Bernau (bei Berlin)
official_name=Bernau (b Berlin)
operator=DB Station&amp;Service AG
public_transport=station
railway=station
railway:ref=BBRN
railway:station_category=3
train=yes
uic_name=Bernau(b Berlin)
uic_ref=8013470
website=http://www.bahnhof.de/#station/17254
wheelchair=yes
wikidata=Q479789
wikipedia=de:Bahnhof Bernau (b Berlin)
id=node/28830153</desc></wpt><wpt lat="52.8340052" lon="13.7977826"><name>Eberswalde Hauptbahnhof</name><desc>addr:city=Eberswalde
addr:housenumber=17
addr:postcode=16225
addr:street=Bahnhofsring
addr:suburb=Eberswalde 1
name=Eberswalde Hauptbahnhof
operator=DB InfraGO AG
public_transport=station
railway=station
railway:ref=WE
railway:station_category=3
ref:station=1444
train=yes
uic_ref=8010093
wheelchair=yes
wheelchair:description=Am besten Fahrten mit Rollstuhl bei der DB Mobiliätszentrale vorher anmelden, dann bekommt man Hilfe beim Ein- und Ausstieg.
wikidata=Q440542
wikipedia=de:Eberswalde Hauptbahnhof
id=node/29366548</desc></wpt><wpt lat="52.8533306" lon="12.4500127"><name>Neustadt (Dosse)</name><desc>name=Neustadt (Dosse)
note="Neustadt (Dosse)" ist die offizielle Betriebsstellenbezeichnung, "Neustadt(Dosse)" die in Fahrplanmedien verwendete Bezeichnung
public_transport=station
railway=station
railway:ref=WNS
railway:station_category=5
train=yes
uic_name=Neustadt(Dosse)
uic_ref=8010248
wheelchair=yes
wikidata=Q19835119
wikipedia=de:Bahnhof Neustadt (Dosse)
id=node/30229471</desc></wpt><wpt lat="52.5597359" lon="13.0894796"><name>Falkensee</name><desc>name=Falkensee
network=Verkehrsverbund Berlin-Brandenburg
network:short=VBB
network:wikidata=Q315451
old_name=Seegefeld
operator=DB InfraGO AG
public_transport=station
railway=station
railway:ref=BFKS
railway:station_category=5
ref:station=1757
start_date=1848
train=yes
wheelchair=yes
wikidata=Q5431918
wikipedia=en:Falkensee railway station
id=node/30230059</desc></wpt><wpt lat="52.4097952" lon="12.9718767"><name>Golm</name><desc>departures_board=realtime
departures_board:speech_output=no
name=Golm
network=Verkehrsverbund Berlin-Brandenburg
network:short=VBB
network:wikidata=Q315451
official_name=Potsdam Wissenschaftspark Golm
operator=DB InfraGO AG
public_transport=station
railway=station
railway:ref=BGOL
railway:station_category=6
ref:station=2178
train=yes
uic_ref=8013481
website=https://www.bahnhof.de/golm
wheelchair=yes
wikidata=Q11825444
wikipedia=de:Bahnhof Golm
id=node/30231539</desc></wpt><wpt lat="52.3945735" lon="13.0136905"><name>Potsdam Park Sanssouci</name><desc>name=Potsdam Park Sanssouci
old_name=Potsdam Wildpark
operator=DB InfraGO AG
public_transport=station
railway=station
railway:ref=BWP
railway:station_category=3
ref:station=5015
train=yes
uic_ref=8010377
website=https://www.bahnhof.de/potsdam-park-sanssouci
wheelchair=yes
wikidata=Q801325
wikipedia=de:Bahnhof Potsdam Park Sanssouci
id=node/30232550</desc></wpt><wpt lat="52.3917908" lon="13.0672397"><name>Potsdam Hauptbahnhof</name><desc>contact:phone=+49 30 297 43333
contact:website=https://sbahn.berlin/fahren/bahnhofsuebersicht/potsdam-hauptbahnhof/
departures_board=realtime
departures_board:speech_output=no
light_rail=yes
name=Potsdam Hauptbahnhof
network=Verkehrsverbund Berlin-Brandenburg
network:short=VBB
network:wikidata=Q315451
official_name=Potsdam Hbf S-Bahn
operator=DB InfraGO
public_transport=station
railway=station
railway:ref=BPDH
railway:station_category=2
shelter=yes
station=light_rail
tactile_paving=yes
train=yes
uic_name=Potsdam Hbf
uic_ref=8012666
wheelchair=yes
wikidata=Q647973
wikipedia=de:Potsdam Hauptbahnhof
id=node/30232718</desc></wpt><wpt lat="52.6886604" lon="13.2886929"><name>Birkenwerder</name><desc>addr:city=Birkenwerder
addr:housenumber=13
addr:postcode=16547
addr:street=Clara-Zetkin-Straße
contact:phone=+49 30 297 43333
contact:website=http://www.s-bahn-berlin.de/fahrplanundnetz/bahnhof/birkenwerder/41
description=S Birkenwerder
light_rail=yes
name=Birkenwerder
network=Verkehrsverbund Berlin-Brandenburg
network:short=VBB
network:wikidata=Q315451
official_name=Birkenwerder (b Berlin) S-Bahn
operator=DB InfraGO AG
platforms=2
public_transport=station
railway=station
railway:ref=BBIW
railway:ref:parent=BBI
railway:station_category=4
ref:station=661
station=light_rail
toilets:wheelchair=yes
train=yes
uic_name=Birkenwerder(b Berlin)
uic_ref=8080190
wheelchair=yes
wikidata=Q2343634
wikipedia=de:Bahnhof Birkenwerder (b Berlin)
id=node/30245150</desc></wpt><wpt lat="52.7448349" lon="13.4662163"><name>Wandlitz</name><desc>name=Wandlitz
public_transport=station
railway=station
railway:ref=BWAZ
train=yes
wheelchair=yes
wikidata=Q78358810
id=node/30248361</desc></wpt><wpt lat="52.9042351" lon="13.537477"><name>Groß Schönebeck</name><desc>name=Groß Schönebeck
network=Verkehrsverbund Berlin-Brandenburg
network:short=VBB
network:wikidata=Q315451
official_name=Groß Schönebeck (Schorfheide)
operator=Niederbarnimer Eisenbahn
public_transport=station
railway=station
railway:ref=BGSK
train=yes
wheelchair=yes
id=node/30268974</desc></wpt><wpt lat="52.3236224" lon="13.1392051"><name>Saarmund</name><desc>check_date=2024-04-04
name=Saarmund
operator=DB InfraGO AG
operator:wikidata=Q122870674
owner=Deutsche Bahn AG
owner:wikidata=Q9322
public_transport=station
railway=station
railway:ref=BSAM
ref:ibnr=8081220
train=yes
website=https://www.bahnhof.de/saarmund
wheelchair=limited
wheelchair:note=nur Gleis 4 Richtung Flughafen Berlin-Schönefeld
wikidata=Q45188245
wikipedia=en:Saarmund station
id=node/30353795</desc></wpt><wpt lat="52.303736" lon="12.9641369"><name>Ferch-Lienewitz</name><desc>name=Ferch-Lienewitz
operator=DB Netz AG;DB Station&amp;Service AG
public_transport=station
railway=station
railway:ref=BFLZ
railway:station_category=7
train=yes
uic_ref=8013480
wikidata=Q50378547
id=node/30389957</desc></wpt><wpt lat="52.3928748" lon="12.9269844"><name>Werder (Havel)</name><desc>addr:city=Werder (Havel)
addr:country=DE
addr:housenumber=107
addr:postcode=14542
addr:street=Eisenbahnstraße
name=Werder (Havel)
operator=DB InfraGO
public_transport=station
railway=station
railway:ref=BWE
railway:station_category=4
ref:station=6681
train=yes
uic_ref=8010373
website=https://www.bahnhof.de/werder-havel
wheelchair=yes
wikidata=Q9372037
wikipedia=en:Werder (Havel) station
id=node/30818314</desc></wpt><wpt lat="52.375746" lon="12.4215881"><name>Kirchmöser</name><desc>addr:city=Brandenburg an der Havel
addr:housenumber=30
addr:postcode=14774
addr:street=Bahnhofstraße
addr:suburb=Kirchmöser
name=Kirchmöser
operator=DB Netz AG;DB Station&amp;Service AG
public_transport=station
railway=station
railway:ref=LKIM
railway:station_category=6
shelter=yes
tactile_paving=no
train=yes
uic_ref=8012011
wheelchair=yes
wikidata=Q63119137
id=node/30821659</desc></wpt><wpt lat="53.0765413" lon="12.3339439"><name>Blumenthal</name><desc>name=Blumenthal
public_transport=station
railway=station
train=yes
wheelchair=yes
id=node/32863019</desc></wpt><wpt lat="52.7534082" lon="13.0399856"><name>Kremmen</name><desc>name=Kremmen
operator=DB Netz AG
public_transport=station
railway=station
railway:ref=BKRM
railway:station_category=6
train=yes
uic_ref=8012096
wheelchair=yes
wikidata=Q20538146
wikimedia_commons=Category:Bahnhof Kremmen
wikipedia=de:Bahnhof Kremmen
id=node/32863636</desc></wpt><wpt lat="52.9424017" lon="12.3909777"><name>Kyritz</name><desc>addr:city=Hansestadt Kyritz
addr:country=DE
addr:housenumber=1
addr:postcode=16866
addr:street=Am Bahnhof
departures_board=timetable
name=Kyritz
network=Verkehrsverbund Berlin-Brandenburg
network:short=VBB
network:wikidata=Q315451
operator=Regio Infra Nord-Ost GmbH &amp; Co. KG
public_transport=station
railway=station
railway:ref=WKY
railway:ref:DB=WKY
railway:station_category=S
ref:IFOPT=de:12068:900205139
ref:IFOPT:DB=de:12068:900205139
train=yes
uic_ref=8012142
wheelchair=yes
id=node/32912570</desc></wpt><wpt lat="52.5246787" lon="14.1005512"><name>Müncheberg (Mark)</name><desc>addr:city=Müncheberg
addr:housenumber=1
addr:postcode=15374
addr:street=Am Bahnhof
name=Müncheberg (Mark)
public_transport=station
railway=station
railway:ref=BMB
railway:station_category=6
ref:station=4228
train=yes
uic_ref=8010236
wheelchair=limited
wheelchair:note=nicht der Privatbahnanschluss
wikidata=Q19274498
wikipedia=de:Bahnhof Müncheberg (Mark)
id=node/33712781</desc></wpt><wpt lat="52.2915287" lon="12.9845109"><name>Seddin</name><desc>name=Seddin
public_transport=station
railway=station
railway:ref=BSE
railway:station_category=5
tracks=1
train=yes
uic_ref=8013492
wheelchair=no
wikidata=Q801421
wikipedia=de:Bahnhof Seddin
id=node/36681682</desc></wpt><wpt lat="51.8579126" lon="13.7138576"><name>Luckau Zentrum</name><desc>name=Luckau Zentrum
public_transport=station
railway=station
railway:ref=BLC
train=yes
wheelchair=no
wikidata=Q109328993
id=node/36747560</desc></wpt><wpt lat="51.8519254" lon="13.6090415"><name>Uckro Süd</name><desc>name=Uckro Süd
public_transport=station
railway=station
service=no
train=yes
id=node/36747565</desc></wpt><wpt lat="52.2516275" lon="13.9208681"><name>Storkow (Mark)</name><desc>name=Storkow (Mark)
public_transport=station
railway=station
railway:ref=BSTW
train=yes
uic_ref=8013058
wheelchair=yes
wikidata=Q53791551
wikipedia=en:Storkow (Mark) station
id=node/38577886</desc></wpt><wpt lat="52.2895354" lon="13.7864906"><name>Friedersdorf (bei Königs Wusterhausen)</name><desc>name=Friedersdorf (bei Königs Wusterhausen)
public_transport=station
railway=station
train=yes
uic_ref=8011574
wheelchair=yes
wikidata=Q55612105
id=node/38588854</desc></wpt><wpt lat="52.293254" lon="14.0649619"><name>Bad Saarow</name><desc>abandoned:railway=station
name=Bad Saarow
old_name=Bad Saarow-Pieskow
public_transport=station
railway=station
railway:ref=BBSP
railway:station_category=7
train=yes
wheelchair=yes
wikidata=Q45184602
wikipedia=en:Bad Saarow station
id=node/47127841</desc></wpt><wpt lat="52.66865" lon="13.2870408"><name>Hohen Neuendorf (b Berlin)</name><desc>contact:phone=+49 30 297 43333
contact:website=http://www.s-bahn-berlin.de/fahrplanundnetz/bahnhof/hohen-neuendorf-b-bln/78
description=S Hohen Neuendorf
light_rail=yes
name=Hohen Neuendorf (b Berlin)
network=Verkehrsverbund Berlin-Brandenburg
network:short=VBB
network:wikidata=Q315451
official_name=Hohen Neuendorf (b Berlin)
operator=DB Netz AG
public_transport=station
railway=station
railway:ref=BHN
railway:station_category=5
station=light_rail
train=yes
uic_name=Hohen Neuendorf(b Berlin)
uic_ref=8080720
wheelchair=yes
wikidata=Q4500489
wikipedia=de:Bahnhof Hohen Neuendorf (b Berlin)
id=node/59282120</desc></wpt><wpt lat="52.5262465" lon="13.7604458"><name>Fredersdorf (b Berlin)</name><desc>contact:phone=+49 30 297 43333
contact:website=http://www.s-bahn-berlin.de/fahrplanundnetz/bahnhof/fredersdorf-b-bln/56
departures_board=realtime
light_rail=yes
name=Fredersdorf (b Berlin)
network=Verkehrsverbund Berlin-Brandenburg
network:short=VBB
note=Vor Ort ist "Fredersdorf (b Berlin)" ausgeschildert. S-Bahn-Station ist ein eigenständiger Bahnhof.
official_name=Fredersdorf (b Berlin) S-Bahn
operator=DB InfraGO AG
public_transport=station
railway=station
railway:ref=BFD
railway:station_category=5
ref:station=1889
short_name=Fredersdorf (b Berlin)
station=light_rail
uic_name=Fredersdorf(b Berlin)
uic_ref=8080440
wheelchair=yes
wikidata=Q15197387
wikipedia=de:Bahnhof Fredersdorf (b Berlin)
id=node/59719386</desc></wpt><wpt lat="52.1479787" lon="14.6583612"><name>Eisenhüttenstadt</name><desc>internet_access=no
name=Eisenhüttenstadt
public_transport=station
railway=station
railway:ref=BEHS
train=yes
uic_ref=8011471
wheelchair=no
wikidata=Q55610617
id=node/61102276</desc></wpt><wpt lat="53.1491192" lon="12.9855428"><name>Stechlinsee</name><desc>alt_name=Werkbahnhof KKW Rheinsberg
name=Stechlinsee
official_name=Rheinsberg Stechlinsee
public_transport=station
railway=station
railway:ref=WSTS
train=yes
wheelchair=no
id=node/86983773</desc></wpt><wpt lat="51.4552602" lon="13.8701069"><name>Ruhland</name><desc>addr:city=Ruhland
addr:street=Güterbahnhofstraße
name=Ruhland
name:de=Ruhland
name:hsb=Rólany
network=Verkehrsverbund Berlin-Brandenburg
network:short=VBB
network:wikidata=Q315451
operator=DB InfraGO
public_transport=station
railway=station
railway:ref=BRU
railway:station_category=5
train=yes
uic_ref=8010308
website=https://www.bahnhof.de/ruhland
wheelchair=yes
wikidata=Q801381
wikipedia=de:Bahnhof Ruhland
id=node/134330087</desc></wpt><wpt lat="51.5184186" lon="13.4028276"><name>Bad Liebenwerda</name><desc>addr:city=Bad Liebenwerda
departures_board=timetable
ele=90
name=Bad Liebenwerda
operator=DB InfraGO
public_transport=station
railway=station
railway:ref=BBLW
railway:station_category=7
ref:IFOPT=de:12062:900415240
train=yes
uic_ref=8011078
website=https://www.bahnhof.de/bad-liebenwerda
wheelchair=yes
wikidata=Q51644216
wikipedia=en:Bad Liebenwerda station
id=node/154488204</desc></wpt><wpt lat="51.6794431" lon="13.2028483"><name>Herzberg (Elster)</name><desc>name=Herzberg (Elster)
note="Herzberg (Elster)" ist die offizielle Betriebsstellenbezeichnung
operator=DB InfraGO
public_transport=station
railway=station
railway:ref=LHZW
ref:IFOPT=de:12062:900415683
toilets:wheelchair=no
train=yes
uic_ref=8011867
website=https://www.bahnhof.de/herzberg-elster
wheelchair=limited
wikidata=Q55613671
wikipedia=en:Herzberg (Elster) station
id=node/158777681</desc></wpt><wpt lat="52.6802667" lon="13.4324776"><name>Schönwalde</name><desc>name=Schönwalde
public_transport=station
railway=station
railway:ref=BSWA
train=yes
wheelchair=yes
id=node/190648567</desc></wpt><wpt lat="52.654749" lon="13.3862202"><name>Mühlenbeck-Mönchmühle</name><desc>contact:phone=+49 30 297 43333
contact:website=https://sbahn.berlin/fahren/bahnhofsuebersicht/muehlenbeck-moenchmuehle/
light_rail=yes
name=Mühlenbeck-Mönchmühle
network=Verkehrsverbund Berlin-Brandenburg
network:short=VBB
official_name=Mühlenbeck-Mönchmühle
operator=DB Netz AG
public_transport=station
railway=station
railway:ref=BMM
railway:station_category=6
station=light_rail
uic_ref=8080980
wheelchair=yes
wikidata=Q6950467
wikipedia=en:Mühlenbeck-Mönchmühle station
id=node/197619499</desc></wpt><wpt lat="52.7723325" lon="13.2517577"><name>Sachsenhausen (Nordb)</name><desc>name=Sachsenhausen (Nordb)
public_transport=station
railway=station
railway:ref=BSAH
train=yes
uic_ref=8012831
wheelchair=yes
wheelchair:note=nur Gleis 1 Richtung Löwenberg
wikidata=Q55632293
id=node/245052858</desc></wpt><wpt lat="53.0022995" lon="13.1684982"><name>Gransee</name><desc>name=Gransee
public_transport=station
railway=station
railway:ref=WGRA
railway:station_category=5
train=yes
uic_ref=8011691
wheelchair=yes
wikidata=Q98582544
id=node/246143719</desc></wpt><wpt lat="53.1604863" lon="12.4792939"><name>Wittstock (Dosse)</name><desc>name=Wittstock (Dosse)
operator=DB Netz AG
public_transport=station
railway=station
railway:ref=WWK
railway:station_category=6
train=yes
uic_name=Wittstock(Dosse)
uic_ref=8010384
wheelchair=yes
wikidata=Q56605105
id=node/246238933</desc></wpt><wpt lat="52.2621066" lon="12.9255296"><name>Beelitz-Heilstätten</name><desc>addr:city=Beelitz
addr:country=DE
addr:postcode=14547
addr:street=Straße am Bahnhof
addr:suburb=Beelitz-Heilstätten
name=Beelitz-Heilstätten
official_name=Beelitz Heilstätten
public_transport=station
railway=station
railway:ref=BBEL
railway:station_category=6
toilets:wheelchair=no
train=yes
uic_name=Beelitz-Heilstätten
uic_ref=8013467
wheelchair=yes
wikidata=Q50378765
id=node/246674835</desc></wpt><wpt lat="52.2308304" lon="12.8546025"><name>Borkheide</name><desc>name=Borkheide
public_transport=station
railway=station
railway:ref=BBK
railway:station_category=6
ref:station=786
train=yes
uic_ref=8011238
wheelchair=yes
id=node/246674837</desc></wpt><wpt lat="53.1608281" lon="11.7383726"><name>Karstädt</name><desc>name=Karstädt
note=Aufgrund von Weichen im Stationsbereich offenbar Bahnhof (railway=station) statt Haltepunkt (railway=halt)
operator=DB Station&amp;Service AG
public_transport=station
railway=station
railway:ref=WKT
train=yes
wheelchair=yes
wikidata=Q13522157
wikipedia=de:Bahnhof Karstädt
id=node/247745274</desc></wpt><wpt lat="51.9974208" lon="13.0540462"><name>Jüterbog</name><desc>name=Jüterbog
operator=DB InfraGO AG
public_transport=station
railway=station
railway:ref=BJUE
railway:station_category=4
ref:station=3071
train=yes
uic_ref=8010182
website=https://www.bahnhof.de/jueterbog
wheelchair=yes
wikidata=Q11731908
wikipedia=de:Bahnhof Jüterbog
id=node/249568608</desc></wpt><wpt lat="51.9316125" lon="13.0488358"><name>Oehna</name><desc>name=Oehna
network=Verkehrsverbund Berlin-Brandenburg
network:short=VBB
network:wikidata=Q315451
operator=DB InfraGO
public_transport=station
railway=station
railway:ref=LOEH
ref:IFOPT=de:12072:900245019
ref:station=4730
train=yes
uic_ref=8012552
website=https://www.bahnhof.de/oehna
wheelchair=yes
wikidata=Q108669241
id=node/252873716</desc></wpt><wpt lat="52.0904426" lon="13.1601561"><name>Luckenwalde</name><desc>name=Luckenwalde
operator=DB Netz AG;DB Station&amp;Service AG
public_transport=station
railway=station
railway:ref=BLD
railway:station_category=5
ref:IFOPT=de:12072:900245016
ref:IFOPT:DB=de:12072:900245016
train=yes
uic_ref=8012260
wheelchair=yes
wikidata=Q21172287
wikipedia=de:Bahnhof Luckenwalde
id=node/252873734</desc></wpt><wpt lat="52.3582619" lon="13.0981281"><name>Potsdam-Rehbrücke</name><desc>name=Potsdam-Rehbrücke
network=Verkehrsverbund Berlin-Brandenburg
network:short=VBB
network:wikidata=Q315451
operator=DB InfraGO
public_transport=station
railway=station
railway:ref=BRC
railway:station_category=6
train=yes
uic_ref=8012733
website=https://www.bahnhof.de/potsdam-rehbruecke
wheelchair=yes
wikidata=Q55630330
wikipedia=en:Potsdam-Rehbrücke station
id=node/253763451</desc></wpt><wpt lat="52.6127314" lon="12.8855858"><name>Nauen</name><desc>name=Nauen
network=Verkehrsverbund Berlin-Brandenburg
network:short=VBB
network:wikidata=Q315451
operator=DB InfraGO AG
public_transport=station
railway=station
railway:ref=BNAU
railway:station_category=3
ref:station=4306
train=yes
uic_ref=8010239
wheelchair=limited
wikidata=Q11790187
id=node/260374327</desc></wpt><wpt lat="52.4109748" lon="12.7770339"><name>Groß Kreutz</name><desc>name=Groß Kreutz
operator=DB Netz AG
public_transport=station
railway=station
railway:ref=LGZ
railway:station_category=6
train=yes
uic_ref=8011725
wheelchair=yes
wikidata=Q60445630
id=node/268031977</desc></wpt><wpt lat="53.1867756" lon="13.1393746"><name>Fürstenberg (Havel)</name><desc>name=Fürstenberg (Havel)
operator=DB InfraGO AG
public_transport=station
railway=station
railway:ref=WF
railway:station_category=5
ref:station=1975
train=yes
uic_name=Fürstenberg(Havel)
uic_ref=8010399
wheelchair=no
wikidata=Q50387106
wikipedia=de:Bahnhof Fürstenberg (Havel)
id=node/269532400</desc></wpt><wpt lat="52.0919146" lon="12.8568155"><name>Treuenbrietzen</name><desc>name=Treuenbrietzen
operator=DB Netz AG
public_transport=station
railway=station
railway:ref=BTZN
railway:station_category=7
train=yes
uic_ref=8013145
wheelchair=yes
wikidata=Q20644102
wikipedia=de:Bahnhof Treuenbrietzen
id=node/269545179</desc></wpt><wpt lat="52.872664" lon="13.8200845"><name>Britz</name><desc>name=Britz
operator=DB InfraGO AG
public_transport=station
railway=station
railway:ref=WBR
railway:station_category=6
train=yes
uic_ref=8010064
wheelchair=yes
wikidata=Q15204915
wikipedia=en:Britz railway station
id=node/272069963</desc></wpt><wpt lat="52.7154161" lon="13.4338885"><name>Basdorf</name><desc>name=Basdorf
public_transport=station
railway=station
railway:ref=BBAS
train=yes
wheelchair=yes
wikidata=Q42975476
id=node/272437296</desc></wpt><wpt lat="52.7560085" lon="13.47397"><name>Wandlitzsee</name><desc>name=Wandlitzsee
public_transport=station
railway=station
railway:ref=BWAS
train=yes
wheelchair=yes
wikidata=Q108526246
id=node/274895607</desc></wpt><wpt lat="52.7912113" lon="13.4881679"><name>Klosterfelde</name><desc>name=Klosterfelde
public_transport=station
railway=station
railway:ref=BKLF
train=yes
wheelchair=yes
id=node/274895900</desc></wpt><wpt lat="52.3606346" lon="13.4078294"><name>Mahlow</name><desc>contact:phone=+49 30 297 43333
contact:website=http://www.s-bahn-berlin.de/fahrplanundnetz/bahnhof/mahlow/100
light_rail=yes
name=Mahlow
network=Verkehrsverbund Berlin-Brandenburg
network:short=VBB
network:wikidata=Q315451
official_name=Mahlow
operator=DB Netz AG
public_transport=station
railway=station
railway:ref=BMAH
railway:station_category=5
station=light_rail
train=yes
uic_ref=8080970
wheelchair=yes
wikidata=Q2641431
wikipedia=de:Bahnhof Mahlow
id=node/279018516</desc></wpt><wpt lat="52.2189728" lon="13.4387099"><name>Zossen</name><desc>addr:city=Zossen
addr:housenumber=61
addr:postcode=15806
addr:street=Bahnhofstraße
internet_access=yes
internet_access:fee=no
internet_access:ssid=LOK Hotspot
name=Zossen
network=VBB
operator=DB Netz AG
phone=+49 331 2357520
public_transport=station
railway=station
railway:ref=BZO
railway:station_category=5
train=yes
uic_ref=8010395
wheelchair=limited
wikidata=Q8074570
wikipedia=en:Zossen railway station
id=node/286298351</desc></wpt><wpt lat="52.4004813" lon="12.5657504"><name>Brandenburg Hauptbahnhof</name><desc>addr:city=Brandenburg an der Havel
addr:country=DE
addr:housenumber=9
addr:postcode=14776
addr:street=Am Hauptbahnhof
departures_board=realtime
gauge=1435
name=Brandenburg Hauptbahnhof
operator=DB Netz AG;DB Station&amp;Service AG
public_transport=station
railway=station
railway:ref=LB
railway:station_category=3
ref:station=823
shelter=yes
tactile_paving=yes
toilets:wheelchair=no
train=yes
uic_ref=8010060
usage=branch
website=https://www.bahnhof.de/bahnhof-de/Brandenburg_Hbf.html
wheelchair=yes
wheelchair:description=Rollstuhlfahrer vor Fahrtantritt bitte bei der Aufsicht melden (Hub- lift)! Mobilitätsservice 01805/512512
wikidata=Q4956662
wikipedia=de:Brandenburg Hauptbahnhof
id=node/286639857</desc></wpt><wpt lat="52.336876" lon="14.3976468"><name>Pillgram</name><desc>name=Pillgram
public_transport=station
railway=station
railway:ref=BPIL
train=yes
uic_ref=8012636
wheelchair=yes
wikidata=Q15796099
id=node/298720641</desc></wpt><wpt lat="52.1776785" lon="14.2509113"><name>Beeskow</name><desc>name=Beeskow
operator=DB InfraGO AG
public_transport=station
railway=station
railway:ref=BBES
railway:station_category=6
ref:station=456
train=yes
uic_ref=8010029
wheelchair=yes
wikidata=Q800454
wikimedia_commons=Category:Bahnhof Beeskow
wikipedia=de:Bahnhof Beeskow
id=node/305332160</desc></wpt><wpt lat="52.8308142" lon="13.9280127"><name>Niederfinow</name><desc>name=Niederfinow
operator=DB Netz AG
public_transport=station
railway=station
railway:ref=WNW
railway:station_category=6
train=yes
uic_ref=8012485
wheelchair=limited
wikidata=Q15806151
wikipedia=en:Niederfinow station
id=node/306006039</desc></wpt><wpt lat="52.3365359" lon="14.5466945"><name>Frankfurt (Oder)</name><desc>addr:city=Frankfurt (Oder)
addr:country=DE
addr:housenumber=11
addr:postcode=15230
addr:street=Bahnhofsplatz
departures_board=realtime
departures_board:speech_output=no
name=Frankfurt (Oder)
name:de=Frankfurt (Oder)
name:pl=Frankfurt nad Odrą
official_name=Frankfurt (Oder) Pbf
operator=DB Netz AG;DB Station&amp;Service AG
public_transport=station
railway=station
railway:ref=BFP
railway:station_category=2
ref:station=1859
toilets:wheelchair=yes
train=yes
uic_ref=8010113
wheelchair=yes
wikidata=Q445993
wikipedia=de:Bahnhof Frankfurt (Oder)
id=node/321555238</desc></wpt><wpt lat="52.6388926" lon="13.2052516"><name>Hennigsdorf (bei Berlin)</name><desc>name=Hennigsdorf (bei Berlin)
network=Verkehrsverbund Berlin-Brandenburg
network:short=VBB
network:wikidata=Q315451
official_name=Hennigsdorf (b Berlin)
operator=DB Netz AG
public_transport=station
railway=station
railway:ref=BHND
railway:station_category=3
train=yes
uic_ref=8013483
wheelchair=yes
wikidata=Q800909
wikipedia=de:Bahnhof Hennigsdorf (b Berlin)
id=node/340181309</desc></wpt><wpt lat="52.5164775" lon="12.9714399"><name>Priort</name><desc>name=Priort
operator=DB InfraGO
public_transport=station
railway=station
railway:ref=BPOT
train=yes
uic_ref=8013489
website=https://www.bahnhof.de/priort
wheelchair=limited
wikidata=Q50380577
wikipedia=en:Priort station
id=node/354426638</desc></wpt><wpt lat="51.5797407" lon="13.1538761"><name>Rehfeld (Falkenberg/Elster)</name><desc>name=Rehfeld (Falkenberg/Elster)
operator=DB InfraGO
public_transport=station
railway=station
railway:ref=LRF
train=yes
uic_ref=8012734
website=https://www.bahnhof.de/rehfeld-b-falkenberg-elster
wheelchair=yes
wikidata=Q108761666
id=node/364673115</desc></wpt><wpt lat="52.5684775" lon="14.6077687"><name>Küstrin-Kietz</name><desc>addr:city=Küstriner Vorland
addr:housenumber=3
addr:postcode=15328
addr:street=Bahnhofsweg
name=Küstrin-Kietz
name:de:1872-1800=Cüstrin-Lange Vorstadt
name:de:1872-1882=Cüstrin-Lange Vorstadt
name:de:1882-1904=Kietz
name:de:1904-1929=Cüstrin-Kietz
name:de:1929-1952=Küstrin-Kietz
name:de:1952-1991=Kietz
name:pl=Kostrzyn-Chyże
operator=DB InfraGO AG
public_transport=station
railway=station
railway:ref=BKI
railway:station_category=6
ref:station=3478
start_date=1872
train=yes
wheelchair=no
wikidata=Q11751886
wikipedia=de:Bahnhof Küstrin-Kietz
id=node/388359953</desc></wpt><wpt lat="52.5284716" lon="13.9227127"><name>Rehfelde</name><desc>addr:city=Rehfelde
addr:housenumber=23a
addr:postcode=15345
addr:street=Bahnhofstraße
name=Rehfelde
network=Verkehrsverbund Berlin-Brandenburg
network:short=VBB
network:wikidata=Q315451
operator=DB InfraGO AG
public_transport=station
railway=station
railway:ref=BRE
railway:station_category=6
ref:station=5178
train=yes
uic_ref=8012735
wheelchair=yes
wikidata=Q19274506
wikipedia=de:Bahnhof Rehfelde
id=node/388616054</desc></wpt><wpt lat="52.0610503" lon="12.3920431"><name>Medewitz (Mark)</name><desc>name=Medewitz (Mark)
note=vor Ort als "Medewitz (Mark)" beschildert
operator=DB Station&amp;Service AG
public_transport=station
railway=station
railway:ref=BMZ
ref:IFOPT=de:12069:900222245
train=yes
uic_ref=8012322
wheelchair=limited
wheelchair:description=Bahnsteige mit Kopfsteinpflaster und recht niedrig, Zugang ebenerdig
wikidata=Q66371291
id=node/391411415</desc></wpt><wpt lat="52.0988047" lon="12.4313672"><name>Wiesenburg (Mark)</name><desc>name=Wiesenburg (Mark)
operator=DB Station&amp;Service AG
public_transport=station
railway=station
railway:ref=BWG
ref:IFOPT=de:12069:900220152
train=yes
uic_ref=8010376
wheelchair=limited
wikidata=Q18018576
wikipedia=de:Bahnhof Wiesenburg (Mark)
id=node/391411805</desc></wpt><wpt lat="52.5322405" lon="13.833687"><name>Strausberg</name><desc>alt_name=Strausberg (Vorstadt)
contact:phone=+49 30 297 43333
contact:website=https://sbahn.berlin/fahren/bahnhofsuebersicht/strausberg/
light_rail=yes
name=Strausberg
network=Verkehrsverbund Berlin-Brandenburg
network:short=VBB
network:wikidata=Q315451
official_name=Strausberg S-Bahn
operator=DB InfraGO AG
public_transport=station
railway=station
railway:ref=BSTV
railway:ref:parent=BST
railway:station_category=4
ref:station=6058
station=light_rail
train=yes
uic_name=Strausberg
uic_ref=8010341
wheelchair=yes
wikidata=Q7622326
wikipedia=de:Bahnhof Strausberg
id=node/424261960</desc></wpt><wpt lat="52.3853285" lon="12.3730055"><name>Wusterwitz</name><desc>addr:city=Wusterwitz
addr:housenumber=1
addr:postcode=14789
addr:street=Bahnhofstraße
name=Wusterwitz
operator=DB InfraGO AG
public_transport=station
railway=station
railway:ref=LWUZ
railway:station_category=6
ref:station=6960
shelter=yes
tactile_paving=yes
train=yes
uic_ref=8013365
wheelchair=yes
wikidata=Q20730081
wikipedia=de:Bahnhof Wusterwitz
id=node/455501169</desc></wpt><wpt lat="52.3571237" lon="14.1662792"><name>Berkenbrück</name><desc>name=Berkenbrück
public_transport=station
railway=station
railway:ref=BBKR
train=yes
uic_ref=8011154
wheelchair=yes
wikidata=Q15796170
wikipedia=en:Berkenbrück station
id=node/455501171</desc></wpt><wpt lat="52.3464192" lon="14.2815874"><name>Briesen (Mark)</name><desc>departures_board=timetable
name=Briesen (Mark)
public_transport=station
railway=station
railway:ref=BBSN
train=yes
uic_ref=8011269
wheelchair=yes
wikidata=Q15796151
id=node/455501172</desc></wpt><wpt lat="51.8864826" lon="13.8114947"><name>Duben (Niederlausitz)</name><desc>name=Duben (Niederlausitz)
operator=Deutsche Regionaleisenbahn GmbH
public_transport=station
railway=station
train=yes
wheelchair=no
wikidata=Q109329123
id=node/464743572</desc></wpt><wpt lat="52.2946855" lon="13.4305926"><name>Rangsdorf</name><desc>name=Rangsdorf
note=Aufgrund von Weichen im Stationsbereich offenbar Bahnhof (railway=station) statt Haltepunkt (railway=halt)
operator=DB Station&amp;Service AG
public_transport=station
railway=station
railway:ref=BRSF
ref:IFOPT=de:12072:900245025
ref:IFOPT:DB=de:12072:900245025
train=yes
uic_ref=8012713
wheelchair=yes
wikidata=Q801345
wikipedia=de:Bahnhof Rangsdorf
id=node/475144816</desc></wpt><wpt lat="52.817575" lon="13.239043"><name>Nassenheide</name><desc>name=Nassenheide
operator=DB Netz AG
public_transport=station
railway=station
railway:position=34.7
railway:ref=WNAS
train=yes
uic_ref=8012413
wheelchair=yes
wikidata=Q55624680
id=node/496009802</desc></wpt><wpt lat="52.1868505" lon="12.7585606"><name>Brück (Mark)</name><desc>name=Brück (Mark)
operator=DB Station&amp;Service AG
public_transport=station
railway=station
railway:ref=BBRK
railway:station_category=6
ref:IFOPT=de:12069:900220141
ref:station=909
toilets:wheelchair=no
train=yes
uic_ref=8011271
wheelchair=yes
id=node/519160945</desc></wpt><wpt lat="51.5671597" lon="13.5743183"><name>Rückersdorf</name><desc>alt_name=Rückersdorf (Niederl)
name=Rückersdorf
note="Rückersdorf (Niederl)" scheint die offizielle Betriebsstellenbezeichnung zu sein
operator=DB InfraGO
public_transport=station
railway=station
railway:ref=BRO
ref:IFOPT=de:12062:900416094
toilets:wheelchair=no
train=yes
uic_ref=8012816
website=https://www.bahnhof.de/rueckersdorf
wheelchair=yes
wikidata=Q7386754
wikipedia=en:Rückersdorf station
id=node/524675536</desc></wpt><wpt lat="52.8682906" lon="13.2126123"><name>Grüneberg</name><desc>name=Grüneberg
network=Verkehrsverbund Berlin-Brandenburg
operator=DB Regio
public_transport=station
railway=station
railway:ref=WGRG
train=yes
uic_ref=8011776
wheelchair=yes
wheelchair:note=nur Gleis 1 Richtung Fürstenberg (Havel)
wikidata=Q51579953
id=node/529679873</desc></wpt><wpt lat="52.7157046" lon="14.1403981"><name>Wriezen</name><desc>name=Wriezen
operator=DB Netz AG
public_transport=station
railway=station
railway:ref=BWRZ
railway:station_category=6
train=yes
uic_ref=8010386
wheelchair=yes
wikidata=Q19964101
wikipedia=de:Bahnhof Wriezen
id=node/540364073</desc></wpt><wpt lat="51.9972622" lon="13.0537386"><name>node/563995659</name><desc>id=node/563995659</desc></wpt><wpt lat="51.9973116" lon="13.0535996"><name>node/563995704</name><desc>id=node/563995704</desc></wpt><wpt lat="51.99744" lon="13.0540903"><name>node/567201323</name><desc>id=node/567201323</desc></wpt><wpt lat="52.2420896" lon="14.4343827"><name>Müllrose</name><desc>name=Müllrose
public_transport=station
railway=station
railway:ref=BMR
train=yes
uic_ref=8012400
wheelchair=yes
wikidata=Q55624316
id=node/580892133</desc></wpt><wpt lat="52.7608305" lon="12.5874059"><name>Friesack (Mark)</name><desc>name=Friesack (Mark)
note="Friesack (Mark)" ist die offizielle Betriebsstellenbezeichnung
operator=DB Station&amp;Service AG
public_transport=station
railway=station
railway:ref=WFRK
train=yes
wheelchair=yes
wikidata=Q92039354
id=node/601524058</desc></wpt><wpt lat="52.6762341" lon="14.2374511"><name>Neutrebbin</name><desc>name=Neutrebbin
operator=DB Netz AG
public_transport=station
railway=station
railway:ref=BNTB
railway:station_category=6
train=yes
uic_ref=8012475
wheelchair=limited
wheelchair:note=nur Gleis 1 Richtung Frankfurt (Oder)
wikidata=Q53764718
id=node/602686201</desc></wpt><wpt lat="52.4272087" lon="13.7524646"><name>Erkner</name><desc>addr:city=Erkner
addr:postcode=15537
addr:street=Bahnhofstraße
name=Erkner
operator=DB InfraGO
phone=+49 30 29743333
public_transport=station
railway=station
railway:ref=BERK
railway:station_category=3
train=yes
uic_ref=8013477
website=https://www.bahnhof.de/erkner
wheelchair=yes
wikidata=Q14434071
wikipedia=de:Bahnhof Erkner
id=node/606196399</desc></wpt><wpt lat="51.4722431" lon="13.5194616"><name>Elsterwerda-Biehla</name><desc>addr:city=Elsterwerda
addr:street=Ladestraße
name=Elsterwerda-Biehla
network=Verkehrsverbund Oberelbe
network:short=VVO
network:wikidata=Q1426445
network:wikipedia=de:Verkehrsverbund Oberelbe
operator=DB InfraGO
public_transport=station
railway=station
railway:ref=BEB
train=yes
website=https://www.bahnhof.de/elsterwerda-biehla
wheelchair=yes
wikidata=Q15785168
wikipedia=de:Bahnhof Elsterwerda-Biehla
id=node/606938869</desc></wpt><wpt lat="52.7539059" lon="13.2493207"><name>Oranienburg</name><desc>description=Oranienburg
name=Oranienburg
operator=DB InfraGO AG
public_transport=station
railway=station
railway:position=27,4
railway:ref=BOR
ref:station=4777
train=yes
wheelchair=yes
wikidata=Q2341669
wikipedia=de:Bahnhof Oranienburg
id=node/610830383</desc></wpt><wpt lat="52.6755442" lon="13.5917168"><name>Bernau</name><desc>contact:phone=+49 30 297 43333
contact:website=http://www.s-bahn-berlin.de/fahrplanundnetz/bahnhof/bernau-b-bln/34
departures_board=realtime
departures_board:speech_output=yes
light_rail=yes
name=Bernau
network=Verkehrsverbund Berlin-Brandenburg
network:short=VBB
network:wikidata=Q315451
official_name=Bernau (b Berlin) S-Bahn
operator=DB Netz AG
public_transport=station
railway=station
railway:ref=BBER
railway:station_category=3
station=light_rail
train=yes
uic_ref=8013470
wheelchair=yes
wikidata=Q479789
wikipedia=de:Bahnhof Bernau (b Berlin)
id=node/611634744</desc></wpt><wpt lat="52.6596833" lon="13.5338475"><name>Zepernick (b Bernau)</name><desc>addr:city=Panketal
addr:housenumber=2
addr:postcode=16341
addr:street=Am Amtshaus
addr:suburb=Zepernick
contact:phone=+49 30 297 43333
contact:website=http://www.s-bahn-berlin.de/fahrplanundnetz/bahnhof/zepernick-b-bernau/167
light_rail=yes
name=Zepernick (b Bernau)
network=Verkehrsverbund Berlin-Brandenburg
network:short=VBB
official_name=Zepernick (b Bernau)
operator=DB Netz AG
public_transport=station
railway=station
railway:ref=BZEP
railway:station_category=5
station=light_rail
uic_name=Zepernick(Bernau)
uic_ref=8081560
wheelchair=yes
wheelchair:description=Der S Bahnhof verfügt über ein Aufzug
wikidata=Q801657
wikipedia=de:Bahnhof Zepernick (b Bernau)
id=node/625291757</desc></wpt><wpt lat="53.2708164" lon="14.3498679"><name>Tantow</name><desc>name=Tantow
public_transport=station
railway=station
railway:ref=WTA
railway:station_category=6
train=yes
uic_ref=8013090
wheelchair=yes
wikidata=Q18325323
wikipedia=de:Bahnhof Tantow
id=node/658912168</desc></wpt><wpt lat="52.4294226" lon="13.7510608"><name>Erkner</name><desc>addr:city=Erkner
addr:postcode=15537
addr:street=Bahnhofstraße
contact:phone=+49 30 297 43333
light_rail=yes
name=Erkner
network=Verkehrsverbund Berlin-Brandenburg
network:short=VBB
network:wikidata=Q315451
official_name=Erkner S-Bahn
operator=DB InfraGO
public_transport=station
railway=station
railway:ref=BE
railway:station_category=3
station=light_rail
train=yes
uic_name=Erkner
uic_ref=8013477
website=https://sbahn.berlin/fahren/bahnhofsuebersicht/erkner/
wheelchair=yes
wikidata=Q14434071
wikipedia=de:Bahnhof Erkner
id=node/670750126</desc></wpt><wpt lat="52.259377" lon="13.5499117"><name>Mittenwalde (Ost)</name><desc>name=Mittenwalde (Ost)
railway=station
train=yes
id=node/697308075</desc></wpt><wpt lat="52.4370423" lon="14.472772"><name>Schönfließ (Mark) Dorf</name><desc>name=Schönfließ (Mark) Dorf
official_name=Schönfließ Dorf
operator=DB Station&amp;Service AG
public_transport=station
railway=station
railway:ref=BSOE
railway:station_category=6
train=yes
uic_name=Schönfließ(Mark) Dorf
uic_ref=8012914
wheelchair=yes
wikidata=Q55632701
id=node/746055404</desc></wpt><wpt lat="52.4830419" lon="12.8472469"><name>Ketzin</name><desc>name=Ketzin
public_transport=station
railway=station
railway:ref=LKET
train=yes
wikidata=Q20871956
wikipedia=de:Bahnhof Ketzin
id=node/777389217</desc></wpt><wpt lat="52.3671912" lon="14.0584217"><name>Fürstenwalde (Spree)</name><desc>name=Fürstenwalde (Spree)
public_transport=station
railway=station
railway:ref=BFUW
train=yes
uic_ref=8010120
wheelchair=yes
wikidata=Q800796
wikipedia=en:Fürstenwalde (Spree) station
id=node/1138478892</desc></wpt><wpt lat="52.9298674" lon="12.8102845"><name>Neuruppin Rheinsberger Tor</name><desc>name=Neuruppin Rheinsberger Tor
official_name=Neuruppin, Rheinsberger Tor Bhf
operator=DB Netz AG;DB Station&amp;Service AG
public_transport=station
railway=station
railway:ref=WNRR
railway:station_category=6
train=yes
uic_name=Neuruppin Rheinsberger Tor
uic_ref=8010175
wheelchair=yes
wikidata=Q87452091
id=node/1334540476</desc></wpt><wpt lat="52.5825756" lon="13.0012902"><name>Brieselang</name><desc>name=Brieselang
note=Aufgrund von Weichen im Stationsbereich offenbar Bahnhof (railway=station) statt Haltepunkt (railway=halt)
operator=DB Netz AG
public_transport=station
railway=station
railway:ref=BBRI
railway:station_category=6
ref:IFOPT=de:12063:900210326
ref:IFOPT:DB=de:12063:900210326
train=yes
uic_ref=8013472
wheelchair=yes
wikidata=Q55605940
id=node/1383430678</desc></wpt><wpt lat="52.1651306" lon="14.378711"><name>Grunow (Niederlausitz)</name><desc>name=Grunow (Niederlausitz)
public_transport=station
railway=station
railway:ref=BGRU
train=yes
uic_ref=8010150
wheelchair=yes
wikidata=Q55613037
id=node/1399518633</desc></wpt><wpt lat="52.5251205" lon="14.0997269"><name>Müncheberg (Mark) Kleinbahn</name><desc>name=Müncheberg (Mark) Kleinbahn
operator=Museumsbahn Buckower Kleinbahn e.V.
public_transport=station
railway=station
train=yes
usage=tourism
wheelchair=no
id=node/1420500583</desc></wpt><wpt lat="52.3642841" lon="13.5081573"><name>Flughafen BER</name><desc>level=-1
level:ref=U2
light_rail=yes
name=Flughafen BER
name:en=BER Airport station
official_name=Berlin Flughafen BER (S-Bahn)
old_name=Flughafen BER - Terminal 1-2
operator=DB InfraGO
public_transport=station
railway=station
railway:ref=BFBB
short_name=Flughafen BER (S-Bahn)
station=light_rail
uic_ref=8011201
website=https://www.bahnhof.de/en/flughafen-ber
wheelchair=yes
wikidata=Q800759
wikipedia=de:Bahnhof Flughafen BER
id=node/1450481793</desc></wpt><wpt lat="52.5997366" lon="12.3549984"><name>Rathenow</name><desc>name=Rathenow
operator=DB InfraGO AG
public_transport=station
railway=station
railway:ref=LRW
railway:station_category=4
ref:station=5131
train=yes
uic_ref=8010296
wheelchair=yes
wikidata=Q325146
wikipedia=de:Bahnhof Rathenow
id=node/1453621778</desc></wpt><wpt lat="53.145725" lon="12.1849288"><name>Pritzwalk</name><desc>name=Pritzwalk
network=Verkehrsverbund Berlin-Brandenburg
operator=DB Netz AG
public_transport=station
railway=station
railway:ref=WPR
train=yes
uic_ref=8010287
wheelchair=yes
wikidata=Q20642073
wikipedia=de:Bahnhof Pritzwalk
id=node/1453910036</desc></wpt><wpt lat="51.7519182" lon="14.3467574"><name>Stadion der Freundschaft</name><desc>name=Stadion der Freundschaft
name:hsb=Stadion přećelstwa
operator=Cottbusverkehr GmbH
public_transport=station
railway=station
station=miniature
train=yes
usage=leisure
wheelchair=limited
id=node/1663200937</desc></wpt><wpt lat="51.6527619" lon="14.0092215"><name>Altdöbern</name><desc>addr:city=Luckaitztal
addr:housenumber=1
addr:postcode=03229
addr:street=Bahnhofstraße
name=Altdöbern
name:de=Altdöbern
name:hsb=Stara Darbnja
operator=DB InfraGO
phone=+49 331 2357520
public_transport=station
railway=station
railway:ref=BAD
ref_name=Altdöbern, Bahnhof
train=yes
uic_ref=8011016
website=https://www.bahnhof.de/altdoebern
wikidata=Q98148731
wikipedia=de:Bahnhof Altdöbern
id=node/1666642454</desc></wpt><wpt lat="51.5915009" lon="14.0149771"><name>Großräschen</name><desc>name=Großräschen
operator=DB InfraGO
public_transport=station
railway=station
railway:ref=BGR
ref:ibnr=8011756
train=yes
website=https://www.bahnhof.de/grossraeschen
wikidata=Q98148766
id=node/1666642455</desc></wpt><wpt lat="51.7727911" lon="13.6171927"><name>Walddrehna</name><desc>name=Walddrehna
operator=DB InfraGO
public_transport=station
railway=station
railway:ref=BWA
ref:ibnr=8013210
train=yes
website=https://www.bahnhof.de/walddrehna
wheelchair=yes
wikidata=Q7961374
wikipedia=en:Walddrehna station
id=node/1666923044</desc></wpt><wpt lat="52.3639907" lon="13.5083312"><name>Flughafen BER</name><desc>level=-1
level:ref=U2
name=Flughafen BER
name:en=BER Airport station
official_name=Berlin Flughafen BER
old_name=Flughafen BER - Terminal 1-2
operator=DB InfraGO
public_transport=station
railway=station
railway:ref=BFBI
short_name=Flughafen BER (Fern)
train=yes
uic_ref=8011201
website=https://www.bahnhof.de/flughafen-ber
wheelchair=yes
wikidata=Q800759
wikipedia=de:Bahnhof Flughafen Berlin Brandenburg
id=node/1736633839</desc></wpt><wpt lat="52.242008" lon="13.6349392"><name>Bestensee</name><desc>name=Bestensee
public_transport=station
railway=station
railway:ref=BBST
train=yes
wheelchair=yes
wikidata=Q62589694
id=node/1844476281</desc></wpt><wpt lat="52.2983507" lon="13.267456"><name>Ludwigsfelde</name><desc>addr:city=Ludwigsfelde
addr:housenumber=2
addr:postcode=14974
addr:street=Am Bahnhof
name=Ludwigsfelde
operator=DB InfraGO AG
public_transport=station
railway=station
railway:ref=BLF
railway:station_category=4
ref:station=3835
train=yes
wheelchair=yes
wikidata=Q19274493
wikipedia=de:Bahnhof Ludwigsfelde
id=node/1852095850</desc></wpt><wpt lat="51.940029" lon="13.8765309"><name>Lübben (Spreewald) / Lubin (Błota)</name><desc>name=Lübben (Spreewald) / Lubin (Błota)
name:de=Lübben (Spreewald)
name:dsb=Lubin (Błota)
name:hsb=Lubin (Błota)
operator=DB InfraGO
public_transport=station
railway=station
railway:ref=BLB
railway:station_category=4
ref:station=3802
train=yes
uic_ref=8010217
website=https://www.bahnhof.de/luebben-spreewald
wheelchair=yes
wikidata=Q801141
wikipedia=de:Bahnhof Lübben (Spreewald)
id=node/2319615682</desc></wpt><wpt lat="51.8620528" lon="13.9611658"><name>Lübbenau (Spreewald) / Lubnjow (Błota)</name><desc>name=Lübbenau (Spreewald) / Lubnjow (Błota)
name:de=Lübbenau (Spreewald)
name:dsb=Lubnjow (Błota)
name:hsb=Lubnjow (Błota)
operator=DB InfraGO
public_transport=station
railway=station
railway:ref=BLN
railway:station_category=4
toilets:wheelchair=yes
train=yes
uic_name=Lübbenau(Spreewald)
uic_ref=8010220
website=https://www.bahnhof.de/luebbenau-spreewald
wheelchair=yes
wikidata=Q11764500
wikipedia=de:Bahnhof Lübbenau (Spreewald)
id=node/2319624842</desc></wpt><wpt lat="52.6374079" lon="13.2060771"><name>Hennigsdorf (bei Berlin)</name><desc>contact:phone=+49 30 297 43333
contact:website=http://www.s-bahn-berlin.de/fahrplanundnetz/bahnhof/hennigsdorf-b-bln/74
light_rail=yes
name=Hennigsdorf (bei Berlin)
official_name=Hennigsdorf (b Berlin) S-Bahn
operator=DB Netz AG
public_transport=station
railway=station
railway:ref=BHD
railway:station_category=3
station=light_rail
toilets:wheelchair=no
uic_ref=8013483
wheelchair=limited
wikidata=Q800909
wikipedia=de:Bahnhof Hennigsdorf (b Berlin)
id=node/2340684843</desc></wpt><wpt lat="52.5921844" lon="12.6294928"><name>Buschow</name><desc>name=Buschow
note=Aufgrund von Weichen offenbar Bahnhof (railway=station) statt Haltepunkt (railway=halt)
operator=DB Netz AG;DB Station&amp;Service AG
public_transport=station
railway=station
railway:ref=LBOW
railway:ref:DB=LBOW
railway:station_category=6
ref:IFOPT=de:12063:900210050
ref:IFOPT:DB=de:12063:900210050
train=yes
uic_ref=8011302
wheelchair:note=Nur Bahnsteig 1 Richtung Berlin ist mit dem Rollstuhl erreichbar.
wikidata=Q5001315
wikipedia=en:Buschow railway station
id=node/2400601366</desc></wpt><wpt lat="52.5999107" lon="12.5027752"><name>Nennhausen</name><desc>name=Nennhausen
note=Aufgrund von Weichen offenbar Bahnhof (railway=station)
operator=DB Netz AG;DB Station&amp;Service AG
public_transport=station
railway=station
railway:ref=LNS
railway:station_category=6
train=yes
uic_ref=8012425
website=http://www.bahnhof.de/#station/19981
wheelchair=limited
wikidata=Q12063707
wikipedia=en:Nennhausen railway station
id=node/2400601367</desc></wpt><wpt lat="52.3914035" lon="13.0929636"><name>Babelsberg</name><desc>contact:phone=+49 30 297 43333
light_rail=yes
name=Babelsberg
network=Verkehrsverbund Berlin-Brandenburg
network:short=VBB
network:wikidata=Q315451
official_name=Potsdam-Babelsberg
operator=DB InfraGO
public_transport=station
railway=station
railway:ref=BBAB
railway:station_category=5
shelter=yes
station=light_rail
tactile_paving=no
train=yes
uic_ref=8080070
website=https://sbahn.berlin/fahren/bahnhofsuebersicht/babelsberg/
wheelchair=no
wikidata=Q801326
wikipedia=de:Bahnhof Potsdam-Babelsberg
id=node/2513898321</desc></wpt><wpt lat="52.396844" lon="13.2762483"><name>Teltow Stadt</name><desc>addr:city=Teltow
addr:country=DE
addr:postcode=14513
addr:street=Mahlower Straße
contact:phone=+49 30 297 43333
contact:website=http://www.s-bahn-berlin.de/fahrplanundnetz/bahnhof/teltow-stadt/181
light_rail=yes
name=Teltow Stadt
network=Verkehrsverbund Berlin-Brandenburg
network:short=VBB
network:wikidata=Q315451
official_name=Teltow Stadt
operator=DB Netz AG
public_transport=station
railway=station
railway:ref=BTLS
railway:station_category=5
station=light_rail
train=yes
uic_ref=8080450
wheelchair=yes
wikidata=Q7697867
id=node/2514084207</desc></wpt><wpt lat="51.620608" lon="13.5642259"><name>Doberlug-Kirchhain</name><desc>name=Doberlug-Kirchhain
operator=DB InfraGO
public_transport=station
railway=station
train=yes
website=https://www.bahnhof.de/doberlug-kirchhain
wheelchair=yes
wikidata=Q15214284
wikipedia=de:Bahnhof Doberlug-Kirchhain
id=node/2585405406</desc></wpt><wpt lat="51.8518346" lon="13.6079202"><name>Luckau-Uckro</name><desc>addr:city=Luckau
addr:housenumber=7
addr:postcode=15926
addr:street=Uckroer Bahnhofstraße
addr:suburb=Uckro
name=Luckau-Uckro
operator=DB InfraGO
public_transport=station
railway=station
railway:ref=BUK
railway:station_category=6
train=yes
uic_ref=8010353
website=https://www.bahnhof.de/luckau-uckro
wheelchair=yes
wikidata=Q801123
wikipedia=de:Bahnhof Luckau-Uckro
id=node/2585405408</desc></wpt><wpt lat="51.7380784" lon="13.9796759"><name>Calau (Niederlausitz) - Kalawa (Dolna Łužyca)</name><desc>name=Calau (Niederlausitz) - Kalawa (Dolna Łužyca)
name:de=Calau (Niederlausitz)
name:dsb=Kalawa
name:hsb=Kalawa
operator=DB InfraGO
public_transport=station
railway=station
railway:ref=BC
train=yes
uic_ref=8010069
website=https://www.bahnhof.de/calau-niederlausitz
wheelchair=no
wikidata=Q53785200
wikipedia=en:Calau (Niederlausitz) station
id=node/2592038688</desc></wpt><wpt lat="51.7512991" lon="14.3223077"><name>Cottbus Hauptbahnhof / Chóśebuz głowne dwórnišćo</name><desc>name=Cottbus Hauptbahnhof / Chóśebuz głowne dwórnišćo
name:de=Cottbus Hbf
name:dsb=Chóśebuz głowne dwórnišćo
name:hsb=Choćebuz
note="Cottbus" (ohne "Bahnhof" oder gar "Hauptbahnhof") ist die offizielle Betriebsstellenbezeichnung. Betriebsstelle ist als Punkt gemappt, PT-Feature als Fläche!
– seit 2018 Namenszusatz „Hbf“
official_name=Cottbus Hbf
old_name=Cottbus
operator=DB InfraGO
public_transport=station
railway=station
railway:ref=BCS
railway:station_category=2
ref:ibnr=8010073
ref:station=1077
short_name=Cottbus Hbf / Chóśebuz gł.dw.
toilets:wheelchair=no
train=yes
uic_name=Cottbus Hbf
uic_ref=8010073
website=https://www.bahnhof.de/cottbus-hbf
wheelchair=limited
wikidata=Q324997
wikipedia=de:Cottbus Hauptbahnhof
id=node/2599505466</desc></wpt><wpt lat="52.1360071" lon="12.5950321"><name>Bad Belzig</name><desc>name=Bad Belzig
operator=DB Station&amp;Service AG
public_transport=station
railway=station
railway:ref=BBIG
railway:station_category=5
ref:IFOPT=de:12069:900220143
train=yes
uic_ref=8010031
wheelchair=yes
wikidata=Q22691241
wikipedia=de:Bahnhof Bad Belzig
id=node/2742631991</desc></wpt><wpt lat="51.4600093" lon="13.5165719"><name>Elsterwerda</name><desc>addr:city=Elsterwerda
addr:street=Bahnhofstraße
name=Elsterwerda
operator=DB InfraGO
public_transport=station
railway=station
railway:ref=BEW
railway:station_category=3
train=yes
uic_ref=8010099
website=https://www.bahnhof.de/elsterwerda
wheelchair=yes
wikidata=Q323268
wikipedia=de:Bahnhof Elsterwerda
id=node/2773783022</desc></wpt><wpt lat="52.3882208" lon="13.2997399"><name>Teltow</name><desc>name=Teltow
note=Aufgrund von Weichen im Stationsbereich offenbar Bahnhof (railway=station) statt Haltepunkt (railway=halt)
operator=DB InfraGO
public_transport=station
railway=station
railway:ref=BTL
railway:station_category=6
ref:ibnr=8013100
train=yes
website=https://www.bahnhof.de/teltow
wheelchair=yes
wikidata=Q7697868
wikipedia=de:Bahnhof Teltow
id=node/2802973934</desc></wpt><wpt lat="51.6875103" lon="14.412174"><name>Neuhausen (b Cottbus)</name><desc>alt_name=Neuhausen (Cottbus)
name=Neuhausen (b Cottbus)
name:de=Neuhausen (Cottbus)
name:hsb=Kopańce
operator=DB InfraGO
public_transport=station
railway=station
railway:ref=BNH
railway:station_category=6
ref:station=4397
request_stop=yes
source:name=siehe source:railway_ref und source:station_category
source:railway:station_category=https://www.deutschebahn.com/resource/blob/6384352/8772fa5f510e35ab97a434b5bd66460a/Stationspreisliste-2022-data.pdf
train=yes
website=https://www.bahnhof.de/neuhausen-b-cottbus
wheelchair=no
wikidata=Q116155635
id=node/2804556247</desc></wpt><wpt lat="51.6548808" lon="14.4268911"><name>Bagenz</name><desc>name=Bagenz
name:de=Bagenz
name:hsb=Bageńc
operator=DB InfraGO
public_transport=station
railway=station
railway:ref=BBG
railway:station_category=6
ref:station=373
request_stop=yes
source:railway:station_category=https://www.deutschebahn.com/resource/blob/6384352/8772fa5f510e35ab97a434b5bd66460a/Stationspreisliste-2022-data.pdf
train=yes
website=https://www.bahnhof.de/bagenz
wheelchair=limited
wheelchair:note=nur Gleis 1 Zugverkehr zur Zeit nur auf Gleis 1
wikidata=Q77835368
id=node/2804582751</desc></wpt><wpt lat="51.5747888" lon="14.3975494"><name>Spremberg / Grodk</name><desc>addr:city=Spremberg
addr:street=Grazer Straße
name=Spremberg / Grodk
name:de=Spremberg
name:dsb=Grodk
name:hsb=Grodk
operator=DB InfraGO AG
public_transport=station
railway=station
railway:ref=BSP
railway:station_category=6
ref:station=5930
source:railway:station_category=https://www.deutschebahn.com/resource/blob/6384352/8772fa5f510e35ab97a434b5bd66460a/Stationspreisliste-2022-data.pdf
train=yes
uic_name=Spremberg
uic_ref=8010330
website=https://www.bahnhof.de/spremberg
wheelchair=yes
wikidata=Q64875516
wikipedia=en:Spremberg station
id=node/2804723670</desc></wpt><wpt lat="51.6065382" lon="14.1620854"><name>Neupetershain</name><desc>name=Neupetershain
name:dsb=Nowe Wiki
name:hsb=Nowe Wiki
network=Verkehrsverbund Berlin-Brandenburg
network:guid=DE-BE-VBB
network:short=VBB
network:wikidata=Q315451
operator=DB InfraGO
public_transport=station
railway=station
railway:ref=BNP
railway:station_category=6
ref=2
ref:station=4431
train=yes
website=https://www.bahnhof.de/neupetershain
wheelchair:note=nur Bahnsteig 1 Richtung Senftenberg
wikidata=Q110438087
id=node/2832121287</desc></wpt><wpt lat="51.7685907" lon="14.1887105"><name>Kunersdorf / Kósobuz</name><desc>name=Kunersdorf / Kósobuz
name:de=Kunersdorf
name:dsb=Kósobuz
name:hsb=Kósobuz
operator=DB InfraGO
public_transport=station
railway=station
railway:ref=BPA
train=yes
website=https://www.bahnhof.de/kunersdorf
wikidata=Q53828717
wikipedia=en:Kunersdorf station
id=node/2921682454</desc></wpt><wpt lat="51.6429571" lon="13.1736751"><name>Fermerswalde</name><desc>name=Fermerswalde
operator=DB InfraGO
public_transport=station
railway=station
railway:ref=LFMW
train=yes
uic_ref=8011537
website=https://www.bahnhof.de/fermerswalde
wheelchair=yes
wikidata=Q66901775
wikipedia=en:Fermerswalde station
id=node/2923559985</desc></wpt><wpt lat="52.8860705" lon="12.2242475"><name>Breddin</name><desc>name=Breddin
operator=DB Station&amp;Service AG
public_transport=station
railway=station
railway:ref=WBDN
railway:ref:DB=WBDN
ref:IFOPT=de:12068:900205250
ref:IFOPT:DB=de:12068:900205250
ref:station=839
train=yes
uic_ref=8011258
wheelchair=yes
id=node/2939764647</desc></wpt><wpt lat="52.2402279" lon="12.9669433"><name>Beelitz Stadt</name><desc>name=Beelitz Stadt
network=ODEG
operator=DB InfraGO AG
public_transport=station
railway=station
railway:ref=BBZS
railway:station_category=6
shelter=yes
train=yes
uic_name=Beelitz Stadt
uic_ref=8013468
website=https://www.bahnhof.de/beelitz-stadt
wheelchair=yes
wikidata=Q50378820
wikipedia=en:Beelitz Stadt station
id=node/2941789294</desc></wpt><wpt lat="52.9035102" lon="13.8695761"><name>Chorin</name><desc>name=Chorin
operator=DB Netz AG
public_transport=station
railway=station
railway:ref=WCOK
railway:station_category=6
train=yes
uic_ref=8011314
wheelchair=yes
wikidata=Q5105058
id=node/2967255951</desc></wpt><wpt lat="53.149173" lon="14.10192"><name>Passow (Uckermark)</name><desc>name=Passow (Uckermark)
operator=DB Netz AG
public_transport=station
railway=station
railway:ref=WPS
railway:station_category=6
source=bing
train=yes
uic_name=Passow(Uckermark)
uic_ref=8012611
wheelchair=yes
wikidata=Q801309
wikipedia=de:Bahnhof Passow (Uckermark)
id=node/2968441557</desc></wpt><wpt lat="52.551909" lon="12.9385373"><name>Wustermark</name><desc>name=Wustermark
operator=DB Netz AG;DB Station&amp;Service AG
public_transport=station
railway=station
railway:ref=BWUS
railway:station_category=5
train=yes
uic_ref=8010389
wheelchair=yes
wikidata=Q801647
wikipedia=de:Bahnhof Wustermark
id=node/3012589068</desc></wpt><wpt lat="52.9603392" lon="11.9491192"><name>Bad Wilsnack</name><desc>name=Bad Wilsnack
operator=DB Station&amp;Service AG
public_transport=station
railway=station
railway:ref=WWIL
railway:ref:DB=WWIL
ref:IFOPT=de:12070:900215110
ref:IFOPT:DB=de:12070:900215110
ref_name=Bad Wilsnack Bhf
train=yes
uic_ref=8011088
wheelchair=yes
wikidata=Q66898733
id=node/3054468017</desc></wpt><wpt lat="52.9034282" lon="12.0841656"><name>Glöwen</name><desc>name=Glöwen
operator=DB Netz AG
public_transport=station
railway=station
railway:ref=WGF
railway:station_category=6
train=yes
uic_ref=8011641
wheelchair=yes
wikidata=Q14550938
wikipedia=de:Bahnhof Glöwen
id=node/3054468018</desc></wpt><wpt lat="52.7539716" lon="13.2489095"><name>Oranienburg</name><desc>addr:city=Oranienburg
addr:housenumber=1
addr:postcode=16515
addr:street=Bahnhofsplatz
contact:phone=+49 30 297 43333
contact:website=http://www.s-bahn-berlin.de/fahrplanundnetz/bahnhof/oranienburg/112
light_rail=yes
name=Oranienburg
network=Verkehrsverbund Berlin-Brandenburg
network:short=VBB
note=S-Bahnhof
official_name=Oranienburg S-Bahn
operator=DB Netz AG;DB Station&amp;Service AG
public_transport=station
railway=station
railway:ref=BORB
railway:station_category=3
ref:station=4777
station=light_rail
uic_ref=8013487
wheelchair=yes
wikidata=Q2341669
wikipedia=de:Bahnhof Oranienburg
id=node/3086103738</desc></wpt><wpt lat="51.4547472" lon="14.0158266"><name>Hosena / Hóznja</name><desc>name=Hosena / Hóznja
name:de=Hosena
name:dsb=Hóznja
old_name=Hohenbocka
operator=DB InfraGO
public_transport=station
railway=station
railway:ref=BHC
railway:station_category=5
train=yes
uic_ref=8010171
website=https://www.bahnhof.de/hosena
wikidata=Q800932
wikipedia=de:Bahnhof Hosena
id=node/3110208785</desc></wpt><wpt lat="51.3733889" lon="13.7647538"><name>Ortrand</name><desc>addr:city=Ortrand
name=Ortrand
operator=DB InfraGO
public_transport=station
railway=station
railway:ref=BORT
railway:station_category=6
train=yes
uic_ref=8012565
website=https://www.bahnhof.de/ortrand
wikidata=Q105980691
id=node/3110215498</desc></wpt><wpt lat="52.0299212" lon="13.721538"><name>Brand Tropical Islands</name><desc>departures_board=timetable
name=Brand Tropical Islands
old_name=Brand (Niederlausitz)
operator=DB InfraGO
public_transport=station
railway=station
railway:ref=BBRA
ref:ibnr=8011250
toilets:wheelchair=yes
train=yes
uic_name=Brand (Niederlausitz)
website=https://www.bahnhof.de/brand-tropical-islands
wheelchair=limited
wheelchair:note=nur Gleis 1 Richtung Lübben
wikidata=Q63254482
wikipedia=de:Bahnhof Brand Tropical Islands
id=node/3190238273</desc></wpt><wpt lat="52.5182432" lon="13.6742567"><name>Hoppegarten (Mark)</name><desc>contact:phone=+49 30 297 43333
contact:website=http://www.s-bahn-berlin.de/fahrplanundnetz/bahnhof/hoppegarten-mark/81
light_rail=yes
name=Hoppegarten (Mark)
network=Verkehrsverbund Berlin-Brandenburg
network:short=VBB
network:wikidata=Q315451
official_name=Hoppegarten (Mark) S-Bahn
operator=DB Netz AG
public_transport=station
railway=station
railway:ref=BHPG
railway:station_category=4
station=light_rail
train=yes
uic_name=Hoppegarten(Mark)
uic_ref=8080750
wheelchair=yes
wikidata=Q15197357
wikipedia=de:Bahnhof Hoppegarten (Mark)
id=node/3204488807</desc></wpt><wpt lat="52.9263651" lon="12.7941323"><name>Neuruppin West</name><desc>internet_access=no
name=Neuruppin West
operator=DB Netz AG;DB Station&amp;Service AG
public_transport=station
railway=station
railway:ref=WNRW
railway:ref:parent=WNR
railway:station_category=6
ref:station=8013
train=yes
uic_ref=8010246
wheelchair=yes
wikipedia=de:Bahnhof Neuruppin West
id=node/3239187600</desc></wpt><wpt lat="52.3371793" lon="13.4160471"><name>Blankenfelde (Kr Teltow-Fläming)</name><desc>name=Blankenfelde (Kr Teltow-Fläming)
network=Verkehrsverbund Berlin-Brandenburg
network:short=VBB
network:wikidata=Q315451
note=Blankenfelde war bis 9.11.2023 ein Haltepunkt, die Weichen nördlich des Bahnsteigs gehörten zum Abzweig "Glasower Damm Süd", der seither in den Bahnhof integriert ist
operator=DB InfraGO AG
public_transport=station
railway=station
railway:ref=BBF
railway:station_category=6
ref:station=688
start_date=2023
station=train
train=yes
website=https://www.bahnhof.de/blankenfelde-kr-teltow-flaeming
wheelchair=yes
wikidata=Q800539
wikipedia=de:Bahnhof Blankenfelde (Kr Teltow-Fläming)
id=node/3401706881</desc></wpt><wpt lat="52.3165997" lon="13.0309886"><name>Michendorf</name><desc>name=Michendorf
operator=DB Netz AG
public_transport=station
railway=station
railway:ref=BMIP
railway:station_category=5
train=yes
uic_ref=8010233
wheelchair=yes
wikidata=Q19835118
wikipedia=de:Bahnhof Michendorf
id=node/3417780794</desc></wpt><wpt lat="52.3914695" lon="13.5127026"><name>Schönefeld (bei Berlin)</name><desc>name=Schönefeld (bei Berlin)
official_name=Schönefeld (bei Berlin)
old_name=Berlin-Schönefeld Flughafen;Flughafen BER – Terminal 5 (Schönefeld)
operator=DB Station&amp;Service AG
public_transport=station
railway=station
railway:ref=BFHS
railway:station_category=3
train=yes
uic_name=Berlin-Schönefeld Flughafen
wheelchair=yes
wikidata=Q661069
wikipedia=de:Bahnhof Berlin-Schönefeld Flughafen
id=node/3419922343</desc></wpt><wpt lat="52.3915165" lon="13.0672235"><name>Potsdam Hauptbahnhof</name><desc>departures_board=realtime
departures_board:speech_output=no
name=Potsdam Hauptbahnhof
official_name=Potsdam Hbf
operator=DB InfraGO
public_transport=station
railway=station
railway:ref=BPD
railway:station_category=2
shelter=yes
short_name=Potsdam Hbf
station=train
tactile_paving=yes
toilets:wheelchair=yes
train=yes
website=https://www.bahnhof.de/potsdam-hbf
wheelchair=yes
wikidata=Q647973
wikipedia=de:Potsdam Hauptbahnhof
id=node/3421260909</desc></wpt><wpt lat="52.3942847" lon="13.128292"><name>Griebnitzsee</name><desc>departures_board=timetable
name=Griebnitzsee
note=Vor Ort als Griebnitzsee ohne Präfix und Suffix augeschildert. Von der S-Bahn-Station betrieblich unabhängiger Bahnhof
official_name=Potsdam Griebnitzsee
operator=DB InfraGO
public_transport=station
railway=station
railway:ref=BGBS
railway:station_category=4
train=yes
uic_name=Potsdam Griebnitzsee
uic_ref=8080530
website=https://www.bahnhof.de/potsdam-griebnitzsee
wheelchair=yes
wikidata=Q315133
wikipedia=de:Bahnhof Potsdam Griebnitzsee
id=node/3423149134</desc></wpt><wpt lat="52.2967046" lon="13.631528"><name>Königs Wusterhausen</name><desc>addr:city=Königs Wusterhausen
addr:housenumber=5
addr:postcode=15711
addr:street=Bahnhofsvorplatz
contact:phone=+49 30 297 43333
contact:website=http://www.s-bahn-berlin.de/fahrplanundnetz/bahnhof/koenigs-wusterhausen/180
light_rail=yes
name=Königs Wusterhausen
network=Verkehrsverbund Berlin-Brandenburg
network:short=VBB
network:wikidata=Q315451
note=S-Bahn und Regionalverkehr teilen sich hier eine Betriebsstelle (einen Bahnhof)
operator=DB InfraGO AG
public_transport=station
railway=station
railway:ref=BKW
railway:station_category=3
ref:station=3343
station=light_rail
train=yes
uic_ref=8010193
wheelchair=yes
wheelchair:note=mit zeitlicher Einschränkung
wikidata=Q178002
wikipedia=de:Bahnhof Königs Wusterhausen
id=node/3508978355</desc></wpt><wpt lat="52.3484435" lon="13.627647"><name>Zeuthen</name><desc>contact:phone=+49 30 297 43333
contact:website=http://www.s-bahn-berlin.de/fahrplanundnetz/bahnhof/zeuthen/168
light_rail=yes
name=Zeuthen
network=Verkehrsverbund Berlin-Brandenburg
network:short=VBB
official_name=Zeuthen S-Bahn
operator=DB Netz AG
public_transport=station
railway=station
railway:ref=BZTH
railway:station_category=5
station=light_rail
uic_ref=8081580
wheelchair=yes
wikidata=Q8069824
wikipedia=de:Bahnhof Zeuthen
id=node/3508978359</desc></wpt><wpt lat="52.2994319" lon="13.6933602"><name>Zernsdorf</name><desc>name=Zernsdorf
public_transport=station
railway=station
railway:ref=BZF
train=yes
wheelchair=yes
wikidata=Q55638228
id=node/3508978360</desc></wpt><wpt lat="52.3909067" lon="13.5130469"><name>Schönefeld (bei Berlin)</name><desc>contact:phone=+49 30 297 43333
contact:website=http://www.s-bahn-berlin.de/fahrplanundnetz/bahnhof/flughafen-bln-schoenefeld/54
light_rail=yes
name=Schönefeld (bei Berlin)
network=Verkehrsverbund Berlin-Brandenburg
network:short=VBB
official_name=Schönefeld (bei Berlin)
old_name=Flughafen BER - Terminal 5
operator=DB Station&amp;Service AG
public_transport=station
railway=station
railway:ref=BFLH
railway:station_category=3
station=light_rail
uic_name=Berlin-Schönefeld Flughafen
uic_ref=8010109
wheelchair=limited
wikidata=Q661069
wikipedia=de:Bahnhof Berlin-Schönefeld Flughafen
id=node/3541526943</desc></wpt><wpt lat="52.3194124" lon="13.6338248"><name>Wildau</name><desc>contact:phone=+49 30 297 43333
contact:website=http://www.s-bahn-berlin.de/fahrplanundnetz/bahnhof/wildau/160
light_rail=yes
name=Wildau
network=Verkehrsverbund Berlin-Brandenburg
network:short=VBB
official_name=Wildau
operator=DB Netz AG
public_transport=station
railway=station
railway:ref=BWI
railway:station_category=5
station=light_rail
toilets:wheelchair=no
uic_ref=8081540
wheelchair=yes
wikidata=Q8000974
wikipedia=de:Bahnhof Wildau
id=node/3541526944</desc></wpt><wpt lat="52.5902873" lon="13.9085199"><name>Strausberg Nord</name><desc>addr:city=Strausberg
addr:housenumber=1
addr:postcode=15344
addr:street=Prötzeler Chaussee
contact:phone=+49 30 297 43333
contact:website=http://www.s-bahn-berlin.de/fahrplanundnetz/bahnhof/strausberg-nord/144
light_rail=yes
name=Strausberg Nord
network=Verkehrsverbund Berlin-Brandenburg
network:short=VBB
network:wikidata=Q315451
operator=DB InfraGO AG
public_transport=station
railway=station
railway:ref=BSTN
railway:station_category=6
ref:station=6059
station=light_rail
train=yes
uic_ref=8013064
wheelchair=yes
wikidata=Q7622324
wikipedia=de:Bahnhof Strausberg Nord
id=node/3556219972</desc></wpt><wpt lat="53.0021275" lon="11.7628467"><name>Wittenberge</name><desc>name=Wittenberge
operator=DB InfraGO AG
public_transport=station
railway=station
railway:ref=WW
railway:station_category=3
ref:station=6825
toilets:wheelchair=no
train=yes
uic_ref=8010382
wheelchair=limited
wikidata=Q320778
wikipedia=de:Bahnhof Wittenberge
id=node/3620887012</desc></wpt><wpt lat="51.5835919" lon="13.2472604"><name>Falkenberg (Elster)</name><desc>addr:city=Falkenberg/Elster
name=Falkenberg (Elster)
operator=DB InfraGO AG
public_transport=station
railway=station
railway:ref=LF
railway:station_category=3
train=yes
uic_name=Falkenberg(Elster)
uic_ref=8010103
website=https://www.bahnhof.de/falkenberg-elster
wheelchair=yes
wikidata=Q15529464
wikipedia=de:Bahnhof Falkenberg (Elster)
id=node/3627819074</desc></wpt><wpt lat="52.6758223" lon="12.7135272"><name>Paulinenaue</name><desc>name=Paulinenaue
operator=DB Netz AG
public_transport=station
railway=station
railway:ref=WPAU
railway:station_category=6
train=yes
uic_ref=8012614
wheelchair=yes
wikidata=Q19428235
wikipedia=de:Bahnhof Paulinenaue
id=node/3635789064</desc></wpt><wpt lat="51.5270113" lon="14.0036375"><name>Senftenberg - Zły Komorow</name><desc>addr:city=Senftenberg
addr:street=Güterbahnhofstraße
name=Senftenberg - Zły Komorow
name:de=Senftenberg
name:hsb=Zły Komorow
operator=DB InfraGO
public_transport=station
railway=station
railway:ref=BSN
railway:station_category=5
survey:date=2024-08-01
train=yes
uic_ref=8010327
website=https://www.bahnhof.de/senftenberg
wheelchair=yes
wikidata=Q801427
wikipedia=de:Bahnhof Senftenberg
id=node/3635889452</desc></wpt><wpt lat="51.6552201" lon="14.2232549"><name>Drebkau</name><desc>internet_access=no
name=Drebkau
name:dsb=Drjowk
name:hsb=Drjowk
network=Verkehrsverbund Berlin-Brandenburg
network:short=VBB
network:wikidata=Q315451
operator=DB InfraGO
public_transport=station
railway=station
railway:ref=BDR
railway:station_category=6
train=yes
website=https://www.bahnhof.de/drebkau
wheelchair=no
wikidata=Q108677691
id=node/3658075729</desc></wpt><wpt lat="53.0158331" lon="13.9959905"><name>Angermünde</name><desc>name=Angermünde
public_transport=station
railway=station
railway:ref=WA
railway:station_category=3
train=yes
uic_ref=8010004
wheelchair=yes
wikidata=Q439525
wikipedia=de:Bahnhof Angermünde
id=node/3658775594</desc></wpt><wpt lat="53.2142846" lon="14.0191746"><name>Gramzow (Uckerm.)</name><desc>name=Gramzow (Uckerm.)
public_transport=station
railway=station
train=yes
wikidata=Q108535788
id=node/3660746222</desc></wpt><wpt lat="52.6842919" lon="13.1729152"><name>Velten (Mark)</name><desc>ele=37
name=Velten (Mark)
public_transport=station
railway=station
railway:ref=BVLT
railway:station_category=5
start_date=1893-10-01
train=yes
uic_ref=8013185
wheelchair=yes
wikidata=Q19274518
wikipedia=de:Bahnhof Velten (Mark)
id=node/3664185898</desc></wpt><wpt lat="52.3509138" lon="13.2847017"><name>Großbeeren</name><desc>name=Großbeeren
operator=DB InfraGO
public_transport=station
railway=station
railway:ref=BGSB
railway:station_category=6
train=yes
uic_ref=8011740
website=https://www.bahnhof.de/grossbeeren
wheelchair=limited
wikidata=Q800846
wikipedia=de:Bahnhof Großbeeren
id=node/3793888458</desc></wpt><wpt lat="53.3111658" lon="12.247386"><name>Meyenburg</name><desc>name=Meyenburg
operator=Regio Infra Nord-Ost GmbH &amp; Co. KG
operator:wikidata=Q2138117
public_transport=station
railway=station
railway:ref=WME
train=yes
wheelchair=yes
wikidata=Q104964983
id=node/3796138309</desc></wpt><wpt lat="52.905416" lon="12.9780496"><name>Herzberg (Mark)</name><desc>name=Herzberg (Mark)
operator=Regio Infra Nord-Ost GmbH &amp; Co. KG
operator:wikidata=Q2138117
public_transport=station
railway=station
railway:ref=WHE
train=yes
wheelchair=no
wikidata=Q30106124
id=node/3827714918</desc></wpt><wpt lat="52.8967303" lon="13.1899592"><name>Löwenberg (Mark)</name><desc>name=Löwenberg (Mark)
network=Verkehrsverbund Berlin-Brandenburg
operator=DB Netz AG
public_transport=station
railway=station
railway:ref=WLO
railway:station_category=5
train=yes
uic_name=Löwenberg(Mark)
uic_ref=8010214
wheelchair=no
wheelchair:note=nur Gleis 1 Richtung Oranienburg
wikidata=Q20184661
wikipedia=de:Bahnhof Löwenberg (Mark)
id=node/3827714922</desc></wpt><wpt lat="53.0927817" lon="12.9002055"><name>Rheinsberg (Mark)</name><desc>departures_board=timetable
name=Rheinsberg (Mark)
operator=Regio Infra Nord-Ost GmbH &amp; Co. KG
operator:wikidata=Q2138117
public_transport=station
railway=station
railway:ref=WRH
railway:station_category=6
toilets:wheelchair=yes
train=yes
uic_ref=8012760
wheelchair=yes
wikidata=Q18687247
wikipedia=de:Bahnhof Rheinsberg (Mark)
id=node/3839714723</desc></wpt><wpt lat="53.0713207" lon="11.8520684"><name>Perleberg</name><desc>name=Perleberg
operator=DB Netz AG
public_transport=station
railway=station
railway:ref=WPB
railway:station_category=6
ref:IFOPT=de:12070:900215696
ref:IFOPT:DB=de:12070:900215696
train=yes
uic_ref=8012622
wheelchair=yes
wikidata=Q14551300
wikipedia=de:Bahnhof Perleberg
id=node/3844982847</desc></wpt><wpt lat="53.256318" lon="12.2292489"><name>Brügge(Prign)</name><desc>name=Brügge(Prign)
operator=Regio Infra Nord-Ost GmbH &amp; Co. KG
operator:wikidata=Q2138117
public_transport=station
railway=station
railway:ref=WBGE
train=yes
id=node/3919552217</desc></wpt><wpt lat="52.6051449" lon="13.6116227"><name>Blumberg (b Berlin)</name><desc>addr:city=Ahrensfelde
addr:country=DE
addr:housenumber=2
addr:postcode=16356
addr:street=Am Bahnhof
addr:suburb=Blumberg
name=Blumberg (b Berlin)
network=Verkehrsverbund Berlin-Brandenburg
phone=+49 30 2971055
public_transport=station
railway=station
railway:ref=BBLU
train=yes
website=http://bahnhof.de/#station/17359
wheelchair=yes
wikidata=Q52677427
id=node/3936632581</desc></wpt><wpt lat="52.6373179" lon="13.7374233"><name>Werneuchen</name><desc>name=Werneuchen
network=Verkehrsverbund Berlin-Brandenburg
public_transport=station
railway=station
railway:ref=BWER
train=yes
uic_ref=8013285
wheelchair=yes
wikidata=Q20191237
wikipedia=de:Bahnhof Werneuchen
id=node/3936632941</desc></wpt><wpt lat="53.1123662" lon="13.4915853"><name>Templin</name><desc>name=Templin
network=Verkehrsverbund Berlin-Brandenburg
operator=DB Netz AG
public_transport=station
railway=station
railway:ref=WT
railway:station_category=7
train=yes
uic_ref=8010347
wheelchair=limited
wheelchair:note=nur Gleis 1 Zugverkehr zur Zeit nur auf Gleis 1
wikidata=Q801509
wikipedia=de:Bahnhof Templin
id=node/3937863135</desc></wpt><wpt lat="53.037652" lon="13.3856628"><name>Vogelsang (Kr Oberhavel)</name><desc>name=Vogelsang (Kr Oberhavel)
network=Verkehrsverbund Berlin-Brandenburg
note=heißt seit 11. Dezember 2022 "Vogelsang (Kr Oberhavel)", zuvor "Vogelsang (Kr Gransee)" (https://www.dbnetze.com/infrastruktur-de/Kundeninformationen/2022_46_Bahnhofsumbenennung-9184030)
operator=DB Netz AG
public_transport=station
railway=station
railway:ref=WVOG
ref:station=6433
source:name=https://www.dbnetze.com/infrastruktur-de/Kundeninformationen/2022_46_Bahnhofsumbenennung-9184030
train=yes
wheelchair=yes
id=node/3937863137</desc></wpt><wpt lat="52.9792998" lon="13.3174151"><name>Zehdenick(Mark)</name><desc>name=Zehdenick(Mark)
network=Verkehrsverbund Berlin-Brandenburg
note="Zehdenick(Mark)" ist die offizielle Betriebsstellenbezeichnung laut Fahrplanmedien und Betriebsstellenverzeichnis
operator=DB Station&amp;Service AG
public_transport=station
railway=station
railway:ref=WZE
train=yes
wheelchair=yes
wikidata=Q19835128
id=node/3937863138</desc></wpt><wpt lat="52.6647002" lon="13.3400405"><name>Schönfließ</name><desc>check_date:wheelchair=2022-10-02
contact:phone=+49 30 297 43333
contact:website=http://www.s-bahn-berlin.de/fahrplanundnetz/bahnhof/schoenfliess/134
light_rail=yes
name=Schönfließ
network=Verkehrsverbund Berlin-Brandenburg
network:short=VBB
official_name=Schönfließ S-Bahn
operator=DB Netz AG
public_transport=station
railway=station
railway:ref=BSNF
railway:station_category=6
station=light_rail
uic_name=Schönfließ(b Oranienburg)
uic_ref=8081290
wheelchair=no
wikidata=Q801423
wikipedia=de:Bahnhof Schönfließ
id=node/4059804083</desc></wpt><wpt lat="51.8439063" lon="14.4495138"><name>Peitz Ost - Picnjo pódzajtšo</name><desc>name=Peitz Ost - Picnjo pódzajtšo
name:de=Peitz Ost
name:dsb=Picnjo pódzajtšo
operator=DB InfraGO
public_transport=station
railway=station
railway:ref=BPO
railway:station_category=6
ref:ibnr=8012621
train=yes
uic_ref=8012621
website=https://www.bahnhof.de/peitz-ost
wheelchair=yes
wikidata=Q19274501
wikipedia=de:Bahnhof Peitz Ost
id=node/4126934394</desc></wpt><wpt lat="53.3222738" lon="13.8666984"><name>Prenzlau</name><desc>addr:city=Prenzlau
addr:housenumber=52
addr:postcode=17291
addr:street=Stettiner Straße
name=Prenzlau
operator=DB Netz AG
phone=+49 30 2971055
public_transport=station
railway=station
railway:ref=WPL
railway:station_category=4
train=yes
uic_ref=8010282
wheelchair=yes
wheelchair:note=nur Gleis 2 Richtung Angermünde
wikidata=Q323587
wikipedia=de:Bahnhof Prenzlau
id=node/4263811827</desc></wpt><wpt lat="51.967912" lon="12.9787903"><name>Niedergörsdorf</name><desc>name=Niedergörsdorf
operator=DB InfraGO
public_transport=station
railway=station
railway:ref=LNF
ref:IFOPT=de:12072:900245017
train=yes
uic_ref=8012487
website=https://www.bahnhof.de/niedergoersdorf
wheelchair=yes
wikidata=Q58000784
id=node/4339716786</desc></wpt><wpt lat="53.2974172" lon="14.0183725"><name>Damme</name><desc>name=Damme
note=Museumsbahn Gramzow
public_transport=station
railway=station
train=yes
id=node/4677287725</desc></wpt><wpt lat="52.6723544" lon="13.2713208"><name>Hohen Neuendorf West</name><desc>building=yes
name=Hohen Neuendorf West
network=Verkehrsverbund Berlin-Brandenburg
network:short=VBB
network:wikidata=Q315451
operator=DB Netz AG
public_transport=station
railway=station
railway:ref=BHOW
railway:station_category=6
train=yes
uic_ref=8080710
wheelchair=yes
wikidata=Q15107188
wikipedia=de:Bahnhof Hohen Neuendorf West
id=node/4747965207</desc></wpt><wpt lat="52.5321197" lon="13.833664"><name>Strausberg</name><desc>name=Strausberg
network=Verkehrsverbund Berlin-Brandenburg
network:short=VBB
network:wikidata=Q315451
operator=DB InfraGO AG
public_transport=station
railway=station
railway:ref=BST
railway:station_category=4
ref:station=6058
train=yes
uic_name=Strausberg
wheelchair=yes
wikidata=Q7622326
wikipedia=de:Bahnhof Strausberg
id=node/4946539222</desc></wpt><wpt lat="51.6382725" lon="13.6905384"><name>Finsterwalde Frankenaer Weg NLME</name><desc>disused:public_transport=station
disused:railway=station
name=Finsterwalde Frankenaer Weg NLME
railway=station
train=yes
id=node/5018394904</desc></wpt><wpt lat="52.6525426" lon="13.42858"><name>Schönerlinde</name><desc>name=Schönerlinde
public_transport=station
railway=station
railway:ref=BSL
train=yes
wheelchair=yes
wikidata=Q65480881
id=node/5202316503</desc></wpt><wpt lat="53.0654557" lon="14.0892014"><name>Pinnow (Uckermark)</name><desc>name=Pinnow (Uckermark)
network=Verkehrsverbund Berlin-Brandenburg
operator=DB Netz AG
public_transport=station
railway=station
railway:ref=WPIN
train=yes
uic_ref=8012637
wikidata=Q7196369
id=node/5202809460</desc></wpt><wpt lat="52.7898984" lon="14.035594"><name>Bad Freienwalde (Oder)</name><desc>name=Bad Freienwalde (Oder)
official_name=Bad Freienwalde (Oder)
operator=DB Netz AG
public_transport=station
railway=station
railway:ref=WFW
railway:station_category=6
train=yes
uic_ref=8010017
wheelchair=yes
wikidata=Q20730082
wikipedia=de:Bahnhof Bad Freienwalde (Oder)
id=node/5213148701</desc></wpt><wpt lat="52.4997993" lon="12.4586248"><name>Pritzerbe</name><desc>name=Pritzerbe
operator=DB Netz AG
public_transport=station
railway=station
railway:ref=LPI
train=yes
wikidata=Q15406861
id=node/5222302830</desc></wpt><wpt lat="53.112216" lon="13.8920805"><name>Wilmersdorf (bei Angermünde)</name><desc>name=Wilmersdorf (bei Angermünde)
operator=DB InfraGO AG
public_transport=station
railway=station
railway:ref=WWLD
train=yes
uic_ref=8013313
wheelchair=limited
wheelchair:note=nur Gleis 1 Richtung Prenzlau
wikidata=Q8022711
id=node/5224018761</desc></wpt><wpt lat="51.5901528" lon="13.360641"><name>Beutersitz</name><desc>internet_access=no
name=Beutersitz
network=Verkehrsverbund Berlin-Brandenburg
network:short=VBB
network:wikidata=Q315451
operator=DB InfraGO
public_transport=station
railway=station
railway:ref=BBE
train=yes
uic_ref=8011179
website=https://www.bahnhof.de/beutersitz
wheelchair=yes
wikidata=Q108761688
id=node/5272794039</desc></wpt><wpt lat="51.6369946" lon="13.710383"><name>Finsterwalde (Niederlausitz)</name><desc>name=Finsterwalde (Niederlausitz)
name:dsb=Grabin
name:hsb=Grabin
operator=DB InfraGO
public_transport=station
railway=station
railway:ref=BFW
railway:station_category=5
ref:station=1795
train=yes
uic_name=Finsterwalde(Niederlausitz)
website=https://www.bahnhof.de/finsterwalde-niederlausitz
wheelchair=yes
wikidata=Q51507718
wikipedia=de:Bahnhof Finsterwalde (Niederlausitz)
id=node/5272794041</desc></wpt><wpt lat="51.7046887" lon="13.8869092"><name>Gollmitz (Niederlausitz) - Chańc (Dolna Łužyca)</name><desc>name=Gollmitz (Niederlausitz) - Chańc (Dolna Łužyca)
name:de=Gollmitz (Niederlausitz)
name:dsb=Chańc
name:hsb=Chańc
operator=DB InfraGO
public_transport=station
railway=station
railway:ref=BGM
train=yes
website=https://www.bahnhof.de/gollmitz-niederlausitz
wikidata=Q108761747
id=node/5272794042</desc></wpt><wpt lat="52.2040521" lon="14.1143667"><name>Lindenberg (Mark)</name><desc>name=Lindenberg (Mark)
operator=DB Netz AG;DB Station&amp;Service AG
public_transport=station
railway=station
railway:ref=BLNG
railway:station_category=7
ref:station=3732
train=yes
wheelchair=yes
wikidata=Q55616886
id=node/5295518449</desc></wpt><wpt lat="51.9097069" lon="14.6280404"><name>Kerkwitz - Keŕkojce</name><desc>name=Kerkwitz - Keŕkojce
name:de=Kerkwitz
name:dsb=Keŕkojce
operator=DB InfraGO
public_transport=station
railway=station
railway:ref=BKE
ref:ibnr=8012006
train=yes
uic_ref=8012006
website=https://www.bahnhof.de/kerkwitz
wheelchair=yes
wikidata=Q70228676
id=node/5307098826</desc></wpt><wpt lat="52.198993" lon="14.6165666"><name>Ziltendorf</name><desc>name=Ziltendorf
operator=DB Netz AG
public_transport=station
railway=station
railway:ref=BZIL
railway:station_category=6
ref:station=7023
train=yes
uic_ref=8013406
wheelchair=yes
id=node/5307098840</desc></wpt><wpt lat="51.9590817" lon="14.7067478"><name>Guben</name><desc>name=Guben
operator=DB InfraGO
public_transport=station
railway=station
railway:ref=BGU
ref:ibnr=8010357
train=yes
uic_ref=8010357
website=https://www.bahnhof.de/guben
wheelchair=yes
wikidata=Q800855
wikipedia=de:Bahnhof Guben
id=node/5307138322</desc></wpt><wpt lat="52.0647314" lon="14.7149956"><name>Wellmitz</name><desc>name=Wellmitz
public_transport=station
railway=station
railway:ref=BWZ
train=yes
uic_ref=8013272
wheelchair=limited
wheelchair:note=nur Gleis 1 Zugverkehr zur Zeit nur auf Gleis 1
wikidata=Q55973018
id=node/5307138724</desc></wpt><wpt lat="52.058738" lon="13.5116065"><name>Baruth (Mark)</name><desc>name=Baruth (Mark)
name:de=Baruth (Mark)
name:hsb=Želm
public_transport=station
railway=station
railway:ref=BBA
train=yes
uic_ref=8011116
wheelchair=yes
wheelchair:note=nur Gleis 1 Richtung Elsterwerda
wikidata=Q4865924
wikipedia:en=Baruth (Mark) station
id=node/5371174784</desc></wpt><wpt lat="51.7389354" lon="14.637064"><name>Forst (Lausitz) / Baršć (Łužyca)</name><desc>addr:city=Forst (Lausitz)
addr:housenumber=1
addr:postcode=03149
addr:street=Sorauer Straße
name=Forst (Lausitz) / Baršć (Łužyca)
name:de=Forst (Lausitz)
name:dsb=Baršć (Łužyca)
name:hsb=Baršć (Łužyca)
operator=DB InfraGO AG
public_transport=station
railway=station
railway:ref=BFO
railway:station_category=6
ref:ibnr=8010111
ref:station=1834
train=yes
uic_name=Forst(Lausitz)
website=https://www.bahnhof.de/forst-lausitz
wheelchair=limited
wikidata=Q9261540
wikipedia=de:Bahnhof Forst (Lausitz)
id=node/5546585675</desc></wpt><wpt lat="51.4745905" lon="13.7430024"><name>Lauchhammer</name><desc>addr:city=Lauchhammer
addr:street=Dimitroffstraße
name=Lauchhammer
operator=DB InfraGO
public_transport=station
railway=station
railway:ref=BLH
ref:station=3573
train=yes
uic_ref=8012169
website=https://www.bahnhof.de/lauchhammer
wheelchair=limited
wikidata=Q115925760
id=node/5634925006</desc></wpt><wpt lat="52.5381729" lon="14.3944582"><name>Seelow (Mark)</name><desc>name=Seelow (Mark)
name:de=Seelow (Mark)
name:pl=Seelow (Mark)
name:ru=Зелов (Марк)
opening_hours=Mo-Fr 04:27-21:30
public_transport=station
railway=station
railway:ref=BSLO
railway:station_category=6
train=yes
uic_ref=8012973
wheelchair=yes
wikidata=Q55632803
id=node/5669453776</desc></wpt><wpt lat="51.7435862" lon="14.5183951"><name>Klinge / Klinka</name><desc>name=Klinge / Klinka
name:de=Klinge
name:dsb=Klinka
name:hsb=Klinka
operator=DB InfraGO
public_transport=station
railway=station
railway:ref=BKG
ref:ibnr=8012043
train=yes
website=https://www.bahnhof.de/klinge
wheelchair=yes
wikidata=Q53804432
wikipedia=en:Klinge station
id=node/5669647377</desc></wpt><wpt lat="53.1227996" lon="12.0470037"><name>Groß Pankow</name><desc>name=Groß Pankow
operator=DB Netz AG
public_transport=station
railway=station
railway:ref=WGP
railway:station_category=6
train=yes
uic_ref=8011730
wheelchair=yes
wikidata=Q109442950
id=node/5669677742</desc></wpt><wpt lat="51.7453072" lon="14.3534305"><name>Zoo</name><desc>name=Zoo
name:hsb=Coo
operator=Cottbusverkehr GmbH
public_transport=station
railway=station
station=miniature
train=yes
usage=leisure
wheelchair=yes
id=node/5675001169</desc></wpt><wpt lat="52.5609333" lon="14.0754967"><name>Buckow (Märkische Schweiz)</name><desc>name=Buckow (Märkische Schweiz)
public_transport=station
railway=station
train=yes
usage=tourism
wikidata=Q56015910
id=node/5816743113</desc></wpt><wpt lat="51.9739322" lon="13.5748614"><name>Golßen (Niederlausitz)</name><desc>name=Golßen (Niederlausitz)
operator=DB Station&amp;Service AG
public_transport=station
railway=station
railway:ref=BGO
source=bing;survey
train=yes
wheelchair=yes
wikidata=Q5581050
id=node/5865963763</desc></wpt><wpt lat="52.1655531" lon="13.4680723"><name>Wünsdorf-Waldstadt</name><desc>name=Wünsdorf-Waldstadt
operator=DB Station&amp;Service AG
public_transport=station
railway=station
railway:ref=BWUE
railway:station_category=5
ref:station=6910
train=yes
wheelchair=yes
id=node/5865963764</desc></wpt><wpt lat="53.0992488" lon="13.6371237"><name>Milmersdorf</name><desc>name=Milmersdorf
operator=NEB Betriebsgesellschaft mbH
public_transport=station
railway=station
railway:ref=WMF
train=yes
id=node/6107375458</desc></wpt><wpt lat="51.6460854" lon="14.5769458"><name>Haltepunkt Pavilion</name><desc>name=Haltepunkt Pavilion
network=Ziegeleibahn Klein Kölzig
operator=Klein Kölziger Ziegeleibahnverein e.V.
public_transport=station
railway=station
train=yes
id=node/6225306412</desc></wpt><wpt lat="51.6460088" lon="14.578739"><name>Bf. Ziegelei</name><desc>internet_access=no
name=Bf. Ziegelei
operator=Klein Kölziger Ziegeleibahn e.V.
public_transport=station
railway=station
train=yes
id=node/6225453911</desc></wpt><wpt lat="52.4118397" lon="12.5303484"><name>Brandenburg-Altstadt</name><desc>name=Brandenburg-Altstadt
operator=DB Netz AG
public_transport=station
railway=station
railway:ref=LBA
railway:station_category=7
train=yes
uic_name=Brandenburg-Altstadt
uic_ref=8011252
wikidata=Q18616521
wikipedia=de:Bahnhof Brandenburg-Altstadt
id=node/6579442494</desc></wpt><wpt lat="53.120621" lon="12.5218365"><name>Dossow (Prignitz)</name><desc>name=Dossow (Prignitz)
operator=DB InfraGO AG
public_transport=station
railway=station
railway:ref=WDOW
ref:station=1331
train=yes
uic_ref=8011408
wheelchair=yes
id=node/6703915897</desc></wpt><wpt lat="53.0923086" lon="12.1220362"><name>Mesendorf</name><desc>name=Mesendorf
operator=Prignitzer Kleinbahnmuseum Lindenberg e. V.
public_transport=station
railway=station
train=yes
id=node/6764700152</desc></wpt><wpt lat="53.0681533" lon="12.1333043"><name>Brünkendorf</name><desc>name=Brünkendorf
public_transport=station
railway=station
train=yes
id=node/6764700153</desc></wpt><wpt lat="53.0628739" lon="14.2907274"><name>Schwedt (Oder)</name><desc>name=Schwedt (Oder)
public_transport=station
railway=station
railway:ref=WSC
train=yes
wheelchair=yes
wikidata=Q7433219
wikipedia=de:Bahnhof Schwedt (Oder)
id=node/6771979264</desc></wpt><wpt lat="52.590478" lon="12.2311179"><name>Großwudicke</name><desc>name=Großwudicke
operator=DB Netz AG;DB Station&amp;Service AG
public_transport=station
railway=station
railway:ref=LGWU
train=yes
wikidata=Q5611829
id=node/7590449800</desc></wpt><wpt lat="51.7897952" lon="14.0808872"><name>Vetschau / Wětošow</name><desc>name=Vetschau / Wětošow
name:de=Vetschau
name:dsb=Wětošow
name:hsb=Wětošow
operator=DB InfraGO
public_transport=station
railway=station
railway:ref=BV
railway:station_category=6
ref:station=6411
train=yes
website=https://www.bahnhof.de/vetschau
wheelchair=yes
wikidata=Q55637080
wikipedia=en:Vetschau station
id=node/7601805083</desc></wpt><wpt lat="52.2170534" lon="13.2299083"><name>Trebbin</name><desc>addr:city=Trebbin
addr:housenumber=2
addr:postcode=14959
addr:street=Am Bahnhof
name=Trebbin
operator=DB InfraGO AG
public_transport=station
railway=station
railway:ref=BTN
railway:station_category=5
ref:station=6242
train=yes
wheelchair=yes
wikidata=Q62083850
id=node/7609525147</desc></wpt><wpt lat="51.7362945" lon="14.3589162"><name>Park und Schloß Branitz</name><desc>name=Park und Schloß Branitz
name:hsb=Rogeński park a grod
operator=Cottbusverkehr GmbH
public_transport=station
railway=station
station=miniature
train=yes
usage=leisure
wheelchair=yes
id=node/8016774960</desc></wpt><wpt lat="51.7546569" lon="14.3537875"><name>Sandower Dreieck</name><desc>name=Sandower Dreieck
name:hsb=Žandojski tśirožk
operator=Cottbusverkehr GmbH
public_transport=station
railway=station
station=miniature
train=yes
usage=leisure
id=node/9111724326</desc></wpt><wpt lat="53.0334332" lon="12.1307077"><name>Lindenberg</name><desc>name=Lindenberg
operator=Prignitzer Kleinbahnmuseum Lindenberg e. V.
public_transport=station
railway=station
train=yes
id=node/9833930594</desc></wpt><wpt lat="52.9803346" lon="13.7496862"><name>Joachimsthal</name><desc>name=Joachimsthal
operator=DB Netz AG
public_transport=station
railway=station
railway:ref=WJT
ref:station=3055
train=yes
id=node/9897789947</desc></wpt><wpt lat="51.7413988" lon="13.7663568"><name>Töpfermarkt Chrinitz</name><desc>name=Töpfermarkt Chrinitz
railway=station
id=node/10660900775</desc></wpt><wpt lat="51.6456036" lon="14.5835243"><name>Hp. Naturbad (geplant)</name><desc>name=Hp. Naturbad (geplant)
operator=Klein Kölziger Ziegeleibahn e.V.
public_transport=station
railway=station
train=yes
id=node/10840207830</desc></wpt><wpt lat="51.6434294" lon="14.582146"><name>Hp. Mischwerk (geplant)</name><desc>name=Hp. Mischwerk (geplant)
operator=Klein Kölziger Ziegeleibahn e.V.
public_transport=station
railway=station
train=yes
wheelchair=no
id=node/10840207831</desc></wpt><wpt lat="51.644935" lon="14.5775816"><name>Bf. Betriebswerk (Abgebaut)</name><desc>name=Bf. Betriebswerk (Abgebaut)
operator=Klein Kölziger Ziegeleibahn e.V.
public_transport=station
railway=station
train=no
id=node/10840207832</desc></wpt><wpt lat="52.0549473" lon="13.2343691"><name>Jänickendorf</name><desc>name=Jänickendorf
public_transport=station
railway=station
station=miniature
train=yes
wheelchair=yes
id=node/11250596760</desc></wpt><wpt lat="52.0549508" lon="13.2341166"><name>Jänickendorf</name><desc>name=Jänickendorf
public_transport=station
railway=station
station=miniature
train=yes
wheelchair=yes
id=node/11250596761</desc></wpt><wpt lat="52.1974223" lon="14.394353"><name>Mixdorf</name><desc>name=Mixdorf
public_transport=station
railway=station
ref:station=4142
train=yes
wheelchair=yes
id=node/11429191180</desc></wpt><wpt lat="52.4829228" lon="13.7838013"><name>Obere Spitzkehre</name><desc>internet_access=no
name=Obere Spitzkehre
network=Feldbahn Rüdersdorf
operator=Museumspark Ziegeleibahn Herzfelde e.V.
public_transport=station
railway=station
train=yes
id=node/12140888378</desc></wpt><wpt lat="52.4821635" lon="13.7872238"><name>Schachtofenbatterie</name><desc>internet_access=no
name=Schachtofenbatterie
network=Feldbahn Rüdersdorf
operator=Museumspark &amp; Ziegeleibahn Herzfelde e.V.
public_transport=station
railway=station
train=yes
id=node/12140888379</desc></wpt><wpt lat="52.9637053" lon="13.7549247"><name>Joachimsthal Kaiserbahnhof</name><desc>name=Joachimsthal Kaiserbahnhof
operator=DB Netz AG
public_transport=station
railway=station
ref:station=6676
train=yes
id=node/12245850876</desc></wpt></gpx>